timestamp,elapsed_s,experiment,phase,sample_index,target_lat,target_lon,target_alt,target_drift_m,obs_lat,obs_lon,obs_alt,official_drift_m,target_error_m,reflected,gps_fix_type,gps_satellites,gps_raw_lat,gps_raw_lon,gps_raw_alt,vn,ve,vd,commanded_speed_mps,commanded_accel_mps2,message_type,status_text,mode,fence_breach_status,fence_breach_count,fence_breach_type
2026-07-06T16:40:24.184028+00:00,0.016282320022583008,E4_ekf_smooth_gps_input,warmup,0,37.5665,126.978,20.0,0.0,,,,,,,,,,,,,,,0.0,0.0,STATUSTEXT,GPS 1: detected MAV,,,,
2026-07-06T16:40:24.232255+00:00,0.0645134449005127,E4_ekf_smooth_gps_input,warmup,0,37.5665,126.978,20.0,0.0,,,,,,,,,,,,,,,0.0,0.0,HEARTBEAT,GPS 1: detected MAV,STABILIZE,,,
2026-07-06T16:40:24.232414+00:00,0.06464791297912598,E4_ekf_smooth_gps_input,warmup,0,37.5665,126.978,20.0,0.0,37.5665,126.978,0.0,0.0,0.0,0,,,,,,0.0,0.0,0.0,0.0,0.0,GLOBAL_POSITION_INT,GPS 1: detected MAV,STABILIZE,,,
2026-07-06T16:40:24.233833+00:00,0.06607842445373535,E4_ekf_smooth_gps_input,warmup,0,37.5665,126.978,20.0,0.0,,,,,,,3,12,37.5665,126.978,20.0,,,,0.0,0.0,GPS_RAW_INT,GPS 1: detected MAV,STABILIZE,,,
2026-07-06T16:40:24.438919+00:00,0.27118849754333496,E4_ekf_smooth_gps_input,warmup,0,37.5665,126.978,20.0,0.0,,,,,,,3,12,37.5665,126.978,20.0,,,,0.0,0.0,HEARTBEAT,GPS 1: detected MAV,STABILIZE,,,
2026-07-06T16:40:24.439116+00:00,0.27135205268859863,E4_ekf_smooth_gps_input,warmup,0,37.5665,126.978,20.0,0.0,37.5665,126.978,0.0,0.0,0.0,0,3,12,37.5665,126.978,20.0,0.0,0.0,0.0,0.0,0.0,GLOBAL_POSITION_INT,GPS 1: detected MAV,STABILIZE,,,
2026-07-06T16:40:24.439474+00:00,0.2717146873474121,E4_ekf_smooth_gps_input,warmup,0,37.5665,126.978,20.0,0.0,,,,,,,3,12,37.5665,126.978,20.0,,,,0.0,0.0,GPS_RAW_INT,GPS 1: detected MAV,STABILIZE,,,
2026-07-06T16:40:24.637911+00:00,0.4701671600341797,E4_ekf_smooth_gps_input,warmup,0,37.5665,126.978,20.0,0.0,,,,,,,3,12,37.5665,126.978,20.0,,,,0.0,0.0,HEARTBEAT,GPS 1: detected MAV,STABILIZE,,,
2026-07-06T16:40:24.638092+00:00,0.47033262252807617,E4_ekf_smooth_gps_input,warmup,0,37.5665,126.978,20.0,0.0,37.5665,126.978,0.0,0.0,0.0,0,3,12,37.5665,126.978,20.0,0.0,0.0,0.0,0.0,0.0,GLOBAL_POSITION_INT,GPS 1: detected MAV,STABILIZE,,,
2026-07-06T16:40:24.638520+00:00,0.47075819969177246,E4_ekf_smooth_gps_input,warmup,0,37.5665,126.978,20.0,0.0,,,,,,,3,12,37.5665,126.978,20.0,,,,0.0,0.0,GPS_RAW_INT,GPS 1: detected MAV,STABILIZE,,,
2026-07-06T16:40:24.655242+00:00,0.48749804496765137,E4_ekf_smooth_gps_input,warmup,0,37.5665,126.978,20.0,0.0,,,,,,,3,12,37.5665,126.978,20.0,,,,0.0,0.0,STATUSTEXT,EKF3 IMU0 initialised,STABILIZE,,,
2026-07-06T16:40:24.655311+00:00,0.48754358291625977,E4_ekf_smooth_gps_input,warmup,0,37.5665,126.978,20.0,0.0,,,,,,,3,12,37.5665,126.978,20.0,,,,0.0,0.0,STATUSTEXT,EKF3 IMU1 initialised,STABILIZE,,,
2026-07-06T16:40:24.687931+00:00,0.5201864242553711,E4_ekf_smooth_gps_input,warmup,0,37.5665,126.978,20.0,0.0,,,,,,,3,12,37.5665,126.978,20.0,,,,0.0,0.0,STATUSTEXT,AHRS: EKF3 active,STABILIZE,,,
2026-07-06T16:40:24.856182+00:00,0.6884398460388184,E4_ekf_smooth_gps_input,warmup,0,37.5665,126.978,20.0,0.0,,,,,,,3,12,37.5665,126.978,20.0,,,,0.0,0.0,HEARTBEAT,AHRS: EKF3 active,STABILIZE,,,
2026-07-06T16:40:24.856375+00:00,0.688615083694458,E4_ekf_smooth_gps_input,warmup,0,37.5665,126.978,20.0,0.0,37.5665,126.978,20.0,0.0,0.0,0,3,12,37.5665,126.978,20.0,0.0,0.0,0.05,0.0,0.0,GLOBAL_POSITION_INT,AHRS: EKF3 active,STABILIZE,,,
2026-07-06T16:40:24.856778+00:00,0.6890170574188232,E4_ekf_smooth_gps_input,warmup,0,37.5665,126.978,20.0,0.0,,,,,,,3,12,37.5665,126.978,20.0,,,,0.0,0.0,GPS_RAW_INT,AHRS: EKF3 active,STABILIZE,,,
2026-07-06T16:40:25.039910+00:00,0.8721699714660645,E4_ekf_smooth_gps_input,warmup,0,37.5665,126.978,20.0,0.0,,,,,,,3,12,37.5665,126.978,20.0,,,,0.0,0.0,HEARTBEAT,AHRS: EKF3 active,STABILIZE,,,
2026-07-06T16:40:25.040113+00:00,0.8723547458648682,E4_ekf_smooth_gps_input,warmup,0,37.5665,126.978,20.0,0.0,37.5665,126.978,20.0,0.0,0.0,0,3,12,37.5665,126.978,20.0,0.0,0.0,0.13,0.0,0.0,GLOBAL_POSITION_INT,AHRS: EKF3 active,STABILIZE,,,
2026-07-06T16:40:25.040490+00:00,0.872727632522583,E4_ekf_smooth_gps_input,warmup,0,37.5665,126.978,20.0,0.0,,,,,,,3,12,37.5665,126.978,20.0,,,,0.0,0.0,GPS_RAW_INT,AHRS: EKF3 active,STABILIZE,,,
2026-07-06T16:40:25.237168+00:00,1.069427251815796,E4_ekf_smooth_gps_input,warmup,0,37.5665,126.978,20.0,0.0,,,,,,,3,12,37.5665,126.978,20.0,,,,0.0,0.0,HEARTBEAT,AHRS: EKF3 active,STABILIZE,,,
2026-07-06T16:40:25.237372+00:00,1.069612979888916,E4_ekf_smooth_gps_input,warmup,0,37.5665,126.978,20.0,0.0,37.5665,126.978,20.0,0.0,0.0,0,3,12,37.5665,126.978,20.0,0.0,0.0,0.16,0.0,0.0,GLOBAL_POSITION_INT,AHRS: EKF3 active,STABILIZE,,,
2026-07-06T16:40:25.237734+00:00,1.069972276687622,E4_ekf_smooth_gps_input,warmup,0,37.5665,126.978,20.0,0.0,,,,,,,3,12,37.5665,126.978,20.0,,,,0.0,0.0,GPS_RAW_INT,AHRS: EKF3 active,STABILIZE,,,
2026-07-06T16:40:25.457829+00:00,1.2900960445404053,E4_ekf_smooth_gps_input,warmup,0,37.5665,126.978,20.0,0.0,,,,,,,3,12,37.5665,126.978,20.0,,,,0.0,0.0,HEARTBEAT,AHRS: EKF3 active,STABILIZE,,,
2026-07-06T16:40:25.458006+00:00,1.29024076461792,E4_ekf_smooth_gps_input,warmup,0,37.5665,126.978,20.0,0.0,37.5665,126.978,20.0,0.0,0.0,0,3,12,37.5665,126.978,20.0,0.0,0.0,0.18,0.0,0.0,GLOBAL_POSITION_INT,AHRS: EKF3 active,STABILIZE,,,
2026-07-06T16:40:25.458408+00:00,1.2906532287597656,E4_ekf_smooth_gps_input,warmup,0,37.5665,126.978,20.0,0.0,,,,,,,3,12,37.5665,126.978,20.0,,,,0.0,0.0,GPS_RAW_INT,AHRS: EKF3 active,STABILIZE,,,
2026-07-06T16:40:25.642312+00:00,1.4745678901672363,E4_ekf_smooth_gps_input,warmup,0,37.5665,126.978,20.0,0.0,,,,,,,3,12,37.5665,126.978,20.0,,,,0.0,0.0,HEARTBEAT,AHRS: EKF3 active,STABILIZE,,,
2026-07-06T16:40:25.642487+00:00,1.4747276306152344,E4_ekf_smooth_gps_input,warmup,0,37.5665,126.978,20.0,0.0,37.5665,126.978,20.0,0.0,0.0,0,3,12,37.5665,126.978,20.0,0.0,0.0,0.18,0.0,0.0,GLOBAL_POSITION_INT,AHRS: EKF3 active,STABILIZE,,,
2026-07-06T16:40:25.642813+00:00,1.4750502109527588,E4_ekf_smooth_gps_input,warmup,0,37.5665,126.978,20.0,0.0,,,,,,,3,12,37.5665,126.978,20.0,,,,0.0,0.0,GPS_RAW_INT,AHRS: EKF3 active,STABILIZE,,,
2026-07-06T16:40:25.832498+00:00,1.6647560596466064,E4_ekf_smooth_gps_input,warmup,0,37.5665,126.978,20.0,0.0,,,,,,,3,12,37.5665,126.978,20.0,,,,0.0,0.0,HEARTBEAT,AHRS: EKF3 active,STABILIZE,,,
2026-07-06T16:40:25.832666+00:00,1.6648995876312256,E4_ekf_smooth_gps_input,warmup,0,37.5665,126.978,20.0,0.0,37.5665,126.978,20.0,0.0,0.0,0,3,12,37.5665,126.978,20.0,0.0,0.0,0.18,0.0,0.0,GLOBAL_POSITION_INT,AHRS: EKF3 active,STABILIZE,,,
2026-07-06T16:40:25.833015+00:00,1.665252685546875,E4_ekf_smooth_gps_input,warmup,0,37.5665,126.978,20.0,0.0,,,,,,,3,12,37.5665,126.978,20.0,,,,0.0,0.0,GPS_RAW_INT,AHRS: EKF3 active,STABILIZE,,,
2026-07-06T16:40:26.029770+00:00,1.862030267715454,E4_ekf_smooth_gps_input,warmup,0,37.5665,126.978,20.0,0.0,,,,,,,3,12,37.5665,126.978,20.0,,,,0.0,0.0,HEARTBEAT,AHRS: EKF3 active,STABILIZE,,,
2026-07-06T16:40:26.029964+00:00,1.862203598022461,E4_ekf_smooth_gps_input,warmup,0,37.5665,126.978,20.0,0.0,37.5665,126.978,20.0,0.0,0.0,0,3,12,37.5665,126.978,20.0,0.0,0.0,0.17,0.0,0.0,GLOBAL_POSITION_INT,AHRS: EKF3 active,STABILIZE,,,
2026-07-06T16:40:26.030698+00:00,1.8629395961761475,E4_ekf_smooth_gps_input,warmup,0,37.5665,126.978,20.0,0.0,,,,,,,3,12,37.5665,126.978,20.0,,,,0.0,0.0,GPS_RAW_INT,AHRS: EKF3 active,STABILIZE,,,
2026-07-06T16:40:26.233100+00:00,2.065356969833374,E4_ekf_smooth_gps_input,warmup,0,37.5665,126.978,20.0,0.0,,,,,,,3,12,37.5665,126.978,20.0,,,,0.0,0.0,HEARTBEAT,AHRS: EKF3 active,STABILIZE,,,
2026-07-06T16:40:26.233291+00:00,2.065526247024536,E4_ekf_smooth_gps_input,warmup,0,37.5665,126.978,20.0,0.0,37.5665,126.978,20.0,0.0,0.0,0,3,12,37.5665,126.978,20.0,0.0,0.0,0.16,0.0,0.0,GLOBAL_POSITION_INT,AHRS: EKF3 active,STABILIZE,,,
2026-07-06T16:40:26.233642+00:00,2.0658788681030273,E4_ekf_smooth_gps_input,warmup,0,37.5665,126.978,20.0,0.0,,,,,,,3,12,37.5665,126.978,20.0,,,,0.0,0.0,GPS_RAW_INT,AHRS: EKF3 active,STABILIZE,,,
2026-07-06T16:40:26.395260+00:00,2.2275168895721436,E4_ekf_smooth_gps_input,warmup,0,37.5665,126.978,20.0,0.0,,,,,,,3,12,37.5665,126.978,20.0,,,,0.0,0.0,STATUSTEXT,EKF3 IMU0 tilt alignment complete,STABILIZE,,,
2026-07-06T16:40:26.401721+00:00,2.2339773178100586,E4_ekf_smooth_gps_input,warmup,0,37.5665,126.978,20.0,0.0,,,,,,,3,12,37.5665,126.978,20.0,,,,0.0,0.0,STATUSTEXT,EKF3 IMU1 tilt alignment complete,STABILIZE,,,
2026-07-06T16:40:26.447352+00:00,2.279608964920044,E4_ekf_smooth_gps_input,warmup,0,37.5665,126.978,20.0,0.0,,,,,,,3,12,37.5665,126.978,20.0,,,,0.0,0.0,HEARTBEAT,EKF3 IMU1 tilt alignment complete,STABILIZE,,,
2026-07-06T16:40:26.447652+00:00,2.2798900604248047,E4_ekf_smooth_gps_input,warmup,0,37.5665,126.978,20.0,0.0,37.5665,126.978,20.0,0.0,0.0,0,3,12,37.5665,126.978,20.0,0.0,0.0,0.15,0.0,0.0,GLOBAL_POSITION_INT,EKF3 IMU1 tilt alignment complete,STABILIZE,,,
2026-07-06T16:40:26.448685+00:00,2.280927896499634,E4_ekf_smooth_gps_input,warmup,0,37.5665,126.978,20.0,0.0,,,,,,,3,12,37.5665,126.978,20.0,,,,0.0,0.0,GPS_RAW_INT,EKF3 IMU1 tilt alignment complete,STABILIZE,,,
2026-07-06T16:40:26.485948+00:00,2.318204402923584,E4_ekf_smooth_gps_input,warmup,0,37.5665,126.978,20.0,0.0,,,,,,,3,12,37.5665,126.978,20.0,,,,0.0,0.0,STATUSTEXT,EKF3 IMU1 MAG0 initial yaw alignment complete,STABILIZE,,,
2026-07-06T16:40:26.501735+00:00,2.3339922428131104,E4_ekf_smooth_gps_input,warmup,0,37.5665,126.978,20.0,0.0,,,,,,,3,12,37.5665,126.978,20.0,,,,0.0,0.0,STATUSTEXT,EKF3 IMU0 MAG0 initial yaw alignment complete,STABILIZE,,,
2026-07-06T16:40:26.630292+00:00,2.4625484943389893,E4_ekf_smooth_gps_input,warmup,0,37.5665,126.978,20.0,0.0,,,,,,,3,12,37.5665,126.978,20.0,,,,0.0,0.0,HEARTBEAT,EKF3 IMU0 MAG0 initial yaw alignment complete,STABILIZE,,,
2026-07-06T16:40:26.630506+00:00,2.46274471282959,E4_ekf_smooth_gps_input,warmup,0,37.5665,126.978,20.0,0.0,37.5665,126.978,20.0,0.0,0.0,0,3,12,37.5665,126.978,20.0,0.0,0.0,0.13,0.0,0.0,GLOBAL_POSITION_INT,EKF3 IMU0 MAG0 initial yaw alignment complete,STABILIZE,,,
2026-07-06T16:40:26.644125+00:00,2.4763810634613037,E4_ekf_smooth_gps_input,warmup,0,37.5665,126.978,20.0,0.0,,,,,,,3,12,37.5665,126.978,20.0,,,,0.0,0.0,GPS_RAW_INT,EKF3 IMU0 MAG0 initial yaw alignment complete,STABILIZE,,,
2026-07-06T16:40:26.825627+00:00,2.6578845977783203,E4_ekf_smooth_gps_input,warmup,0,37.5665,126.978,20.0,0.0,,,,,,,3,12,37.5665,126.978,20.0,,,,0.0,0.0,HEARTBEAT,EKF3 IMU0 MAG0 initial yaw alignment complete,STABILIZE,,,
2026-07-06T16:40:26.825792+00:00,2.6580283641815186,E4_ekf_smooth_gps_input,warmup,0,37.5665,126.978,20.0,0.0,37.5665,126.978,20.0,0.0,0.0,0,3,12,37.5665,126.978,20.0,0.0,0.0,0.11,0.0,0.0,GLOBAL_POSITION_INT,EKF3 IMU0 MAG0 initial yaw alignment complete,STABILIZE,,,
2026-07-06T16:40:26.830538+00:00,2.662858009338379,E4_ekf_smooth_gps_input,warmup,0,37.5665,126.978,20.0,0.0,,,,,,,3,12,37.5665,126.978,20.0,,,,0.0,0.0,GPS_RAW_INT,EKF3 IMU0 MAG0 initial yaw alignment complete,STABILIZE,,,
2026-07-06T16:40:27.027751+00:00,2.8600058555603027,E4_ekf_smooth_gps_input,warmup,0,37.5665,126.978,20.0,0.0,,,,,,,3,12,37.5665,126.978,20.0,,,,0.0,0.0,HEARTBEAT,EKF3 IMU0 MAG0 initial yaw alignment complete,STABILIZE,,,
2026-07-06T16:40:27.027908+00:00,2.8601434230804443,E4_ekf_smooth_gps_input,warmup,0,37.5665,126.978,20.0,0.0,37.5665,126.978,20.0,0.0,0.0,0,3,12,37.5665,126.978,20.0,0.0,0.0,0.09,0.0,0.0,GLOBAL_POSITION_INT,EKF3 IMU0 MAG0 initial yaw alignment complete,STABILIZE,,,
2026-07-06T16:40:27.028264+00:00,2.8604989051818848,E4_ekf_smooth_gps_input,warmup,0,37.5665,126.978,20.0,0.0,,,,,,,3,12,37.5665,126.978,20.0,,,,0.0,0.0,GPS_RAW_INT,EKF3 IMU0 MAG0 initial yaw alignment complete,STABILIZE,,,
2026-07-06T16:40:27.232745+00:00,3.0649993419647217,E4_ekf_smooth_gps_input,warmup,0,37.5665,126.978,20.0,0.0,,,,,,,3,12,37.5665,126.978,20.0,,,,0.0,0.0,HEARTBEAT,EKF3 IMU0 MAG0 initial yaw alignment complete,STABILIZE,,,
2026-07-06T16:40:27.232908+00:00,3.0651419162750244,E4_ekf_smooth_gps_input,warmup,0,37.5665,126.978,20.0,0.0,37.5665,126.978,20.0,0.0,0.0,0,3,12,37.5665,126.978,20.0,0.0,0.0,0.07,0.0,0.0,GLOBAL_POSITION_INT,EKF3 IMU0 MAG0 initial yaw alignment complete,STABILIZE,,,
2026-07-06T16:40:27.233302+00:00,3.0655412673950195,E4_ekf_smooth_gps_input,warmup,0,37.5665,126.978,20.0,0.0,,,,,,,3,12,37.5665,126.978,20.0,,,,0.0,0.0,GPS_RAW_INT,EKF3 IMU0 MAG0 initial yaw alignment complete,STABILIZE,,,
2026-07-06T16:40:27.434077+00:00,3.266340732574463,E4_ekf_smooth_gps_input,warmup,0,37.5665,126.978,20.0,0.0,,,,,,,3,12,37.5665,126.978,20.0,,,,0.0,0.0,HEARTBEAT,EKF3 IMU0 MAG0 initial yaw alignment complete,STABILIZE,,,
2026-07-06T16:40:27.434329+00:00,3.266571521759033,E4_ekf_smooth_gps_input,warmup,0,37.5665,126.978,20.0,0.0,37.5665,126.978,20.0,0.0,0.0,0,3,12,37.5665,126.978,20.0,0.0,0.0,0.05,0.0,0.0,GLOBAL_POSITION_INT,EKF3 IMU0 MAG0 initial yaw alignment complete,STABILIZE,,,
2026-07-06T16:40:27.434763+00:00,3.2670035362243652,E4_ekf_smooth_gps_input,warmup,0,37.5665,126.978,20.0,0.0,,,,,,,3,12,37.5665,126.978,20.0,,,,0.0,0.0,GPS_RAW_INT,EKF3 IMU0 MAG0 initial yaw alignment complete,STABILIZE,,,
2026-07-06T16:40:27.633868+00:00,3.466123104095459,E4_ekf_smooth_gps_input,warmup,0,37.5665,126.978,20.0,0.0,,,,,,,3,12,37.5665,126.978,20.0,,,,0.0,0.0,HEARTBEAT,EKF3 IMU0 MAG0 initial yaw alignment complete,STABILIZE,,,
2026-07-06T16:40:27.634035+00:00,3.466270923614502,E4_ekf_smooth_gps_input,warmup,0,37.5665,126.978,20.0,0.0,37.5665,126.978,20.0,0.0,0.0,0,3,12,37.5665,126.978,20.0,0.0,0.0,0.04,0.0,0.0,GLOBAL_POSITION_INT,EKF3 IMU0 MAG0 initial yaw alignment complete,STABILIZE,,,
2026-07-06T16:40:27.635324+00:00,3.4675657749176025,E4_ekf_smooth_gps_input,warmup,0,37.5665,126.978,20.0,0.0,,,,,,,3,12,37.5665,126.978,20.0,,,,0.0,0.0,GPS_RAW_INT,EKF3 IMU0 MAG0 initial yaw alignment complete,STABILIZE,,,
2026-07-06T16:40:27.838051+00:00,3.6703083515167236,E4_ekf_smooth_gps_input,warmup,0,37.5665,126.978,20.0,0.0,,,,,,,3,12,37.5665,126.978,20.0,,,,0.0,0.0,HEARTBEAT,EKF3 IMU0 MAG0 initial yaw alignment complete,STABILIZE,,,
2026-07-06T16:40:27.838212+00:00,3.6704447269439697,E4_ekf_smooth_gps_input,warmup,0,37.5665,126.978,20.0,0.0,37.5665,126.978,20.0,0.0,0.0,0,3,12,37.5665,126.978,20.0,0.0,0.0,0.03,0.0,0.0,GLOBAL_POSITION_INT,EKF3 IMU0 MAG0 initial yaw alignment complete,STABILIZE,,,
2026-07-06T16:40:27.839531+00:00,3.6717777252197266,E4_ekf_smooth_gps_input,warmup,0,37.5665,126.978,20.0,0.0,,,,,,,3,12,37.5665,126.978,20.0,,,,0.0,0.0,GPS_RAW_INT,EKF3 IMU0 MAG0 initial yaw alignment complete,STABILIZE,,,
2026-07-06T16:40:28.051702+00:00,3.883960008621216,E4_ekf_smooth_gps_input,warmup,0,37.5665,126.978,20.0,0.0,,,,,,,3,12,37.5665,126.978,20.0,,,,0.0,0.0,HEARTBEAT,EKF3 IMU0 MAG0 initial yaw alignment complete,STABILIZE,,,
2026-07-06T16:40:28.051874+00:00,3.8841099739074707,E4_ekf_smooth_gps_input,warmup,0,37.5665,126.978,20.0,0.0,37.5665,126.978,20.0,0.0,0.0,0,3,12,37.5665,126.978,20.0,0.0,0.0,0.01,0.0,0.0,GLOBAL_POSITION_INT,EKF3 IMU0 MAG0 initial yaw alignment complete,STABILIZE,,,
2026-07-06T16:40:28.052286+00:00,3.884526491165161,E4_ekf_smooth_gps_input,warmup,0,37.5665,126.978,20.0,0.0,,,,,,,3,12,37.5665,126.978,20.0,,,,0.0,0.0,GPS_RAW_INT,EKF3 IMU0 MAG0 initial yaw alignment complete,STABILIZE,,,
2026-07-06T16:40:28.235176+00:00,4.067432165145874,E4_ekf_smooth_gps_input,warmup,0,37.5665,126.978,20.0,0.0,,,,,,,3,12,37.5665,126.978,20.0,,,,0.0,0.0,HEARTBEAT,EKF3 IMU0 MAG0 initial yaw alignment complete,STABILIZE,,,
2026-07-06T16:40:28.235328+00:00,4.0675647258758545,E4_ekf_smooth_gps_input,warmup,0,37.5665,126.978,20.0,0.0,37.5665,126.978,20.0,0.0,0.0,0,3,12,37.5665,126.978,20.0,0.0,0.0,0.0,0.0,0.0,GLOBAL_POSITION_INT,EKF3 IMU0 MAG0 initial yaw alignment complete,STABILIZE,,,
2026-07-06T16:40:28.235709+00:00,4.0679473876953125,E4_ekf_smooth_gps_input,warmup,0,37.5665,126.978,20.0,0.0,,,,,,,3,12,37.5665,126.978,20.0,,,,0.0,0.0,GPS_RAW_INT,EKF3 IMU0 MAG0 initial yaw alignment complete,STABILIZE,,,
2026-07-06T16:40:28.434636+00:00,4.2668938636779785,E4_ekf_smooth_gps_input,warmup,0,37.5665,126.978,20.0,0.0,,,,,,,3,12,37.5665,126.978,20.0,,,,0.0,0.0,HEARTBEAT,EKF3 IMU0 MAG0 initial yaw alignment complete,STABILIZE,,,
2026-07-06T16:40:28.434813+00:00,4.26705002784729,E4_ekf_smooth_gps_input,warmup,0,37.5665,126.978,20.0,0.0,37.5665,126.978,20.0,0.0,0.0,0,3,12,37.5665,126.978,20.0,0.0,0.0,0.0,0.0,0.0,GLOBAL_POSITION_INT,EKF3 IMU0 MAG0 initial yaw alignment complete,STABILIZE,,,
2026-07-06T16:40:28.439013+00:00,4.271278142929077,E4_ekf_smooth_gps_input,warmup,0,37.5665,126.978,20.0,0.0,,,,,,,3,12,37.5665,126.978,20.0,,,,0.0,0.0,GPS_RAW_INT,EKF3 IMU0 MAG0 initial yaw alignment complete,STABILIZE,,,
2026-07-06T16:40:28.636053+00:00,4.468310356140137,E4_ekf_smooth_gps_input,warmup,0,37.5665,126.978,20.0,0.0,,,,,,,3,12,37.5665,126.978,20.0,,,,0.0,0.0,HEARTBEAT,EKF3 IMU0 MAG0 initial yaw alignment complete,STABILIZE,,,
2026-07-06T16:40:28.636221+00:00,4.46845555305481,E4_ekf_smooth_gps_input,warmup,0,37.5665,126.978,20.0,0.0,37.5665,126.978,20.0,0.0,0.0,0,3,12,37.5665,126.978,20.0,0.0,0.0,0.0,0.0,0.0,GLOBAL_POSITION_INT,EKF3 IMU0 MAG0 initial yaw alignment complete,STABILIZE,,,
2026-07-06T16:40:28.638647+00:00,4.470892429351807,E4_ekf_smooth_gps_input,warmup,0,37.5665,126.978,20.0,0.0,,,,,,,3,12,37.5665,126.978,20.0,,,,0.0,0.0,GPS_RAW_INT,EKF3 IMU0 MAG0 initial yaw alignment complete,STABILIZE,,,
2026-07-06T16:40:28.852793+00:00,4.6850504875183105,E4_ekf_smooth_gps_input,warmup,0,37.5665,126.978,20.0,0.0,,,,,,,3,12,37.5665,126.978,20.0,,,,0.0,0.0,HEARTBEAT,EKF3 IMU0 MAG0 initial yaw alignment complete,STABILIZE,,,
2026-07-06T16:40:28.852969+00:00,4.685204982757568,E4_ekf_smooth_gps_input,warmup,0,37.5665,126.978,20.0,0.0,37.5665,126.978,20.0,0.0,0.0,0,3,12,37.5665,126.978,20.0,0.0,0.0,-0.01,0.0,0.0,GLOBAL_POSITION_INT,EKF3 IMU0 MAG0 initial yaw alignment complete,STABILIZE,,,
2026-07-06T16:40:28.853308+00:00,4.6855432987213135,E4_ekf_smooth_gps_input,warmup,0,37.5665,126.978,20.0,0.0,,,,,,,3,12,37.5665,126.978,20.0,,,,0.0,0.0,GPS_RAW_INT,EKF3 IMU0 MAG0 initial yaw alignment complete,STABILIZE,,,
2026-07-06T16:40:29.034323+00:00,4.866577625274658,E4_ekf_smooth_gps_input,warmup,0,37.5665,126.978,20.0,0.0,,,,,,,3,12,37.5665,126.978,20.0,,,,0.0,0.0,HEARTBEAT,EKF3 IMU0 MAG0 initial yaw alignment complete,STABILIZE,,,
2026-07-06T16:40:29.034478+00:00,4.866712808609009,E4_ekf_smooth_gps_input,warmup,0,37.5665,126.978,20.0,0.0,37.5665,126.978,20.0,0.0,0.0,0,3,12,37.5665,126.978,20.0,0.0,0.0,-0.02,0.0,0.0,GLOBAL_POSITION_INT,EKF3 IMU0 MAG0 initial yaw alignment complete,STABILIZE,,,
2026-07-06T16:40:29.034812+00:00,4.867048978805542,E4_ekf_smooth_gps_input,warmup,0,37.5665,126.978,20.0,0.0,,,,,,,3,12,37.5665,126.978,20.0,,,,0.0,0.0,GPS_RAW_INT,EKF3 IMU0 MAG0 initial yaw alignment complete,STABILIZE,,,
2026-07-06T16:40:29.251128+00:00,5.083383798599243,E4_ekf_smooth_gps_input,warmup,0,37.5665,126.978,20.0,0.0,,,,,,,3,12,37.5665,126.978,20.0,,,,0.0,0.0,HEARTBEAT,EKF3 IMU0 MAG0 initial yaw alignment complete,STABILIZE,,,
2026-07-06T16:40:29.251284+00:00,5.0835206508636475,E4_ekf_smooth_gps_input,warmup,0,37.5665,126.978,20.0,0.0,37.5665,126.978,20.0,0.0,0.0,0,3,12,37.5665,126.978,20.0,0.0,0.0,-0.02,0.0,0.0,GLOBAL_POSITION_INT,EKF3 IMU0 MAG0 initial yaw alignment complete,STABILIZE,,,
2026-07-06T16:40:29.251652+00:00,5.083890199661255,E4_ekf_smooth_gps_input,warmup,0,37.5665,126.978,20.0,0.0,,,,,,,3,12,37.5665,126.978,20.0,,,,0.0,0.0,GPS_RAW_INT,EKF3 IMU0 MAG0 initial yaw alignment complete,STABILIZE,,,
2026-07-06T16:40:29.427471+00:00,5.259728670120239,E4_ekf_smooth_gps_input,warmup,0,37.5665,126.978,20.0,0.0,,,,,,,3,12,37.5665,126.978,20.0,,,,0.0,0.0,HEARTBEAT,EKF3 IMU0 MAG0 initial yaw alignment complete,STABILIZE,,,
2026-07-06T16:40:29.427633+00:00,5.259867429733276,E4_ekf_smooth_gps_input,warmup,0,37.5665,126.978,20.0,0.0,37.5665,126.978,20.0,0.0,0.0,0,3,12,37.5665,126.978,20.0,0.0,0.0,-0.03,0.0,0.0,GLOBAL_POSITION_INT,EKF3 IMU0 MAG0 initial yaw alignment complete,STABILIZE,,,
2026-07-06T16:40:29.428018+00:00,5.260258197784424,E4_ekf_smooth_gps_input,warmup,0,37.5665,126.978,20.0,0.0,,,,,,,3,12,37.5665,126.978,20.0,,,,0.0,0.0,GPS_RAW_INT,EKF3 IMU0 MAG0 initial yaw alignment complete,STABILIZE,,,
2026-07-06T16:40:29.627686+00:00,5.459943056106567,E4_ekf_smooth_gps_input,warmup,0,37.5665,126.978,20.0,0.0,,,,,,,3,12,37.5665,126.978,20.0,,,,0.0,0.0,HEARTBEAT,EKF3 IMU0 MAG0 initial yaw alignment complete,STABILIZE,,,
2026-07-06T16:40:29.627860+00:00,5.460099935531616,E4_ekf_smooth_gps_input,warmup,0,37.5665,126.978,20.0,0.0,37.5665,126.978,20.0,0.0,0.0,0,3,12,37.5665,126.978,20.0,0.0,0.0,-0.03,0.0,0.0,GLOBAL_POSITION_INT,EKF3 IMU0 MAG0 initial yaw alignment complete,STABILIZE,,,
2026-07-06T16:40:29.628395+00:00,5.4606359004974365,E4_ekf_smooth_gps_input,warmup,0,37.5665,126.978,20.0,0.0,,,,,,,3,12,37.5665,126.978,20.0,,,,0.0,0.0,GPS_RAW_INT,EKF3 IMU0 MAG0 initial yaw alignment complete,STABILIZE,,,
2026-07-06T16:40:29.833281+00:00,5.66553807258606,E4_ekf_smooth_gps_input,injection,1,37.56650092104279,126.97800116198466,20.0,0.14483708548479263,,,,,,,3,12,37.5665,126.978,20.0,,,,0.29000000000000004,0.5800000000000001,HEARTBEAT,EKF3 IMU0 MAG0 initial yaw alignment complete,STABILIZE,,,
2026-07-06T16:40:29.833462+00:00,5.6657021045684814,E4_ekf_smooth_gps_input,injection,1,37.56650092104279,126.97800116198466,20.0,0.14483708548479263,37.5665009,126.9780011,20.0,0.13933698585280793,0.00594320354154013,0,3,12,37.5665,126.978,20.0,0.0,0.0,-0.03,0.29000000000000004,0.5800000000000001,GLOBAL_POSITION_INT,EKF3 IMU0 MAG0 initial yaw alignment complete,STABILIZE,,,
2026-07-06T16:40:29.861829+00:00,5.694084167480469,E4_ekf_smooth_gps_input,injection,1,37.56650092104279,126.97800116198466,20.0,0.14483708548479263,,,,,,,3,12,37.5665009,126.9780011,20.0,,,,0.29000000000000004,0.5800000000000001,GPS_RAW_INT,EKF3 IMU0 MAG0 initial yaw alignment complete,STABILIZE,,,
2026-07-06T16:40:30.045244+00:00,5.8774988651275635,E4_ekf_smooth_gps_input,injection,1,37.56650092104279,126.97800116198466,20.0,0.14483708548479263,,,,,,,3,12,37.5665009,126.9780011,20.0,,,,0.29000000000000004,0.5800000000000001,HEARTBEAT,EKF3 IMU0 MAG0 initial yaw alignment complete,STABILIZE,,,
2026-07-06T16:40:30.045412+00:00,5.877649784088135,E4_ekf_smooth_gps_input,injection,1,37.56650092104279,126.97800116198466,20.0,0.14483708548479263,37.5665009,126.9780011,20.0,0.13933698585280793,0.00594320354154013,0,3,12,37.5665009,126.9780011,20.0,0.0,0.0,-0.04,0.29000000000000004,0.5800000000000001,GLOBAL_POSITION_INT,EKF3 IMU0 MAG0 initial yaw alignment complete,STABILIZE,,,
2026-07-06T16:40:30.045733+00:00,5.87796688079834,E4_ekf_smooth_gps_input,injection,1,37.56650092104279,126.97800116198466,20.0,0.14483708548479263,,,,,,,3,12,37.5665009,126.9780011,20.0,,,,0.29000000000000004,0.5800000000000001,GPS_RAW_INT,EKF3 IMU0 MAG0 initial yaw alignment complete,STABILIZE,,,
2026-07-06T16:40:30.229847+00:00,6.0621092319488525,E4_ekf_smooth_gps_input,injection,1,37.56650092104279,126.97800116198466,20.0,0.14483708548479263,,,,,,,3,12,37.5665009,126.9780011,20.0,,,,0.29000000000000004,0.5800000000000001,HEARTBEAT,EKF3 IMU0 MAG0 initial yaw alignment complete,STABILIZE,,,
2026-07-06T16:40:30.230022+00:00,6.062257289886475,E4_ekf_smooth_gps_input,injection,1,37.56650092104279,126.97800116198466,20.0,0.14483708548479263,37.5665009,126.9780011,20.0,0.13933698585280793,0.00594320354154013,0,3,12,37.5665009,126.9780011,20.0,0.0,0.0,-0.04,0.29000000000000004,0.5800000000000001,GLOBAL_POSITION_INT,EKF3 IMU0 MAG0 initial yaw alignment complete,STABILIZE,,,
2026-07-06T16:40:30.230376+00:00,6.062612295150757,E4_ekf_smooth_gps_input,injection,1,37.56650092104279,126.97800116198466,20.0,0.14483708548479263,,,,,,,3,12,37.5665009,126.9780011,20.0,,,,0.29000000000000004,0.5800000000000001,GPS_RAW_INT,EKF3 IMU0 MAG0 initial yaw alignment complete,STABILIZE,,,
2026-07-06T16:40:30.431478+00:00,6.263734579086304,E4_ekf_smooth_gps_input,injection,2,37.56650355713077,126.9780044876649,20.0,0.5593708063186627,,,,,,,3,12,37.5665009,126.9780011,20.0,,,,0.8300000000000001,1.0799999999999998,HEARTBEAT,EKF3 IMU0 MAG0 initial yaw alignment complete,STABILIZE,,,
2026-07-06T16:40:30.431688+00:00,6.263927459716797,E4_ekf_smooth_gps_input,injection,2,37.56650355713077,126.9780044876649,20.0,0.5593708063186627,37.5665035,126.9780044,20.0,0.5494161098282793,0.010002849250528304,1,3,12,37.5665009,126.9780011,20.0,0.0,0.0,-0.04,0.8300000000000001,1.0799999999999998,GLOBAL_POSITION_INT,EKF3 IMU0 MAG0 initial yaw alignment complete,STABILIZE,,,
2026-07-06T16:40:30.432068+00:00,6.264303922653198,E4_ekf_smooth_gps_input,injection,2,37.56650355713077,126.9780044876649,20.0,0.5593708063186627,,,,,,,3,12,37.5665035,126.9780044,20.0,,,,0.8300000000000001,1.0799999999999998,GPS_RAW_INT,EKF3 IMU0 MAG0 initial yaw alignment complete,STABILIZE,,,
2026-07-06T16:40:30.648612+00:00,6.480865001678467,E4_ekf_smooth_gps_input,injection,2,37.56650355713077,126.9780044876649,20.0,0.5593708063186627,,,,,,,3,12,37.5665035,126.9780044,20.0,,,,0.8300000000000001,1.0799999999999998,HEARTBEAT,EKF3 IMU0 MAG0 initial yaw alignment complete,STABILIZE,,,
2026-07-06T16:40:30.648750+00:00,6.480982303619385,E4_ekf_smooth_gps_input,injection,2,37.56650355713077,126.9780044876649,20.0,0.5593708063186627,37.5665035,126.9780044,20.0,0.5494161098282793,0.010002849250528304,1,3,12,37.5665035,126.9780044,20.0,0.0,0.0,-0.04,0.8300000000000001,1.0799999999999998,GLOBAL_POSITION_INT,EKF3 IMU0 MAG0 initial yaw alignment complete,STABILIZE,,,
2026-07-06T16:40:30.649062+00:00,6.481293439865112,E4_ekf_smooth_gps_input,injection,2,37.56650355713077,126.9780044876649,20.0,0.5593708063186627,,,,,,,3,12,37.5665035,126.9780044,20.0,,,,0.8300000000000001,1.0799999999999998,GPS_RAW_INT,EKF3 IMU0 MAG0 initial yaw alignment complete,STABILIZE,,,
2026-07-06T16:40:30.836834+00:00,6.669087886810303,E4_ekf_smooth_gps_input,injection,3,37.56650771770337,126.97800973663013,20.0,1.2136348578057414,,,,,,,3,12,37.5665035,126.9780044,20.0,,,,1.3099999999999996,0.9599999999999991,HEARTBEAT,EKF3 IMU0 MAG0 initial yaw alignment complete,STABILIZE,,,
2026-07-06T16:40:30.836979+00:00,6.669212102890015,E4_ekf_smooth_gps_input,injection,3,37.56650771770337,126.97800973663013,20.0,1.2136348578057414,37.5665077,126.9780097,20.0,1.2099603243696553,0.003781321778257858,1,3,12,37.5665035,126.9780044,20.0,0.0,0.0,-0.04,1.3099999999999996,0.9599999999999991,GLOBAL_POSITION_INT,EKF3 IMU0 MAG0 initial yaw alignment complete,STABILIZE,,,
2026-07-06T16:40:30.837348+00:00,6.6695897579193115,E4_ekf_smooth_gps_input,injection,3,37.56650771770337,126.97800973663013,20.0,1.2136348578057414,,,,,,,3,12,37.5665077,126.9780097,20.0,,,,1.3099999999999996,0.9599999999999991,GPS_RAW_INT,EKF3 IMU0 MAG0 initial yaw alignment complete,STABILIZE,,,
2026-07-06T16:40:31.033571+00:00,6.865825176239014,E4_ekf_smooth_gps_input,injection,3,37.56650771770337,126.97800973663013,20.0,1.2136348578057414,,,,,,,3,12,37.5665077,126.9780097,20.0,,,,1.3099999999999996,0.9599999999999991,HEARTBEAT,EKF3 IMU0 MAG0 initial yaw alignment complete,STABILIZE,,,
2026-07-06T16:40:31.033737+00:00,6.865971088409424,E4_ekf_smooth_gps_input,injection,3,37.56650771770337,126.97800973663013,20.0,1.2136348578057414,37.5665077,126.9780097,20.0,1.2099603243696553,0.003781321778257858,1,3,12,37.5665077,126.9780097,20.0,0.0,0.0,-0.04,1.3099999999999996,0.9599999999999991,GLOBAL_POSITION_INT,EKF3 IMU0 MAG0 initial yaw alignment complete,STABILIZE,,,
2026-07-06T16:40:31.034070+00:00,6.8663036823272705,E4_ekf_smooth_gps_input,injection,3,37.56650771770337,126.97800973663013,20.0,1.2136348578057414,,,,,,,3,12,37.5665077,126.9780097,20.0,,,,1.3099999999999996,0.9599999999999991,GPS_RAW_INT,EKF3 IMU0 MAG0 initial yaw alignment complete,STABILIZE,,,
2026-07-06T16:40:31.237312+00:00,7.069567680358887,E4_ekf_smooth_gps_input,injection,3,37.56650771770337,126.97800973663013,20.0,1.2136348578057414,,,,,,,3,12,37.5665077,126.9780097,20.0,,,,1.3099999999999996,0.9599999999999991,HEARTBEAT,EKF3 IMU0 MAG0 initial yaw alignment complete,STABILIZE,,,
2026-07-06T16:40:31.237478+00:00,7.069713115692139,E4_ekf_smooth_gps_input,injection,3,37.56650771770337,126.97800973663013,20.0,1.2136348578057414,37.5665077,126.9780097,20.0,1.2099603243696553,0.003781321778257858,1,3,12,37.5665077,126.9780097,20.0,0.0,0.0,-0.04,1.3099999999999996,0.9599999999999991,GLOBAL_POSITION_INT,EKF3 IMU0 MAG0 initial yaw alignment complete,STABILIZE,,,
2026-07-06T16:40:31.237823+00:00,7.070059299468994,E4_ekf_smooth_gps_input,injection,3,37.56650771770337,126.97800973663013,20.0,1.2136348578057414,,,,,,,3,12,37.5665077,126.9780097,20.0,,,,1.3099999999999996,0.9599999999999991,GPS_RAW_INT,EKF3 IMU0 MAG0 initial yaw alignment complete,STABILIZE,,,
2026-07-06T16:40:31.432577+00:00,7.2648351192474365,E4_ekf_smooth_gps_input,injection,4,37.56651321220001,126.97801666846969,20.0,2.0776629287200565,,,,,,,3,12,37.5665077,126.9780097,20.0,,,,1.7300000000000018,0.8400000000000041,HEARTBEAT,EKF3 IMU0 MAG0 initial yaw alignment complete,STABILIZE,,,
2026-07-06T16:40:31.432748+00:00,7.264983177185059,E4_ekf_smooth_gps_input,injection,4,37.56651321220001,126.97801666846969,20.0,2.0776629287200565,37.5665132,126.9780166,20.0,2.0724390769263374,0.0061853923940866475,1,3,12,37.5665077,126.9780097,20.0,0.0,0.0,-0.04,1.7300000000000018,0.8400000000000041,GLOBAL_POSITION_INT,EKF3 IMU0 MAG0 initial yaw alignment complete,STABILIZE,,,
2026-07-06T16:40:31.433107+00:00,7.2653419971466064,E4_ekf_smooth_gps_input,injection,4,37.56651321220001,126.97801666846969,20.0,2.0776629287200565,,,,,,,3,12,37.5665132,126.9780166,20.0,,,,1.7300000000000018,0.8400000000000041,GPS_RAW_INT,EKF3 IMU0 MAG0 initial yaw alignment complete,STABILIZE,,,
2026-07-06T16:40:31.638028+00:00,7.470286130905151,E4_ekf_smooth_gps_input,injection,4,37.56651321220001,126.97801666846969,20.0,2.0776629287200565,,,,,,,3,12,37.5665132,126.9780166,20.0,,,,1.7300000000000018,0.8400000000000041,HEARTBEAT,EKF3 IMU0 MAG0 initial yaw alignment complete,STABILIZE,,,
2026-07-06T16:40:31.638909+00:00,7.471157550811768,E4_ekf_smooth_gps_input,injection,4,37.56651321220001,126.97801666846969,20.0,2.0776629287200565,37.5665132,126.9780166,20.0,2.0724390769263374,0.0061853923940866475,1,3,12,37.5665132,126.9780166,20.0,0.0,0.0,-0.04,1.7300000000000018,0.8400000000000041,GLOBAL_POSITION_INT,EKF3 IMU0 MAG0 initial yaw alignment complete,STABILIZE,,,
2026-07-06T16:40:31.639308+00:00,7.471548080444336,E4_ekf_smooth_gps_input,injection,4,37.56651321220001,126.97801666846969,20.0,2.0776629287200565,,,,,,,3,12,37.5665132,126.9780166,20.0,,,,1.7300000000000018,0.8400000000000041,GPS_RAW_INT,EKF3 IMU0 MAG0 initial yaw alignment complete,STABILIZE,,,
2026-07-06T16:40:31.844064+00:00,7.6763200759887695,E4_ekf_smooth_gps_input,injection,4,37.56651321220001,126.97801666846969,20.0,2.0776629287200565,,,,,,,3,12,37.5665132,126.9780166,20.0,,,,1.7300000000000018,0.8400000000000041,HEARTBEAT,EKF3 IMU0 MAG0 initial yaw alignment complete,STABILIZE,,,
2026-07-06T16:40:31.844224+00:00,7.676462888717651,E4_ekf_smooth_gps_input,injection,4,37.56651321220001,126.97801666846969,20.0,2.0776629287200565,37.5665132,126.9780166,20.0,2.0724390769263374,0.0061853923940866475,1,3,12,37.5665132,126.9780166,20.0,0.0,0.0,-0.03,1.7300000000000018,0.8400000000000041,GLOBAL_POSITION_INT,EKF3 IMU0 MAG0 initial yaw alignment complete,STABILIZE,,,
2026-07-06T16:40:31.844656+00:00,7.6768999099731445,E4_ekf_smooth_gps_input,injection,4,37.56651321220001,126.97801666846969,20.0,2.0776629287200565,,,,,,,3,12,37.5665132,126.9780166,20.0,,,,1.7300000000000018,0.8400000000000041,GPS_RAW_INT,EKF3 IMU0 MAG0 initial yaw alignment complete,STABILIZE,,,
2026-07-06T16:40:32.040244+00:00,7.872496843338013,E4_ekf_smooth_gps_input,injection,5,37.566519850060104,126.97802504277297,20.0,3.121488704697864,,,,,,,3,12,37.5665132,126.9780166,20.0,,,,2.0899999999999985,0.7199999999999933,HEARTBEAT,EKF3 IMU0 MAG0 initial yaw alignment complete,STABILIZE,,,
2026-07-06T16:40:32.040400+00:00,7.87263298034668,E4_ekf_smooth_gps_input,injection,5,37.566519850060104,126.97802504277297,20.0,3.121488704697864,37.5665198,126.978025,20.0,3.1148871585861433,0.006722910945187352,1,3,12,37.5665132,126.9780166,20.0,0.0,0.0,-0.03,2.0899999999999985,0.7199999999999933,GLOBAL_POSITION_INT,EKF3 IMU0 MAG0 initial yaw alignment complete,STABILIZE,,,
2026-07-06T16:40:32.041366+00:00,7.8736066818237305,E4_ekf_smooth_gps_input,injection,5,37.566519850060104,126.97802504277297,20.0,3.121488704697864,,,,,,,3,12,37.5665198,126.978025,20.0,,,,2.0899999999999985,0.7199999999999933,GPS_RAW_INT,EKF3 IMU0 MAG0 initial yaw alignment complete,STABILIZE,,,
2026-07-06T16:40:32.244254+00:00,8.07651138305664,E4_ekf_smooth_gps_input,injection,5,37.566519850060104,126.97802504277297,20.0,3.121488704697864,,,,,,,3,12,37.5665198,126.978025,20.0,,,,2.0899999999999985,0.7199999999999933,HEARTBEAT,EKF3 IMU0 MAG0 initial yaw alignment complete,STABILIZE,,,
2026-07-06T16:40:32.244425+00:00,8.076659202575684,E4_ekf_smooth_gps_input,injection,5,37.566519850060104,126.97802504277297,20.0,3.121488704697864,37.5665198,126.978025,20.0,3.1148871585861433,0.006722910945187352,1,3,12,37.5665198,126.978025,20.0,0.0,0.0,-0.03,2.0899999999999985,0.7199999999999933,GLOBAL_POSITION_INT,EKF3 IMU0 MAG0 initial yaw alignment complete,STABILIZE,,,
2026-07-06T16:40:32.244837+00:00,8.077077627182007,E4_ekf_smooth_gps_input,injection,5,37.566519850060104,126.97802504277297,20.0,3.121488704697864,,,,,,,3,12,37.5665198,126.978025,20.0,,,,2.0899999999999985,0.7199999999999933,GPS_RAW_INT,EKF3 IMU0 MAG0 initial yaw alignment complete,STABILIZE,,,
2026-07-06T16:40:32.546291+00:00,8.378549575805664,E4_ekf_smooth_gps_input,injection,6,37.56652744072309,126.97803461912936,20.0,4.315145876084159,,,,,,,3,12,37.5665198,126.978025,20.0,,,,2.3899999999999992,0.600000000000002,HEARTBEAT,EKF3 IMU0 MAG0 initial yaw alignment complete,STABILIZE,,,
2026-07-06T16:40:32.546466+00:00,8.378700017929077,E4_ekf_smooth_gps_input,injection,6,37.56652744072309,126.97803461912936,20.0,4.315145876084159,37.5665274,126.9780346,20.0,4.31075222130872,0.0048319041053256195,1,3,12,37.5665198,126.978025,20.0,0.0,0.0,-0.03,2.3899999999999992,0.600000000000002,GLOBAL_POSITION_INT,EKF3 IMU0 MAG0 initial yaw alignment complete,STABILIZE,,,
2026-07-06T16:40:32.546822+00:00,8.379058122634888,E4_ekf_smooth_gps_input,injection,6,37.56652744072309,126.97803461912936,20.0,4.315145876084159,,,,,,,3,12,37.5665274,126.9780346,20.0,,,,2.3899999999999992,0.600000000000002,GPS_RAW_INT,EKF3 IMU0 MAG0 initial yaw alignment complete,STABILIZE,,,
2026-07-06T16:40:32.641202+00:00,8.473455905914307,E4_ekf_smooth_gps_input,injection,6,37.56652744072309,126.97803461912936,20.0,4.315145876084159,,,,,,,3,12,37.5665274,126.9780346,20.0,,,,2.3899999999999992,0.600000000000002,HEARTBEAT,EKF3 IMU0 MAG0 initial yaw alignment complete,STABILIZE,,,
2026-07-06T16:40:32.641361+00:00,8.473594188690186,E4_ekf_smooth_gps_input,injection,6,37.56652744072309,126.97803461912936,20.0,4.315145876084159,37.5665274,126.9780346,20.0,4.31075222130872,0.0048319041053256195,1,3,12,37.5665274,126.9780346,20.0,0.0,0.0,-0.03,2.3899999999999992,0.600000000000002,GLOBAL_POSITION_INT,EKF3 IMU0 MAG0 initial yaw alignment complete,STABILIZE,,,
2026-07-06T16:40:32.641684+00:00,8.47391939163208,E4_ekf_smooth_gps_input,injection,6,37.56652744072309,126.97803461912936,20.0,4.315145876084159,,,,,,,3,12,37.5665274,126.9780346,20.0,,,,2.3899999999999992,0.600000000000002,GPS_RAW_INT,EKF3 IMU0 MAG0 initial yaw alignment complete,STABILIZE,,,
2026-07-06T16:40:32.833890+00:00,8.666148662567139,E4_ekf_smooth_gps_input,injection,6,37.56652744072309,126.97803461912936,20.0,4.315145876084159,,,,,,,3,12,37.5665274,126.9780346,20.0,,,,2.3899999999999992,0.600000000000002,HEARTBEAT,EKF3 IMU0 MAG0 initial yaw alignment complete,STABILIZE,,,
2026-07-06T16:40:32.834055+00:00,8.666294574737549,E4_ekf_smooth_gps_input,injection,6,37.56652744072309,126.97803461912936,20.0,4.315145876084159,37.5665274,126.9780346,20.0,4.31075222130872,0.0048319041053256195,1,3,12,37.5665274,126.9780346,20.0,0.0,0.0,-0.03,2.3899999999999992,0.600000000000002,GLOBAL_POSITION_INT,EKF3 IMU0 MAG0 initial yaw alignment complete,STABILIZE,,,
2026-07-06T16:40:32.834463+00:00,8.666702032089233,E4_ekf_smooth_gps_input,injection,6,37.56652744072309,126.97803461912936,20.0,4.315145876084159,,,,,,,3,12,37.5665274,126.9780346,20.0,,,,2.3899999999999992,0.600000000000002,GPS_RAW_INT,EKF3 IMU0 MAG0 initial yaw alignment complete,STABILIZE,,,
2026-07-06T16:40:33.039242+00:00,8.871500015258789,E4_ekf_smooth_gps_input,injection,7,37.56653579362838,126.97804515712822,20.0,5.628668131143089,,,,,,,3,12,37.5665274,126.9780346,20.0,,,,2.629999999999999,0.47999999999999954,HEARTBEAT,EKF3 IMU0 MAG0 initial yaw alignment complete,STABILIZE,,,
2026-07-06T16:40:33.039418+00:00,8.871651411056519,E4_ekf_smooth_gps_input,injection,7,37.56653579362838,126.97804515712822,20.0,5.628668131143089,37.5665357,126.9780451,20.0,5.617747319666984,0.011564685845498954,1,3,12,37.5665274,126.9780346,20.0,0.0,0.0,-0.03,2.629999999999999,0.47999999999999954,GLOBAL_POSITION_INT,EKF3 IMU0 MAG0 initial yaw alignment complete,STABILIZE,,,
2026-07-06T16:40:33.039765+00:00,8.871999740600586,E4_ekf_smooth_gps_input,injection,7,37.56653579362838,126.97804515712822,20.0,5.628668131143089,,,,,,,3,12,37.5665357,126.9780451,20.0,,,,2.629999999999999,0.47999999999999954,GPS_RAW_INT,EKF3 IMU0 MAG0 initial yaw alignment complete,STABILIZE,,,
2026-07-06T16:40:33.231776+00:00,9.064034223556519,E4_ekf_smooth_gps_input,injection,7,37.56653579362838,126.97804515712822,20.0,5.628668131143089,,,,,,,3,12,37.5665357,126.9780451,20.0,,,,2.629999999999999,0.47999999999999954,HEARTBEAT,EKF3 IMU0 MAG0 initial yaw alignment complete,STABILIZE,,,
2026-07-06T16:40:33.232181+00:00,9.064435720443726,E4_ekf_smooth_gps_input,injection,7,37.56653579362838,126.97804515712822,20.0,5.628668131143089,37.5665357,126.9780451,20.0,5.617747319666984,0.011564685845498954,1,3,12,37.5665357,126.9780451,20.0,0.0,0.0,-0.02,2.629999999999999,0.47999999999999954,GLOBAL_POSITION_INT,EKF3 IMU0 MAG0 initial yaw alignment complete,STABILIZE,,,
2026-07-06T16:40:33.232569+00:00,9.064809083938599,E4_ekf_smooth_gps_input,injection,7,37.56653579362838,126.97804515712822,20.0,5.628668131143089,,,,,,,3,12,37.5665357,126.9780451,20.0,,,,2.629999999999999,0.47999999999999954,GPS_RAW_INT,EKF3 IMU0 MAG0 initial yaw alignment complete,STABILIZE,,,
2026-07-06T16:40:33.435121+00:00,9.267768383026123,E4_ekf_smooth_gps_input,injection,7,37.56653579362838,126.97804515712822,20.0,5.628668131143089,,,,,,,3,12,37.5665357,126.9780451,20.0,,,,2.629999999999999,0.47999999999999954,HEARTBEAT,EKF3 IMU0 MAG0 initial yaw alignment complete,STABILIZE,,,
2026-07-06T16:40:33.435737+00:00,9.267974138259888,E4_ekf_smooth_gps_input,injection,7,37.56653579362838,126.97804515712822,20.0,5.628668131143089,37.5665357,126.9780451,20.0,5.617747319666984,0.011564685845498954,1,3,12,37.5665357,126.9780451,20.0,0.0,0.0,-0.02,2.629999999999999,0.47999999999999954,GLOBAL_POSITION_INT,EKF3 IMU0 MAG0 initial yaw alignment complete,STABILIZE,,,
2026-07-06T16:40:33.438045+00:00,9.27029275894165,E4_ekf_smooth_gps_input,injection,7,37.56653579362838,126.97804515712822,20.0,5.628668131143089,,,,,,,3,12,37.5665357,126.9780451,20.0,,,,2.629999999999999,0.47999999999999954,GPS_RAW_INT,EKF3 IMU0 MAG0 initial yaw alignment complete,STABILIZE,,,
2026-07-06T16:40:33.653042+00:00,9.48529863357544,E4_ekf_smooth_gps_input,injection,8,37.56654471821541,126.97805641635895,20.0,7.032089167566192,,,,,,,3,12,37.5665357,126.9780451,20.0,,,,2.8100000000000063,0.3600000000000141,HEARTBEAT,EKF3 IMU0 MAG0 initial yaw alignment complete,STABILIZE,,,
2026-07-06T16:40:33.653221+00:00,9.48546028137207,E4_ekf_smooth_gps_input,injection,8,37.56654471821541,126.97805641635895,20.0,7.032089167566192,37.5665447,126.9780564,20.0,7.029637421573775,0.0024862461579747207,1,3,12,37.5665357,126.9780451,20.0,0.0,0.0,-0.02,2.8100000000000063,0.3600000000000141,GLOBAL_POSITION_INT,EKF3 IMU0 MAG0 initial yaw alignment complete,STABILIZE,,,
2026-07-06T16:40:33.653627+00:00,9.485867023468018,E4_ekf_smooth_gps_input,injection,8,37.56654471821541,126.97805641635895,20.0,7.032089167566192,,,,,,,3,12,37.5665447,126.9780564,20.0,,,,2.8100000000000063,0.3600000000000141,GPS_RAW_INT,EKF3 IMU0 MAG0 initial yaw alignment complete,STABILIZE,,,
2026-07-06T16:40:33.839513+00:00,9.671769857406616,E4_ekf_smooth_gps_input,injection,8,37.56654471821541,126.97805641635895,20.0,7.032089167566192,,,,,,,3,12,37.5665447,126.9780564,20.0,,,,2.8100000000000063,0.3600000000000141,HEARTBEAT,EKF3 IMU0 MAG0 initial yaw alignment complete,STABILIZE,,,
2026-07-06T16:40:33.839671+00:00,9.671904802322388,E4_ekf_smooth_gps_input,injection,8,37.56654471821541,126.97805641635895,20.0,7.032089167566192,37.5665447,126.9780564,20.0,7.029637421573775,0.0024862461579747207,1,3,12,37.5665447,126.9780564,20.0,0.0,0.0,-0.02,2.8100000000000063,0.3600000000000141,GLOBAL_POSITION_INT,EKF3 IMU0 MAG0 initial yaw alignment complete,STABILIZE,,,
2026-07-06T16:40:33.840024+00:00,9.672261714935303,E4_ekf_smooth_gps_input,injection,8,37.56654471821541,126.97805641635895,20.0,7.032089167566192,,,,,,,3,12,37.5665447,126.9780564,20.0,,,,2.8100000000000063,0.3600000000000141,GPS_RAW_INT,EKF3 IMU0 MAG0 initial yaw alignment complete,STABILIZE,,,
2026-07-06T16:40:34.033658+00:00,9.865917205810547,E4_ekf_smooth_gps_input,injection,8,37.56654471821541,126.97805641635895,20.0,7.032089167566192,,,,,,,3,12,37.5665447,126.9780564,20.0,,,,2.8100000000000063,0.3600000000000141,HEARTBEAT,EKF3 IMU0 MAG0 initial yaw alignment complete,STABILIZE,,,
2026-07-06T16:40:34.035166+00:00,9.867425441741943,E4_ekf_smooth_gps_input,injection,9,37.56655402392359,126.97806815641093,20.0,8.49544268491622,37.5665447,126.9780564,20.0,7.029637421573775,1.4658053337714039,1,3,12,37.5665447,126.9780564,20.0,0.0,0.0,-0.02,2.929999999999997,0.2399999999999822,GLOBAL_POSITION_INT,EKF3 IMU0 MAG0 initial yaw alignment complete,STABILIZE,,,
2026-07-06T16:40:34.036491+00:00,9.86873722076416,E4_ekf_smooth_gps_input,injection,9,37.56655402392359,126.97806815641093,20.0,8.49544268491622,,,,,,,3,12,37.5665447,126.9780564,20.0,,,,2.929999999999997,0.2399999999999822,GPS_RAW_INT,EKF3 IMU0 MAG0 initial yaw alignment complete,STABILIZE,,,
2026-07-06T16:40:34.234938+00:00,10.067194700241089,E4_ekf_smooth_gps_input,injection,9,37.56655402392359,126.97806815641093,20.0,8.49544268491622,,,,,,,3,12,37.5665447,126.9780564,20.0,,,,2.929999999999997,0.2399999999999822,HEARTBEAT,EKF3 IMU0 MAG0 initial yaw alignment complete,STABILIZE,,,
2026-07-06T16:40:34.235098+00:00,10.067334175109863,E4_ekf_smooth_gps_input,injection,9,37.56655402392359,126.97806815641093,20.0,8.49544268491622,37.566554,126.9780681,20.0,8.490046105412528,0.005638875418382046,1,3,12,37.5665447,126.9780564,20.0,0.0,0.0,-0.02,2.929999999999997,0.2399999999999822,GLOBAL_POSITION_INT,EKF3 IMU0 MAG0 initial yaw alignment complete,STABILIZE,,,
2026-07-06T16:40:34.235516+00:00,10.067759037017822,E4_ekf_smooth_gps_input,injection,9,37.56655402392359,126.97806815641093,20.0,8.49544268491622,,,,,,,3,12,37.566554,126.9780681,20.0,,,,2.929999999999997,0.2399999999999822,GPS_RAW_INT,EKF3 IMU0 MAG0 initial yaw alignment complete,STABILIZE,,,
2026-07-06T16:40:34.450393+00:00,10.28264832496643,E4_ekf_smooth_gps_input,injection,9,37.56655402392359,126.97806815641093,20.0,8.49544268491622,,,,,,,3,12,37.566554,126.9780681,20.0,,,,2.929999999999997,0.2399999999999822,HEARTBEAT,EKF3 IMU0 MAG0 initial yaw alignment complete,STABILIZE,,,
2026-07-06T16:40:34.451748+00:00,10.288290977478027,E4_ekf_smooth_gps_input,injection,9,37.56655402392359,126.97806815641093,20.0,8.49544268491622,37.566554,126.9780681,20.0,8.490046105412528,0.005638875418382046,1,3,12,37.566554,126.9780681,20.0,0.0,0.0,-0.02,2.929999999999997,0.2399999999999822,GLOBAL_POSITION_INT,EKF3 IMU0 MAG0 initial yaw alignment complete,STABILIZE,,,
2026-07-06T16:40:34.456476+00:00,10.28871774673462,E4_ekf_smooth_gps_input,injection,9,37.56655402392359,126.97806815641093,20.0,8.49544268491622,,,,,,,3,12,37.566554,126.9780681,20.0,,,,2.929999999999997,0.2399999999999822,GPS_RAW_INT,EKF3 IMU0 MAG0 initial yaw alignment complete,STABILIZE,,,
2026-07-06T16:40:34.633073+00:00,10.465331792831421,E4_ekf_smooth_gps_input,injection,10,37.56656352019235,126.97808013687352,20.0,9.988762391826127,,,,,,,3,12,37.566554,126.9780681,20.0,,,,2.989999999999998,0.12000000000000177,HEARTBEAT,EKF3 IMU0 MAG0 initial yaw alignment complete,STABILIZE,,,
2026-07-06T16:40:34.633235+00:00,10.46546745300293,E4_ekf_smooth_gps_input,injection,10,37.56656352019235,126.97808013687352,20.0,9.988762391826127,37.5665635,126.9780801,20.0,9.984876688081394,0.003950136384100554,1,3,12,37.566554,126.9780681,20.0,0.0,0.0,-0.02,2.989999999999998,0.12000000000000177,GLOBAL_POSITION_INT,EKF3 IMU0 MAG0 initial yaw alignment complete,STABILIZE,,,
2026-07-06T16:40:34.635553+00:00,10.467838287353516,E4_ekf_smooth_gps_input,injection,10,37.56656352019235,126.97808013687352,20.0,9.988762391826127,,,,,,,3,12,37.5665635,126.9780801,20.0,,,,2.989999999999998,0.12000000000000177,GPS_RAW_INT,EKF3 IMU0 MAG0 initial yaw alignment complete,STABILIZE,,,
2026-07-06T16:40:34.836182+00:00,10.668440341949463,E4_ekf_smooth_gps_input,injection,10,37.56656352019235,126.97808013687352,20.0,9.988762391826127,,,,,,,3,12,37.5665635,126.9780801,20.0,,,,2.989999999999998,0.12000000000000177,HEARTBEAT,EKF3 IMU0 MAG0 initial yaw alignment complete,STABILIZE,,,
2026-07-06T16:40:34.836395+00:00,10.668635845184326,E4_ekf_smooth_gps_input,injection,10,37.56656352019235,126.97808013687352,20.0,9.988762391826127,37.5665635,126.9780801,20.0,9.984876688081394,0.003950136384100554,1,3,12,37.5665635,126.9780801,20.0,0.0,0.0,-0.01,2.989999999999998,0.12000000000000177,GLOBAL_POSITION_INT,EKF3 IMU0 MAG0 initial yaw alignment complete,STABILIZE,,,
2026-07-06T16:40:34.836825+00:00,10.669064998626709,E4_ekf_smooth_gps_input,injection,10,37.56656352019235,126.97808013687352,20.0,9.988762391826127,,,,,,,3,12,37.5665635,126.9780801,20.0,,,,2.989999999999998,0.12000000000000177,GPS_RAW_INT,EKF3 IMU0 MAG0 initial yaw alignment complete,STABILIZE,,,
2026-07-06T16:40:35.034656+00:00,10.866917848587036,E4_ekf_smooth_gps_input,injection,10,37.56656352019235,126.97808013687352,20.0,9.988762391826127,,,,,,,3,12,37.5665635,126.9780801,20.0,,,,2.989999999999998,0.12000000000000177,HEARTBEAT,EKF3 IMU0 MAG0 initial yaw alignment complete,STABILIZE,,,
2026-07-06T16:40:35.034962+00:00,10.867209672927856,E4_ekf_smooth_gps_input,injection,10,37.56656352019235,126.97808013687352,20.0,9.988762391826127,37.5665635,126.9780801,20.0,9.984876688081394,0.003950136384100554,1,3,12,37.5665635,126.9780801,20.0,0.0,0.0,-0.01,2.989999999999998,0.12000000000000177,GLOBAL_POSITION_INT,EKF3 IMU0 MAG0 initial yaw alignment complete,STABILIZE,,,
2026-07-06T16:40:35.035460+00:00,10.867704153060913,E4_ekf_smooth_gps_input,injection,10,37.56656352019235,126.97808013687352,20.0,9.988762391826127,,,,,,,3,12,37.5665635,126.9780801,20.0,,,,2.989999999999998,0.12000000000000177,GPS_RAW_INT,EKF3 IMU0 MAG0 initial yaw alignment complete,STABILIZE,,,
2026-07-06T16:40:35.110694+00:00,10.943187713623047,E4_ekf_smooth_gps_input,injection,11,37.5665730164611,126.9780921173361,20.0,11.482082002990271,,,,,,,3,12,37.5665635,126.9780801,20.0,,,,2.990000000000002,7.944109290391274e-15,STATUSTEXT,EKF3 IMU0 origin set,STABILIZE,,,
2026-07-06T16:40:35.116148+00:00,10.94841456413269,E4_ekf_smooth_gps_input,injection,11,37.5665730164611,126.9780921173361,20.0,11.482082002990271,,,,,,,3,12,37.5665635,126.9780801,20.0,,,,2.990000000000002,7.944109290391274e-15,STATUSTEXT,EKF3 IMU1 origin set,STABILIZE,,,
2026-07-06T16:40:35.151356+00:00,10.983617305755615,E4_ekf_smooth_gps_input,injection,11,37.5665730164611,126.9780921173361,20.0,11.482082002990271,,,,,,,3,12,37.5665635,126.9780801,20.0,,,,2.990000000000002,7.944109290391274e-15,STATUSTEXT,Field Elevation Set: 20m,STABILIZE,,,
2026-07-06T16:40:35.231585+00:00,11.063867568969727,E4_ekf_smooth_gps_input,injection,11,37.5665730164611,126.9780921173361,20.0,11.482082002990271,,,,,,,3,12,37.5665635,126.9780801,20.0,,,,2.990000000000002,7.944109290391274e-15,HEARTBEAT,Field Elevation Set: 20m,STABILIZE,,,
2026-07-06T16:40:35.231913+00:00,11.06415581703186,E4_ekf_smooth_gps_input,injection,11,37.5665730164611,126.9780921173361,20.0,11.482082002990271,37.566573,126.9780921,20.0,11.47970728356894,0.0023843302032341743,1,3,12,37.5665635,126.9780801,20.0,0.0,0.0,0.0,2.990000000000002,7.944109290391274e-15,GLOBAL_POSITION_INT,Field Elevation Set: 20m,STABILIZE,,,
2026-07-06T16:40:35.232310+00:00,11.064549922943115,E4_ekf_smooth_gps_input,injection,11,37.5665730164611,126.9780921173361,20.0,11.482082002990271,,,,,,,3,12,37.566573,126.9780921,20.0,,,,2.990000000000002,7.944109290391274e-15,GPS_RAW_INT,Field Elevation Set: 20m,STABILIZE,,,
2026-07-06T16:40:35.456173+00:00,11.28843379020691,E4_ekf_smooth_gps_input,injection,11,37.5665730164611,126.9780921173361,20.0,11.482082002990271,,,,,,,3,12,37.566573,126.9780921,20.0,,,,2.990000000000002,7.944109290391274e-15,HEARTBEAT,Field Elevation Set: 20m,STABILIZE,,,
2026-07-06T16:40:35.456343+00:00,11.288581371307373,E4_ekf_smooth_gps_input,injection,11,37.5665730164611,126.9780921173361,20.0,11.482082002990271,37.566573,126.9780921,20.0,11.47970728356894,0.0023843302032341743,1,3,12,37.566573,126.9780921,20.0,0.0,0.0,0.0,2.990000000000002,7.944109290391274e-15,GLOBAL_POSITION_INT,Field Elevation Set: 20m,STABILIZE,,,
2026-07-06T16:40:35.456692+00:00,11.288929462432861,E4_ekf_smooth_gps_input,injection,11,37.5665730164611,126.9780921173361,20.0,11.482082002990271,,,,,,,3,12,37.566573,126.9780921,20.0,,,,2.990000000000002,7.944109290391274e-15,GPS_RAW_INT,Field Elevation Set: 20m,STABILIZE,,,
2026-07-06T16:40:35.637325+00:00,11.469578266143799,E4_ekf_smooth_gps_input,injection,11,37.5665730164611,126.9780921173361,20.0,11.482082002990271,,,,,,,3,12,37.566573,126.9780921,20.0,,,,2.990000000000002,7.944109290391274e-15,HEARTBEAT,Field Elevation Set: 20m,STABILIZE,,,
2026-07-06T16:40:35.637651+00:00,11.469892263412476,E4_ekf_smooth_gps_input,injection,12,37.566582322169275,126.97810385738808,20.0,12.945435242381148,37.566573,126.9780921,20.0,11.47970728356894,1.4657279765805857,1,3,12,37.566573,126.9780921,20.0,0.0,0.0,0.0,2.929999999999992,0.12000000000001936,GLOBAL_POSITION_INT,Field Elevation Set: 20m,STABILIZE,,,
2026-07-06T16:40:35.637973+00:00,11.470208644866943,E4_ekf_smooth_gps_input,injection,12,37.566582322169275,126.97810385738808,20.0,12.945435242381148,,,,,,,3,12,37.566573,126.9780921,20.0,,,,2.929999999999992,0.12000000000001936,GPS_RAW_INT,Field Elevation Set: 20m,STABILIZE,,,
2026-07-06T16:40:35.840345+00:00,11.672603607177734,E4_ekf_smooth_gps_input,injection,12,37.566582322169275,126.97810385738808,20.0,12.945435242381148,,,,,,,3,12,37.566573,126.9780921,20.0,,,,2.929999999999992,0.12000000000001936,HEARTBEAT,Field Elevation Set: 20m,STABILIZE,,,
2026-07-06T16:40:35.840526+00:00,11.672762155532837,E4_ekf_smooth_gps_input,injection,12,37.566582322169275,126.97810385738808,20.0,12.945435242381148,37.5665823,126.9781038,20.0,12.940115673410457,0.005626804765663934,1,3,12,37.566573,126.9780921,20.0,0.0,0.0,0.0,2.929999999999992,0.12000000000001936,GLOBAL_POSITION_INT,Field Elevation Set: 20m,STABILIZE,,,
2026-07-06T16:40:35.840936+00:00,11.67318081855774,E4_ekf_smooth_gps_input,injection,12,37.566582322169275,126.97810385738808,20.0,12.945435242381148,,,,,,,3,12,37.5665823,126.9781038,20.0,,,,2.929999999999992,0.12000000000001936,GPS_RAW_INT,Field Elevation Set: 20m,STABILIZE,,,
2026-07-06T16:40:36.042721+00:00,11.87497615814209,E4_ekf_smooth_gps_input,injection,12,37.566582322169275,126.97810385738808,20.0,12.945435242381148,,,,,,,3,12,37.5665823,126.9781038,20.0,,,,2.929999999999992,0.12000000000001936,HEARTBEAT,Field Elevation Set: 20m,STABILIZE,,,
2026-07-06T16:40:36.045432+00:00,11.877688646316528,E4_ekf_smooth_gps_input,injection,12,37.566582322169275,126.97810385738808,20.0,12.945435242381148,37.5665823,126.9781038,20.0,12.940115673410457,0.005626804765663934,1,3,12,37.5665823,126.9781038,20.0,0.0,0.0,0.0,2.929999999999992,0.12000000000001936,GLOBAL_POSITION_INT,Field Elevation Set: 20m,STABILIZE,,,
2026-07-06T16:40:36.047035+00:00,11.879282236099243,E4_ekf_smooth_gps_input,injection,12,37.566582322169275,126.97810385738808,20.0,12.945435242381148,,,,,,,3,12,37.5665823,126.9781038,20.0,,,,2.929999999999992,0.12000000000001936,GPS_RAW_INT,Field Elevation Set: 20m,STABILIZE,,,
2026-07-06T16:40:36.237684+00:00,12.069945812225342,E4_ekf_smooth_gps_input,injection,13,37.5665912467563,126.9781151166188,20.0,14.348855839610385,,,,,,,3,12,37.5665823,126.9781038,20.0,,,,2.810000000000003,0.23999999999997843,HEARTBEAT,Field Elevation Set: 20m,STABILIZE,,,
2026-07-06T16:40:36.237932+00:00,12.07082986831665,E4_ekf_smooth_gps_input,injection,13,37.5665912467563,126.9781151166188,20.0,14.348855839610385,37.5665912,126.9781151,20.0,14.344144055488268,0.005401458909894061,1,3,12,37.5665823,126.9781038,20.0,0.0,0.0,0.0,2.810000000000003,0.23999999999997843,GLOBAL_POSITION_INT,Field Elevation Set: 20m,STABILIZE,,,
2026-07-06T16:40:36.241714+00:00,12.073957920074463,E4_ekf_smooth_gps_input,injection,13,37.5665912467563,126.9781151166188,20.0,14.348855839610385,,,,,,,3,12,37.5665912,126.9781151,20.0,,,,2.810000000000003,0.23999999999997843,GPS_RAW_INT,Field Elevation Set: 20m,STABILIZE,,,
2026-07-06T16:40:36.442881+00:00,12.275136709213257,E4_ekf_smooth_gps_input,injection,13,37.5665912467563,126.9781151166188,20.0,14.348855839610385,,,,,,,3,12,37.5665912,126.9781151,20.0,,,,2.810000000000003,0.23999999999997843,HEARTBEAT,Field Elevation Set: 20m,STABILIZE,,,
2026-07-06T16:40:36.443031+00:00,12.275264263153076,E4_ekf_smooth_gps_input,injection,13,37.5665912467563,126.9781151166188,20.0,14.348855839610385,37.5665912,126.9781151,20.0,14.344144055488268,0.005401458909894061,1,3,12,37.5665912,126.9781151,20.0,0.0,0.0,0.0,2.810000000000003,0.23999999999997843,GLOBAL_POSITION_INT,Field Elevation Set: 20m,STABILIZE,,,
2026-07-06T16:40:36.443356+00:00,12.275593280792236,E4_ekf_smooth_gps_input,injection,13,37.5665912467563,126.9781151166188,20.0,14.348855839610385,,,,,,,3,12,37.5665912,126.9781151,20.0,,,,2.810000000000003,0.23999999999997843,GPS_RAW_INT,Field Elevation Set: 20m,STABILIZE,,,
2026-07-06T16:40:36.642855+00:00,12.475115537643433,E4_ekf_smooth_gps_input,injection,13,37.5665912467563,126.9781151166188,20.0,14.348855839610385,,,,,,,3,12,37.5665912,126.9781151,20.0,,,,2.810000000000003,0.23999999999997843,HEARTBEAT,Field Elevation Set: 20m,STABILIZE,,,
2026-07-06T16:40:36.643094+00:00,12.475335359573364,E4_ekf_smooth_gps_input,injection,13,37.5665912467563,126.9781151166188,20.0,14.348855839610385,37.5665912,126.9781151,20.0,14.344144055488268,0.005401458909894061,1,3,12,37.5665912,126.9781151,20.0,0.0,0.0,0.0,2.810000000000003,0.23999999999997843,GLOBAL_POSITION_INT,Field Elevation Set: 20m,STABILIZE,,,
2026-07-06T16:40:36.652315+00:00,12.484572172164917,E4_ekf_smooth_gps_input,injection,13,37.5665912467563,126.9781151166188,20.0,14.348855839610385,,,,,,,3,12,37.5665912,126.9781151,20.0,,,,2.810000000000003,0.23999999999997843,GPS_RAW_INT,Field Elevation Set: 20m,STABILIZE,,,
2026-07-06T16:40:36.835487+00:00,12.667742252349854,E4_ekf_smooth_gps_input,injection,14,37.56659959966159,126.97812565461767,20.0,15.662377532991757,,,,,,,3,12,37.5665912,126.9781151,20.0,,,,2.6300000000000003,0.3600000000000053,HEARTBEAT,Field Elevation Set: 20m,STABILIZE,,,
2026-07-06T16:40:36.835630+00:00,12.667863607406616,E4_ekf_smooth_gps_input,injection,14,37.56659959966159,126.97812565461767,20.0,15.662377532991757,37.5665995,126.9781256,20.0,15.65113816059668,0.01208227293439896,1,3,12,37.5665912,126.9781151,20.0,0.0,0.0,0.0,2.6300000000000003,0.3600000000000053,GLOBAL_POSITION_INT,Field Elevation Set: 20m,STABILIZE,,,
2026-07-06T16:40:36.838461+00:00,12.670710325241089,E4_ekf_smooth_gps_input,injection,14,37.56659959966159,126.97812565461767,20.0,15.662377532991757,,,,,,,3,12,37.5665995,126.9781256,20.0,,,,2.6300000000000003,0.3600000000000053,GPS_RAW_INT,Field Elevation Set: 20m,STABILIZE,,,
2026-07-06T16:40:37.057059+00:00,12.889316320419312,E4_ekf_smooth_gps_input,injection,14,37.56659959966159,126.97812565461767,20.0,15.662377532991757,,,,,,,3,12,37.5665995,126.9781256,20.0,,,,2.6300000000000003,0.3600000000000053,HEARTBEAT,Field Elevation Set: 20m,STABILIZE,,,
2026-07-06T16:40:37.057233+00:00,12.88946795463562,E4_ekf_smooth_gps_input,injection,14,37.56659959966159,126.97812565461767,20.0,15.662377532991757,37.5665995,126.9781256,20.0,15.65113816059668,0.01208227293439896,1,3,12,37.5665995,126.9781256,20.0,0.0,0.0,0.0,2.6300000000000003,0.3600000000000053,GLOBAL_POSITION_INT,Field Elevation Set: 20m,STABILIZE,,,
2026-07-06T16:40:37.057663+00:00,12.889903545379639,E4_ekf_smooth_gps_input,injection,14,37.56659959966159,126.97812565461767,20.0,15.662377532991757,,,,,,,3,12,37.5665995,126.9781256,20.0,,,,2.6300000000000003,0.3600000000000053,GPS_RAW_INT,Field Elevation Set: 20m,STABILIZE,,,
2026-07-06T16:40:37.242918+00:00,13.075166702270508,E4_ekf_smooth_gps_input,injection,15,37.56660719032458,126.97813523097405,20.0,16.856034064522685,,,,,,,3,12,37.5665995,126.9781256,20.0,,,,2.390000000000002,0.47999999999999704,HEARTBEAT,Field Elevation Set: 20m,STABILIZE,,,
2026-07-06T16:40:37.243085+00:00,13.07532024383545,E4_ekf_smooth_gps_input,injection,15,37.56660719032458,126.97813523097405,20.0,16.856034064522685,37.5665995,126.9781256,20.0,15.65113816059668,1.2049046878115057,1,3,12,37.5665995,126.9781256,20.0,0.0,0.0,0.0,2.390000000000002,0.47999999999999704,GLOBAL_POSITION_INT,Field Elevation Set: 20m,STABILIZE,,,
2026-07-06T16:40:37.243680+00:00,13.07592511177063,E4_ekf_smooth_gps_input,injection,15,37.56660719032458,126.97813523097405,20.0,16.856034064522685,,,,,,,3,12,37.5665995,126.9781256,20.0,,,,2.390000000000002,0.47999999999999704,GPS_RAW_INT,Field Elevation Set: 20m,STABILIZE,,,
2026-07-06T16:40:37.448700+00:00,13.2809579372406,E4_ekf_smooth_gps_input,injection,15,37.56660719032458,126.97813523097405,20.0,16.856034064522685,,,,,,,3,12,37.5665995,126.9781256,20.0,,,,2.390000000000002,0.47999999999999704,HEARTBEAT,Field Elevation Set: 20m,STABILIZE,,,
2026-07-06T16:40:37.448883+00:00,13.281119108200073,E4_ekf_smooth_gps_input,injection,15,37.56660719032458,126.97813523097405,20.0,16.856034064522685,37.5666071,126.9781352,20.0,16.847002539882766,0.010408048894590757,1,3,12,37.5665995,126.9781256,20.0,0.0,0.0,0.0,2.390000000000002,0.47999999999999704,GLOBAL_POSITION_INT,Field Elevation Set: 20m,STABILIZE,,,
2026-07-06T16:40:37.449279+00:00,13.28152060508728,E4_ekf_smooth_gps_input,injection,15,37.56660719032458,126.97813523097405,20.0,16.856034064522685,,,,,,,3,12,37.5666071,126.9781352,20.0,,,,2.390000000000002,0.47999999999999704,GPS_RAW_INT,Field Elevation Set: 20m,STABILIZE,,,
2026-07-06T16:40:37.646401+00:00,13.478660345077515,E4_ekf_smooth_gps_input,injection,15,37.56660719032458,126.97813523097405,20.0,16.856034064522685,,,,,,,3,12,37.5666071,126.9781352,20.0,,,,2.390000000000002,0.47999999999999704,HEARTBEAT,Field Elevation Set: 20m,STABILIZE,,,
2026-07-06T16:40:37.646562+00:00,13.47879672050476,E4_ekf_smooth_gps_input,injection,15,37.56660719032458,126.97813523097405,20.0,16.856034064522685,37.5666071,126.9781352,20.0,16.847002539882766,0.010408048894590757,1,3,12,37.5666071,126.9781352,20.0,0.0,0.0,0.0,2.390000000000002,0.47999999999999704,GLOBAL_POSITION_INT,Field Elevation Set: 20m,STABILIZE,,,
