timestamp,elapsed_s,experiment,phase,sample_index,target_lat,target_lon,target_alt,target_drift_m,obs_lat,obs_lon,obs_alt,official_drift_m,target_error_m,reflected,gps_fix_type,gps_satellites,gps_raw_lat,gps_raw_lon,gps_raw_alt,vn,ve,vd,commanded_speed_mps,commanded_accel_mps2,message_type,status_text,mode,mission_seq,fence_breach_status,fence_breach_count,fence_breach_type
2026-07-07T02:45:04.378166+00:00,0.01122593879699707,E19_mode_command,RTL_warmup,0,37.5665,126.978,20.0,0.0,,,,,,,,,,,,,,,0.0,0.0,STATUSTEXT,GPS 1: detected MAV,,,,,
2026-07-07T02:45:04.548195+00:00,0.1812572479248047,E19_mode_command,RTL_warmup,0,37.5665,126.978,20.0,0.0,,,,,,,,,,,,,,,0.0,0.0,HEARTBEAT,GPS 1: detected MAV,STABILIZE,,,,
2026-07-07T02:45:04.548355+00:00,0.18140125274658203,E19_mode_command,RTL_warmup,0,37.5665,126.978,20.0,0.0,37.5665,126.978,20.0,0.0,0.0,0,,,,,,0.0,0.0,-0.02,0.0,0.0,GLOBAL_POSITION_INT,GPS 1: detected MAV,STABILIZE,,,,
2026-07-07T02:45:04.548511+00:00,0.18155312538146973,E19_mode_command,RTL_warmup,0,37.5665,126.978,20.0,0.0,,,,,,,,,,,,,,,0.0,0.0,MISSION_CURRENT,GPS 1: detected MAV,STABILIZE,0,,,
2026-07-07T02:45:04.548727+00:00,0.18176817893981934,E19_mode_command,RTL_warmup,0,37.5665,126.978,20.0,0.0,,,,,,,3,12,37.5665,126.978,20.0,,,,0.0,0.0,GPS_RAW_INT,GPS 1: detected MAV,STABILIZE,0,,,
2026-07-07T02:45:04.548768+00:00,0.181807279586792,E19_mode_command,RTL_warmup,0,37.5665,126.978,20.0,0.0,,,,,,,3,12,37.5665,126.978,20.0,,,,0.0,0.0,FENCE_STATUS,GPS 1: detected MAV,STABILIZE,0,0,0,0
2026-07-07T02:45:04.747474+00:00,0.3805866241455078,E19_mode_command,RTL_warmup,0,37.5665,126.978,20.0,0.0,,,,,,,3,12,37.5665,126.978,20.0,,,,0.0,0.0,HEARTBEAT,GPS 1: detected MAV,STABILIZE,0,0,0,0
2026-07-07T02:45:04.747705+00:00,0.3807492256164551,E19_mode_command,RTL_warmup,0,37.5665,126.978,20.0,0.0,37.5665,126.978,20.0,0.0,0.0,0,3,12,37.5665,126.978,20.0,0.0,0.0,-0.02,0.0,0.0,GLOBAL_POSITION_INT,GPS 1: detected MAV,STABILIZE,0,0,0,0
2026-07-07T02:45:04.747831+00:00,0.3808715343475342,E19_mode_command,RTL_warmup,0,37.5665,126.978,20.0,0.0,,,,,,,3,12,37.5665,126.978,20.0,,,,0.0,0.0,MISSION_CURRENT,GPS 1: detected MAV,STABILIZE,0,0,0,0
2026-07-07T02:45:04.748066+00:00,0.38111042976379395,E19_mode_command,RTL_warmup,0,37.5665,126.978,20.0,0.0,,,,,,,3,12,37.5665,126.978,20.0,,,,0.0,0.0,GPS_RAW_INT,GPS 1: detected MAV,STABILIZE,0,0,0,0
2026-07-07T02:45:04.748113+00:00,0.3811523914337158,E19_mode_command,RTL_warmup,0,37.5665,126.978,20.0,0.0,,,,,,,3,12,37.5665,126.978,20.0,,,,0.0,0.0,FENCE_STATUS,GPS 1: detected MAV,STABILIZE,0,0,0,0
2026-07-07T02:45:04.946127+00:00,0.5791890621185303,E19_mode_command,RTL_warmup,0,37.5665,126.978,20.0,0.0,,,,,,,3,12,37.5665,126.978,20.0,,,,0.0,0.0,HEARTBEAT,GPS 1: detected MAV,STABILIZE,0,0,0,0
2026-07-07T02:45:04.946380+00:00,0.579425573348999,E19_mode_command,RTL_warmup,0,37.5665,126.978,20.0,0.0,37.5665,126.978,20.0,0.0,0.0,0,3,12,37.5665,126.978,20.0,0.0,0.0,-0.03,0.0,0.0,GLOBAL_POSITION_INT,GPS 1: detected MAV,STABILIZE,0,0,0,0
2026-07-07T02:45:04.946503+00:00,0.5795443058013916,E19_mode_command,RTL_warmup,0,37.5665,126.978,20.0,0.0,,,,,,,3,12,37.5665,126.978,20.0,,,,0.0,0.0,MISSION_CURRENT,GPS 1: detected MAV,STABILIZE,0,0,0,0
2026-07-07T02:45:04.946757+00:00,0.579801082611084,E19_mode_command,RTL_warmup,0,37.5665,126.978,20.0,0.0,,,,,,,3,12,37.5665,126.978,20.0,,,,0.0,0.0,GPS_RAW_INT,GPS 1: detected MAV,STABILIZE,0,0,0,0
2026-07-07T02:45:04.946804+00:00,0.579843282699585,E19_mode_command,RTL_warmup,0,37.5665,126.978,20.0,0.0,,,,,,,3,12,37.5665,126.978,20.0,,,,0.0,0.0,FENCE_STATUS,GPS 1: detected MAV,STABILIZE,0,0,0,0
2026-07-07T02:45:05.145624+00:00,0.7786872386932373,E19_mode_command,RTL_warmup,0,37.5665,126.978,20.0,0.0,,,,,,,3,12,37.5665,126.978,20.0,,,,0.0,0.0,HEARTBEAT,GPS 1: detected MAV,STABILIZE,0,0,0,0
2026-07-07T02:45:05.145768+00:00,0.7788107395172119,E19_mode_command,RTL_warmup,0,37.5665,126.978,20.0,0.0,37.5665,126.978,20.0,0.0,0.0,0,3,12,37.5665,126.978,20.0,0.0,0.0,-0.03,0.0,0.0,GLOBAL_POSITION_INT,GPS 1: detected MAV,STABILIZE,0,0,0,0
2026-07-07T02:45:05.145884+00:00,0.7789251804351807,E19_mode_command,RTL_warmup,0,37.5665,126.978,20.0,0.0,,,,,,,3,12,37.5665,126.978,20.0,,,,0.0,0.0,MISSION_CURRENT,GPS 1: detected MAV,STABILIZE,0,0,0,0
2026-07-07T02:45:05.146076+00:00,0.7791166305541992,E19_mode_command,RTL_warmup,0,37.5665,126.978,20.0,0.0,,,,,,,3,12,37.5665,126.978,20.0,,,,0.0,0.0,GPS_RAW_INT,GPS 1: detected MAV,STABILIZE,0,0,0,0
2026-07-07T02:45:05.146114+00:00,0.7791526317596436,E19_mode_command,RTL_warmup,0,37.5665,126.978,20.0,0.0,,,,,,,3,12,37.5665,126.978,20.0,,,,0.0,0.0,FENCE_STATUS,GPS 1: detected MAV,STABILIZE,0,0,0,0
2026-07-07T02:45:05.344048+00:00,0.9771106243133545,E19_mode_command,RTL_warmup,0,37.5665,126.978,20.0,0.0,,,,,,,3,12,37.5665,126.978,20.0,,,,0.0,0.0,HEARTBEAT,GPS 1: detected MAV,STABILIZE,0,0,0,0
2026-07-07T02:45:05.344194+00:00,0.9772336483001709,E19_mode_command,RTL_warmup,0,37.5665,126.978,20.0,0.0,37.5665,126.978,20.0,0.0,0.0,0,3,12,37.5665,126.978,20.0,0.0,0.0,-0.03,0.0,0.0,GLOBAL_POSITION_INT,GPS 1: detected MAV,STABILIZE,0,0,0,0
2026-07-07T02:45:05.344312+00:00,0.9773507118225098,E19_mode_command,RTL_warmup,0,37.5665,126.978,20.0,0.0,,,,,,,3,12,37.5665,126.978,20.0,,,,0.0,0.0,MISSION_CURRENT,GPS 1: detected MAV,STABILIZE,0,0,0,0
2026-07-07T02:45:05.344503+00:00,0.977543830871582,E19_mode_command,RTL_warmup,0,37.5665,126.978,20.0,0.0,,,,,,,3,12,37.5665,126.978,20.0,,,,0.0,0.0,GPS_RAW_INT,GPS 1: detected MAV,STABILIZE,0,0,0,0
2026-07-07T02:45:05.344541+00:00,0.9775798320770264,E19_mode_command,RTL_warmup,0,37.5665,126.978,20.0,0.0,,,,,,,3,12,37.5665,126.978,20.0,,,,0.0,0.0,FENCE_STATUS,GPS 1: detected MAV,STABILIZE,0,0,0,0
2026-07-07T02:45:05.547987+00:00,1.1810503005981445,E19_mode_command,RTL_warmup,0,37.5665,126.978,20.0,0.0,,,,,,,3,12,37.5665,126.978,20.0,,,,0.0,0.0,HEARTBEAT,GPS 1: detected MAV,STABILIZE,0,0,0,0
2026-07-07T02:45:05.548126+00:00,1.181166172027588,E19_mode_command,RTL_warmup,0,37.5665,126.978,20.0,0.0,37.5665,126.978,20.0,0.0,0.0,0,3,12,37.5665,126.978,20.0,0.0,0.0,-0.03,0.0,0.0,GLOBAL_POSITION_INT,GPS 1: detected MAV,STABILIZE,0,0,0,0
2026-07-07T02:45:05.548238+00:00,1.1812775135040283,E19_mode_command,RTL_warmup,0,37.5665,126.978,20.0,0.0,,,,,,,3,12,37.5665,126.978,20.0,,,,0.0,0.0,MISSION_CURRENT,GPS 1: detected MAV,STABILIZE,0,0,0,0
2026-07-07T02:45:05.548430+00:00,1.1814725399017334,E19_mode_command,RTL_warmup,0,37.5665,126.978,20.0,0.0,,,,,,,3,12,37.5665,126.978,20.0,,,,0.0,0.0,GPS_RAW_INT,GPS 1: detected MAV,STABILIZE,0,0,0,0
2026-07-07T02:45:05.548469+00:00,1.1815078258514404,E19_mode_command,RTL_warmup,0,37.5665,126.978,20.0,0.0,,,,,,,3,12,37.5665,126.978,20.0,,,,0.0,0.0,FENCE_STATUS,GPS 1: detected MAV,STABILIZE,0,0,0,0
2026-07-07T02:45:05.746313+00:00,1.379373550415039,E19_mode_command,RTL_warmup,0,37.5665,126.978,20.0,0.0,,,,,,,3,12,37.5665,126.978,20.0,,,,0.0,0.0,HEARTBEAT,GPS 1: detected MAV,STABILIZE,0,0,0,0
2026-07-07T02:45:05.746453+00:00,1.3794944286346436,E19_mode_command,RTL_warmup,0,37.5665,126.978,20.0,0.0,37.5665,126.978,20.0,0.0,0.0,0,3,12,37.5665,126.978,20.0,0.0,0.0,-0.04,0.0,0.0,GLOBAL_POSITION_INT,GPS 1: detected MAV,STABILIZE,0,0,0,0
2026-07-07T02:45:05.746570+00:00,1.3796098232269287,E19_mode_command,RTL_warmup,0,37.5665,126.978,20.0,0.0,,,,,,,3,12,37.5665,126.978,20.0,,,,0.0,0.0,MISSION_CURRENT,GPS 1: detected MAV,STABILIZE,0,0,0,0
2026-07-07T02:45:05.746812+00:00,1.379857063293457,E19_mode_command,RTL_warmup,0,37.5665,126.978,20.0,0.0,,,,,,,3,12,37.5665,126.978,20.0,,,,0.0,0.0,GPS_RAW_INT,GPS 1: detected MAV,STABILIZE,0,0,0,0
2026-07-07T02:45:05.746859+00:00,1.379899024963379,E19_mode_command,RTL_warmup,0,37.5665,126.978,20.0,0.0,,,,,,,3,12,37.5665,126.978,20.0,,,,0.0,0.0,FENCE_STATUS,GPS 1: detected MAV,STABILIZE,0,0,0,0
2026-07-07T02:45:05.950395+00:00,1.5834569931030273,E19_mode_command,RTL_warmup,0,37.5665,126.978,20.0,0.0,,,,,,,3,12,37.5665,126.978,20.0,,,,0.0,0.0,HEARTBEAT,GPS 1: detected MAV,STABILIZE,0,0,0,0
2026-07-07T02:45:05.950547+00:00,1.5835886001586914,E19_mode_command,RTL_warmup,0,37.5665,126.978,20.0,0.0,37.5665,126.978,20.0,0.0,0.0,0,3,12,37.5665,126.978,20.0,0.0,0.0,-0.04,0.0,0.0,GLOBAL_POSITION_INT,GPS 1: detected MAV,STABILIZE,0,0,0,0
2026-07-07T02:45:05.950660+00:00,1.5837011337280273,E19_mode_command,RTL_warmup,0,37.5665,126.978,20.0,0.0,,,,,,,3,12,37.5665,126.978,20.0,,,,0.0,0.0,MISSION_CURRENT,GPS 1: detected MAV,STABILIZE,0,0,0,0
2026-07-07T02:45:05.950891+00:00,1.583935022354126,E19_mode_command,RTL_warmup,0,37.5665,126.978,20.0,0.0,,,,,,,3,12,37.5665,126.978,20.0,,,,0.0,0.0,GPS_RAW_INT,GPS 1: detected MAV,STABILIZE,0,0,0,0
2026-07-07T02:45:05.950934+00:00,1.5839734077453613,E19_mode_command,RTL_warmup,0,37.5665,126.978,20.0,0.0,,,,,,,3,12,37.5665,126.978,20.0,,,,0.0,0.0,FENCE_STATUS,GPS 1: detected MAV,STABILIZE,0,0,0,0
2026-07-07T02:45:06.148680+00:00,1.7817442417144775,E19_mode_command,RTL_warmup,0,37.5665,126.978,20.0,0.0,,,,,,,3,12,37.5665,126.978,20.0,,,,0.0,0.0,HEARTBEAT,GPS 1: detected MAV,STABILIZE,0,0,0,0
2026-07-07T02:45:06.148856+00:00,1.781902551651001,E19_mode_command,RTL_warmup,0,37.5665,126.978,20.0,0.0,37.5665,126.978,20.0,0.0,0.0,0,3,12,37.5665,126.978,20.0,0.0,0.0,-0.04,0.0,0.0,GLOBAL_POSITION_INT,GPS 1: detected MAV,STABILIZE,0,0,0,0
2026-07-07T02:45:06.148986+00:00,1.7820279598236084,E19_mode_command,RTL_warmup,0,37.5665,126.978,20.0,0.0,,,,,,,3,12,37.5665,126.978,20.0,,,,0.0,0.0,MISSION_CURRENT,GPS 1: detected MAV,STABILIZE,0,0,0,0
2026-07-07T02:45:06.149189+00:00,1.782231330871582,E19_mode_command,RTL_warmup,0,37.5665,126.978,20.0,0.0,,,,,,,3,12,37.5665,126.978,20.0,,,,0.0,0.0,GPS_RAW_INT,GPS 1: detected MAV,STABILIZE,0,0,0,0
2026-07-07T02:45:06.149229+00:00,1.7822678089141846,E19_mode_command,RTL_warmup,0,37.5665,126.978,20.0,0.0,,,,,,,3,12,37.5665,126.978,20.0,,,,0.0,0.0,FENCE_STATUS,GPS 1: detected MAV,STABILIZE,0,0,0,0
2026-07-07T02:45:06.346956+00:00,1.9800198078155518,E19_mode_command,RTL_warmup,0,37.5665,126.978,20.0,0.0,,,,,,,3,12,37.5665,126.978,20.0,,,,0.0,0.0,HEARTBEAT,GPS 1: detected MAV,STABILIZE,0,0,0,0
2026-07-07T02:45:06.347196+00:00,1.980241060256958,E19_mode_command,RTL_warmup,0,37.5665,126.978,20.0,0.0,37.5665,126.978,20.0,0.0,0.0,0,3,12,37.5665,126.978,20.0,0.0,0.0,-0.04,0.0,0.0,GLOBAL_POSITION_INT,GPS 1: detected MAV,STABILIZE,0,0,0,0
2026-07-07T02:45:06.347310+00:00,1.9803493022918701,E19_mode_command,RTL_warmup,0,37.5665,126.978,20.0,0.0,,,,,,,3,12,37.5665,126.978,20.0,,,,0.0,0.0,MISSION_CURRENT,GPS 1: detected MAV,STABILIZE,0,0,0,0
2026-07-07T02:45:06.347595+00:00,1.9806420803070068,E19_mode_command,RTL_warmup,0,37.5665,126.978,20.0,0.0,,,,,,,3,12,37.5665,126.978,20.0,,,,0.0,0.0,GPS_RAW_INT,GPS 1: detected MAV,STABILIZE,0,0,0,0
2026-07-07T02:45:06.347671+00:00,1.9807109832763672,E19_mode_command,RTL_warmup,0,37.5665,126.978,20.0,0.0,,,,,,,3,12,37.5665,126.978,20.0,,,,0.0,0.0,FENCE_STATUS,GPS 1: detected MAV,STABILIZE,0,0,0,0
2026-07-07T02:45:06.550845+00:00,2.183908700942993,E19_mode_command,RTL_warmup,0,37.5665,126.978,20.0,0.0,,,,,,,3,12,37.5665,126.978,20.0,,,,0.0,0.0,HEARTBEAT,GPS 1: detected MAV,STABILIZE,0,0,0,0
2026-07-07T02:45:06.550998+00:00,2.1840412616729736,E19_mode_command,RTL_warmup,0,37.5665,126.978,20.0,0.0,37.5665,126.978,20.0,0.0,0.0,0,3,12,37.5665,126.978,20.0,0.0,0.0,-0.04,0.0,0.0,GLOBAL_POSITION_INT,GPS 1: detected MAV,STABILIZE,0,0,0,0
2026-07-07T02:45:06.551118+00:00,2.184157609939575,E19_mode_command,RTL_warmup,0,37.5665,126.978,20.0,0.0,,,,,,,3,12,37.5665,126.978,20.0,,,,0.0,0.0,MISSION_CURRENT,GPS 1: detected MAV,STABILIZE,0,0,0,0
2026-07-07T02:45:06.551324+00:00,2.184366464614868,E19_mode_command,RTL_warmup,0,37.5665,126.978,20.0,0.0,,,,,,,3,12,37.5665,126.978,20.0,,,,0.0,0.0,GPS_RAW_INT,GPS 1: detected MAV,STABILIZE,0,0,0,0
2026-07-07T02:45:06.551367+00:00,2.18440580368042,E19_mode_command,RTL_warmup,0,37.5665,126.978,20.0,0.0,,,,,,,3,12,37.5665,126.978,20.0,,,,0.0,0.0,FENCE_STATUS,GPS 1: detected MAV,STABILIZE,0,0,0,0
2026-07-07T02:45:16.947925+00:00,12.580986499786377,E19_mode_command,RTL_command,0,,,,,,,,,,,3,12,37.5665,126.978,20.0,,,,,,HEARTBEAT,GPS 1: detected MAV,RTL,0,0,0,0
2026-07-07T02:45:16.948655+00:00,12.58171272277832,E19_mode_command,RTL_command,0,,,,,0.0,0.0,0.0,13173877.35106569,,,3,12,37.5665,126.978,20.0,0.0,0.0,0.0,,,GLOBAL_POSITION_INT,GPS 1: detected MAV,RTL,0,0,0,0
2026-07-07T02:45:16.948854+00:00,12.581896543502808,E19_mode_command,RTL_command,0,,,,,,,,,,,3,12,37.5665,126.978,20.0,,,,,,MISSION_CURRENT,GPS 1: detected MAV,RTL,0,0,0,0
2026-07-07T02:45:16.949053+00:00,12.582093715667725,E19_mode_command,RTL_command,0,,,,,,,,,,,1,0,0.0,0.0,0.0,,,,,,GPS_RAW_INT,GPS 1: detected MAV,RTL,0,0,0,0
2026-07-07T02:45:16.949092+00:00,12.582130432128906,E19_mode_command,RTL_command,0,,,,,,,,,,,1,0,0.0,0.0,0.0,,,,,,FENCE_STATUS,GPS 1: detected MAV,RTL,0,0,0,0
2026-07-07T02:45:17.151790+00:00,12.78485107421875,E19_mode_command,RTL_command,0,,,,,,,,,,,1,0,0.0,0.0,0.0,,,,,,HEARTBEAT,GPS 1: detected MAV,RTL,0,0,0,0
2026-07-07T02:45:17.151933+00:00,12.784974813461304,E19_mode_command,RTL_command,0,,,,,0.0,0.0,0.0,13173877.35106569,,,1,0,0.0,0.0,0.0,0.0,0.0,0.0,,,GLOBAL_POSITION_INT,GPS 1: detected MAV,RTL,0,0,0,0
2026-07-07T02:45:17.152048+00:00,12.785088539123535,E19_mode_command,RTL_command,0,,,,,,,,,,,1,0,0.0,0.0,0.0,,,,,,MISSION_CURRENT,GPS 1: detected MAV,RTL,0,0,0,0
2026-07-07T02:45:17.152232+00:00,12.785273551940918,E19_mode_command,RTL_command,0,,,,,,,,,,,1,0,0.0,0.0,0.0,,,,,,GPS_RAW_INT,GPS 1: detected MAV,RTL,0,0,0,0
2026-07-07T02:45:17.152269+00:00,12.785306930541992,E19_mode_command,RTL_command,0,,,,,,,,,,,1,0,0.0,0.0,0.0,,,,,,FENCE_STATUS,GPS 1: detected MAV,RTL,0,0,0,0
2026-07-07T02:45:17.350105+00:00,12.9831702709198,E19_mode_command,RTL_command,0,,,,,,,,,,,1,0,0.0,0.0,0.0,,,,,,HEARTBEAT,GPS 1: detected MAV,RTL,0,0,0,0
2026-07-07T02:45:17.350299+00:00,12.983346223831177,E19_mode_command,RTL_command,0,,,,,0.0,0.0,0.0,13173877.35106569,,,1,0,0.0,0.0,0.0,0.0,0.0,0.0,,,GLOBAL_POSITION_INT,GPS 1: detected MAV,RTL,0,0,0,0
2026-07-07T02:45:17.350479+00:00,12.983524560928345,E19_mode_command,RTL_command,0,,,,,,,,,,,1,0,0.0,0.0,0.0,,,,,,MISSION_CURRENT,GPS 1: detected MAV,RTL,0,0,0,0
2026-07-07T02:45:17.350784+00:00,12.983829021453857,E19_mode_command,RTL_command,0,,,,,,,,,,,1,0,0.0,0.0,0.0,,,,,,GPS_RAW_INT,GPS 1: detected MAV,RTL,0,0,0,0
2026-07-07T02:45:17.350870+00:00,12.98391318321228,E19_mode_command,RTL_command,0,,,,,,,,,,,1,0,0.0,0.0,0.0,,,,,,FENCE_STATUS,GPS 1: detected MAV,RTL,0,0,0,0
2026-07-07T02:45:17.548482+00:00,13.18154239654541,E19_mode_command,RTL_command,0,,,,,,,,,,,1,0,0.0,0.0,0.0,,,,,,HEARTBEAT,GPS 1: detected MAV,RTL,0,0,0,0
2026-07-07T02:45:17.548622+00:00,13.181663751602173,E19_mode_command,RTL_command,0,,,,,0.0,0.0,0.0,13173877.35106569,,,1,0,0.0,0.0,0.0,0.0,0.0,0.0,,,GLOBAL_POSITION_INT,GPS 1: detected MAV,RTL,0,0,0,0
2026-07-07T02:45:17.548737+00:00,13.181777477264404,E19_mode_command,RTL_command,0,,,,,,,,,,,1,0,0.0,0.0,0.0,,,,,,MISSION_CURRENT,GPS 1: detected MAV,RTL,0,0,0,0
2026-07-07T02:45:17.548932+00:00,13.181971788406372,E19_mode_command,RTL_command,0,,,,,,,,,,,1,0,0.0,0.0,0.0,,,,,,GPS_RAW_INT,GPS 1: detected MAV,RTL,0,0,0,0
2026-07-07T02:45:17.548969+00:00,13.182008504867554,E19_mode_command,RTL_command,0,,,,,,,,,,,1,0,0.0,0.0,0.0,,,,,,FENCE_STATUS,GPS 1: detected MAV,RTL,0,0,0,0
2026-07-07T02:45:17.746762+00:00,13.379825592041016,E19_mode_command,RTL_command,0,,,,,,,,,,,1,0,0.0,0.0,0.0,,,,,,HEARTBEAT,GPS 1: detected MAV,RTL,0,0,0,0
2026-07-07T02:45:17.746930+00:00,13.379977464675903,E19_mode_command,RTL_command,0,,,,,0.0,0.0,0.0,13173877.35106569,,,1,0,0.0,0.0,0.0,0.0,0.0,0.0,,,GLOBAL_POSITION_INT,GPS 1: detected MAV,RTL,0,0,0,0
2026-07-07T02:45:17.747150+00:00,13.380194902420044,E19_mode_command,RTL_command,0,,,,,,,,,,,1,0,0.0,0.0,0.0,,,,,,MISSION_CURRENT,GPS 1: detected MAV,RTL,0,0,0,0
2026-07-07T02:45:17.747398+00:00,13.380441188812256,E19_mode_command,RTL_command,0,,,,,,,,,,,1,0,0.0,0.0,0.0,,,,,,GPS_RAW_INT,GPS 1: detected MAV,RTL,0,0,0,0
2026-07-07T02:45:17.747473+00:00,13.380600452423096,E19_mode_command,RTL_command,0,,,,,,,,,,,1,0,0.0,0.0,0.0,,,,,,FENCE_STATUS,GPS 1: detected MAV,RTL,0,0,0,0
2026-07-07T02:45:17.945100+00:00,13.578161478042603,E19_mode_command,RTL_command,0,,,,,,,,,,,1,0,0.0,0.0,0.0,,,,,,HEARTBEAT,GPS 1: detected MAV,RTL,0,0,0,0
2026-07-07T02:45:17.945243+00:00,13.578285217285156,E19_mode_command,RTL_command,0,,,,,0.0,0.0,0.0,13173877.35106569,,,1,0,0.0,0.0,0.0,0.0,0.0,0.0,,,GLOBAL_POSITION_INT,GPS 1: detected MAV,RTL,0,0,0,0
2026-07-07T02:45:17.945359+00:00,13.57839846611023,E19_mode_command,RTL_command,0,,,,,,,,,,,1,0,0.0,0.0,0.0,,,,,,MISSION_CURRENT,GPS 1: detected MAV,RTL,0,0,0,0
2026-07-07T02:45:17.945557+00:00,13.578598737716675,E19_mode_command,RTL_command,0,,,,,,,,,,,1,0,0.0,0.0,0.0,,,,,,GPS_RAW_INT,GPS 1: detected MAV,RTL,0,0,0,0
2026-07-07T02:45:17.945624+00:00,13.578668594360352,E19_mode_command,RTL_command,0,,,,,,,,,,,1,0,0.0,0.0,0.0,,,,,,FENCE_STATUS,GPS 1: detected MAV,RTL,0,0,0,0
2026-07-07T02:45:18.149013+00:00,13.782073497772217,E19_mode_command,RTL_command,0,,,,,,,,,,,1,0,0.0,0.0,0.0,,,,,,HEARTBEAT,GPS 1: detected MAV,RTL,0,0,0,0
2026-07-07T02:45:18.149170+00:00,13.782214403152466,E19_mode_command,RTL_command,0,,,,,0.0,0.0,0.0,13173877.35106569,,,1,0,0.0,0.0,0.0,0.0,0.0,0.0,,,GLOBAL_POSITION_INT,GPS 1: detected MAV,RTL,0,0,0,0
2026-07-07T02:45:18.149337+00:00,13.782382011413574,E19_mode_command,RTL_command,0,,,,,,,,,,,1,0,0.0,0.0,0.0,,,,,,MISSION_CURRENT,GPS 1: detected MAV,RTL,0,0,0,0
2026-07-07T02:45:18.149586+00:00,13.78262972831726,E19_mode_command,RTL_command,0,,,,,,,,,,,1,0,0.0,0.0,0.0,,,,,,GPS_RAW_INT,GPS 1: detected MAV,RTL,0,0,0,0
2026-07-07T02:45:18.149632+00:00,13.782670974731445,E19_mode_command,RTL_command,0,,,,,,,,,,,1,0,0.0,0.0,0.0,,,,,,FENCE_STATUS,GPS 1: detected MAV,RTL,0,0,0,0
2026-07-07T02:45:18.347580+00:00,13.98064136505127,E19_mode_command,RTL_command,0,,,,,,,,,,,1,0,0.0,0.0,0.0,,,,,,HEARTBEAT,GPS 1: detected MAV,RTL,0,0,0,0
2026-07-07T02:45:18.347740+00:00,13.98078179359436,E19_mode_command,RTL_command,0,,,,,0.0,0.0,0.0,13173877.35106569,,,1,0,0.0,0.0,0.0,0.0,0.0,0.0,,,GLOBAL_POSITION_INT,GPS 1: detected MAV,RTL,0,0,0,0
2026-07-07T02:45:18.347870+00:00,13.980915069580078,E19_mode_command,RTL_command,0,,,,,,,,,,,1,0,0.0,0.0,0.0,,,,,,MISSION_CURRENT,GPS 1: detected MAV,RTL,0,0,0,0
2026-07-07T02:45:18.348136+00:00,13.981180429458618,E19_mode_command,RTL_command,0,,,,,,,,,,,1,0,0.0,0.0,0.0,,,,,,GPS_RAW_INT,GPS 1: detected MAV,RTL,0,0,0,0
2026-07-07T02:45:18.348182+00:00,13.981221199035645,E19_mode_command,RTL_command,0,,,,,,,,,,,1,0,0.0,0.0,0.0,,,,,,FENCE_STATUS,GPS 1: detected MAV,RTL,0,0,0,0
2026-07-07T02:45:18.551545+00:00,14.184607982635498,E19_mode_command,RTL_command,0,,,,,,,,,,,1,0,0.0,0.0,0.0,,,,,,HEARTBEAT,GPS 1: detected MAV,RTL,0,0,0,0
2026-07-07T02:45:18.551713+00:00,14.1847562789917,E19_mode_command,RTL_command,0,,,,,0.0,0.0,0.0,13173877.35106569,,,1,0,0.0,0.0,0.0,0.0,0.01,0.0,,,GLOBAL_POSITION_INT,GPS 1: detected MAV,RTL,0,0,0,0
2026-07-07T02:45:18.551830+00:00,14.18487024307251,E19_mode_command,RTL_command,0,,,,,,,,,,,1,0,0.0,0.0,0.0,,,,,,MISSION_CURRENT,GPS 1: detected MAV,RTL,0,0,0,0
2026-07-07T02:45:18.552062+00:00,14.185106992721558,E19_mode_command,RTL_command,0,,,,,,,,,,,1,0,0.0,0.0,0.0,,,,,,GPS_RAW_INT,GPS 1: detected MAV,RTL,0,0,0,0
2026-07-07T02:45:18.552111+00:00,14.185150384902954,E19_mode_command,RTL_command,0,,,,,,,,,,,1,0,0.0,0.0,0.0,,,,,,FENCE_STATUS,GPS 1: detected MAV,RTL,0,0,0,0
2026-07-07T02:45:18.749826+00:00,14.382888555526733,E19_mode_command,RTL_command,0,,,,,,,,,,,1,0,0.0,0.0,0.0,,,,,,HEARTBEAT,GPS 1: detected MAV,RTL,0,0,0,0
2026-07-07T02:45:18.750005+00:00,14.383053064346313,E19_mode_command,RTL_command,0,,,,,0.0,0.0,0.0,13173877.35106569,,,1,0,0.0,0.0,0.0,-0.01,0.01,0.0,,,GLOBAL_POSITION_INT,GPS 1: detected MAV,RTL,0,0,0,0
2026-07-07T02:45:18.750207+00:00,14.3832528591156,E19_mode_command,RTL_command,0,,,,,,,,,,,1,0,0.0,0.0,0.0,,,,,,MISSION_CURRENT,GPS 1: detected MAV,RTL,0,0,0,0
2026-07-07T02:45:18.750524+00:00,14.383568286895752,E19_mode_command,RTL_command,0,,,,,,,,,,,1,0,0.0,0.0,0.0,,,,,,GPS_RAW_INT,GPS 1: detected MAV,RTL,0,0,0,0
2026-07-07T02:45:18.750571+00:00,14.383610248565674,E19_mode_command,RTL_command,0,,,,,,,,,,,1,0,0.0,0.0,0.0,,,,,,FENCE_STATUS,GPS 1: detected MAV,RTL,0,0,0,0
2026-07-07T02:45:18.948880+00:00,14.581952095031738,E19_mode_command,RTL_command,0,,,,,,,,,,,1,0,0.0,0.0,0.0,,,,,,HEARTBEAT,GPS 1: detected MAV,RTL,0,0,0,0
2026-07-07T02:45:18.949048+00:00,14.582091569900513,E19_mode_command,RTL_command,0,,,,,0.0,0.0,0.0,13173877.35106569,,,1,0,0.0,0.0,0.0,-0.01,0.01,0.0,,,GLOBAL_POSITION_INT,GPS 1: detected MAV,RTL,0,0,0,0
2026-07-07T02:45:18.949168+00:00,14.582208395004272,E19_mode_command,RTL_command,0,,,,,,,,,,,1,0,0.0,0.0,0.0,,,,,,MISSION_CURRENT,GPS 1: detected MAV,RTL,0,0,0,0
2026-07-07T02:45:18.949411+00:00,14.5824556350708,E19_mode_command,RTL_command,0,,,,,,,,,,,1,0,0.0,0.0,0.0,,,,,,GPS_RAW_INT,GPS 1: detected MAV,RTL,0,0,0,0
2026-07-07T02:45:18.949455+00:00,14.582493782043457,E19_mode_command,RTL_command,0,,,,,,,,,,,1,0,0.0,0.0,0.0,,,,,,FENCE_STATUS,GPS 1: detected MAV,RTL,0,0,0,0
2026-07-07T02:45:19.147128+00:00,14.780189037322998,E19_mode_command,RTL_command,0,,,,,,,,,,,1,0,0.0,0.0,0.0,,,,,,HEARTBEAT,GPS 1: detected MAV,RTL,0,0,0,0
2026-07-07T02:45:19.147269+00:00,14.780310869216919,E19_mode_command,RTL_command,0,,,,,0.0,0.0,0.0,13173877.35106569,,,1,0,0.0,0.0,0.0,-0.01,0.01,0.0,,,GLOBAL_POSITION_INT,GPS 1: detected MAV,RTL,0,0,0,0
2026-07-07T02:45:19.147388+00:00,14.780428171157837,E19_mode_command,RTL_command,0,,,,,,,,,,,1,0,0.0,0.0,0.0,,,,,,MISSION_CURRENT,GPS 1: detected MAV,RTL,0,0,0,0
2026-07-07T02:45:19.147670+00:00,14.780714273452759,E19_mode_command,RTL_command,0,,,,,,,,,,,1,0,0.0,0.0,0.0,,,,,,GPS_RAW_INT,GPS 1: detected MAV,RTL,0,0,0,0
2026-07-07T02:45:19.147715+00:00,14.780754804611206,E19_mode_command,RTL_command,0,,,,,,,,,,,1,0,0.0,0.0,0.0,,,,,,FENCE_STATUS,GPS 1: detected MAV,RTL,0,0,0,0
2026-07-07T02:45:19.351271+00:00,14.98433232307434,E19_mode_command,RTL_command,0,,,,,,,,,,,1,0,0.0,0.0,0.0,,,,,,HEARTBEAT,GPS 1: detected MAV,RTL,0,0,0,0
2026-07-07T02:45:19.351429+00:00,14.984471559524536,E19_mode_command,RTL_command,0,,,,,0.0,0.0,0.0,13173877.35106569,,,1,0,0.0,0.0,0.0,-0.01,0.01,0.0,,,GLOBAL_POSITION_INT,GPS 1: detected MAV,RTL,0,0,0,0
2026-07-07T02:45:19.351575+00:00,14.98461627960205,E19_mode_command,RTL_command,0,,,,,,,,,,,1,0,0.0,0.0,0.0,,,,,,MISSION_CURRENT,GPS 1: detected MAV,RTL,0,0,0,0
2026-07-07T02:45:19.351793+00:00,14.984834432601929,E19_mode_command,RTL_command,0,,,,,,,,,,,1,0,0.0,0.0,0.0,,,,,,GPS_RAW_INT,GPS 1: detected MAV,RTL,0,0,0,0
2026-07-07T02:45:19.351834+00:00,14.984872817993164,E19_mode_command,RTL_command,0,,,,,,,,,,,1,0,0.0,0.0,0.0,,,,,,FENCE_STATUS,GPS 1: detected MAV,RTL,0,0,0,0
2026-07-07T02:45:19.549511+00:00,15.182571649551392,E19_mode_command,RTL_command,0,,,,,,,,,,,1,0,0.0,0.0,0.0,,,,,,HEARTBEAT,GPS 1: detected MAV,RTL,0,0,0,0
2026-07-07T02:45:19.549663+00:00,15.1827073097229,E19_mode_command,RTL_command,0,,,,,0.0,0.0,0.0,13173877.35106569,,,1,0,0.0,0.0,0.0,-0.01,0.01,0.0,,,GLOBAL_POSITION_INT,GPS 1: detected MAV,RTL,0,0,0,0
2026-07-07T02:45:19.549775+00:00,15.182815074920654,E19_mode_command,RTL_command,0,,,,,,,,,,,1,0,0.0,0.0,0.0,,,,,,MISSION_CURRENT,GPS 1: detected MAV,RTL,0,0,0,0
2026-07-07T02:45:19.549963+00:00,15.183005332946777,E19_mode_command,RTL_command,0,,,,,,,,,,,1,0,0.0,0.0,0.0,,,,,,GPS_RAW_INT,GPS 1: detected MAV,RTL,0,0,0,0
2026-07-07T02:45:19.550000+00:00,15.183038711547852,E19_mode_command,RTL_command,0,,,,,,,,,,,1,0,0.0,0.0,0.0,,,,,,FENCE_STATUS,GPS 1: detected MAV,RTL,0,0,0,0
2026-07-07T02:45:19.747864+00:00,15.380926132202148,E19_mode_command,RTL_command,0,,,,,,,,,,,1,0,0.0,0.0,0.0,,,,,,HEARTBEAT,GPS 1: detected MAV,RTL,0,0,0,0
2026-07-07T02:45:19.748015+00:00,15.381058692932129,E19_mode_command,RTL_command,0,,,,,0.0,0.0,0.0,13173877.35106569,,,1,0,0.0,0.0,0.0,-0.01,0.01,0.0,,,GLOBAL_POSITION_INT,GPS 1: detected MAV,RTL,0,0,0,0
2026-07-07T02:45:19.748136+00:00,15.381175518035889,E19_mode_command,RTL_command,0,,,,,,,,,,,1,0,0.0,0.0,0.0,,,,,,MISSION_CURRENT,GPS 1: detected MAV,RTL,0,0,0,0
2026-07-07T02:45:19.748336+00:00,15.381376504898071,E19_mode_command,RTL_command,0,,,,,,,,,,,1,0,0.0,0.0,0.0,,,,,,GPS_RAW_INT,GPS 1: detected MAV,RTL,0,0,0,0
2026-07-07T02:45:19.748375+00:00,15.38141393661499,E19_mode_command,RTL_command,0,,,,,,,,,,,1,0,0.0,0.0,0.0,,,,,,FENCE_STATUS,GPS 1: detected MAV,RTL,0,0,0,0
2026-07-07T02:45:36.290535+00:00,0.011348247528076172,E19_mode_command,LAND_warmup,0,37.5665,126.978,20.0,0.0,,,,,,,,,,,,,,,0.0,0.0,STATUSTEXT,GPS 1: detected MAV,,,,,
2026-07-07T02:45:36.459765+00:00,0.18057894706726074,E19_mode_command,LAND_warmup,0,37.5665,126.978,20.0,0.0,,,,,,,,,,,,,,,0.0,0.0,HEARTBEAT,GPS 1: detected MAV,STABILIZE,,,,
2026-07-07T02:45:36.459908+00:00,0.18070125579833984,E19_mode_command,LAND_warmup,0,37.5665,126.978,20.0,0.0,37.5665,126.978,20.0,0.0,0.0,0,,,,,,0.0,0.0,-0.02,0.0,0.0,GLOBAL_POSITION_INT,GPS 1: detected MAV,STABILIZE,,,,
2026-07-07T02:45:36.460030+00:00,0.18082070350646973,E19_mode_command,LAND_warmup,0,37.5665,126.978,20.0,0.0,,,,,,,,,,,,,,,0.0,0.0,MISSION_CURRENT,GPS 1: detected MAV,STABILIZE,0,,,
2026-07-07T02:45:36.460268+00:00,0.18106532096862793,E19_mode_command,LAND_warmup,0,37.5665,126.978,20.0,0.0,,,,,,,3,12,37.5665,126.978,20.0,,,,0.0,0.0,GPS_RAW_INT,GPS 1: detected MAV,STABILIZE,0,,,
2026-07-07T02:45:36.460312+00:00,0.18110346794128418,E19_mode_command,LAND_warmup,0,37.5665,126.978,20.0,0.0,,,,,,,3,12,37.5665,126.978,20.0,,,,0.0,0.0,FENCE_STATUS,GPS 1: detected MAV,STABILIZE,0,0,0,0
2026-07-07T02:45:36.663659+00:00,0.38447093963623047,E19_mode_command,LAND_warmup,0,37.5665,126.978,20.0,0.0,,,,,,,3,12,37.5665,126.978,20.0,,,,0.0,0.0,HEARTBEAT,GPS 1: detected MAV,STABILIZE,0,0,0,0
2026-07-07T02:45:36.663799+00:00,0.3845946788787842,E19_mode_command,LAND_warmup,0,37.5665,126.978,20.0,0.0,37.5665,126.978,20.0,0.0,0.0,0,3,12,37.5665,126.978,20.0,0.0,0.0,-0.02,0.0,0.0,GLOBAL_POSITION_INT,GPS 1: detected MAV,STABILIZE,0,0,0,0
2026-07-07T02:45:36.663911+00:00,0.3847029209136963,E19_mode_command,LAND_warmup,0,37.5665,126.978,20.0,0.0,,,,,,,3,12,37.5665,126.978,20.0,,,,0.0,0.0,MISSION_CURRENT,GPS 1: detected MAV,STABILIZE,0,0,0,0
2026-07-07T02:45:36.664096+00:00,0.3848912715911865,E19_mode_command,LAND_warmup,0,37.5665,126.978,20.0,0.0,,,,,,,3,12,37.5665,126.978,20.0,,,,0.0,0.0,GPS_RAW_INT,GPS 1: detected MAV,STABILIZE,0,0,0,0
2026-07-07T02:45:36.664135+00:00,0.38492536544799805,E19_mode_command,LAND_warmup,0,37.5665,126.978,20.0,0.0,,,,,,,3,12,37.5665,126.978,20.0,,,,0.0,0.0,FENCE_STATUS,GPS 1: detected MAV,STABILIZE,0,0,0,0
2026-07-07T02:45:36.861954+00:00,0.5827691555023193,E19_mode_command,LAND_warmup,0,37.5665,126.978,20.0,0.0,,,,,,,3,12,37.5665,126.978,20.0,,,,0.0,0.0,HEARTBEAT,GPS 1: detected MAV,STABILIZE,0,0,0,0
2026-07-07T02:45:36.862123+00:00,0.5829184055328369,E19_mode_command,LAND_warmup,0,37.5665,126.978,20.0,0.0,37.5665,126.978,20.0,0.0,0.0,0,3,12,37.5665,126.978,20.0,0.0,0.0,-0.03,0.0,0.0,GLOBAL_POSITION_INT,GPS 1: detected MAV,STABILIZE,0,0,0,0
2026-07-07T02:45:36.862243+00:00,0.5830352306365967,E19_mode_command,LAND_warmup,0,37.5665,126.978,20.0,0.0,,,,,,,3,12,37.5665,126.978,20.0,,,,0.0,0.0,MISSION_CURRENT,GPS 1: detected MAV,STABILIZE,0,0,0,0
2026-07-07T02:45:36.862485+00:00,0.5832808017730713,E19_mode_command,LAND_warmup,0,37.5665,126.978,20.0,0.0,,,,,,,3,12,37.5665,126.978,20.0,,,,0.0,0.0,GPS_RAW_INT,GPS 1: detected MAV,STABILIZE,0,0,0,0
2026-07-07T02:45:36.862532+00:00,0.5833225250244141,E19_mode_command,LAND_warmup,0,37.5665,126.978,20.0,0.0,,,,,,,3,12,37.5665,126.978,20.0,,,,0.0,0.0,FENCE_STATUS,GPS 1: detected MAV,STABILIZE,0,0,0,0
2026-07-07T02:45:37.060334+00:00,0.7811486721038818,E19_mode_command,LAND_warmup,0,37.5665,126.978,20.0,0.0,,,,,,,3,12,37.5665,126.978,20.0,,,,0.0,0.0,HEARTBEAT,GPS 1: detected MAV,STABILIZE,0,0,0,0
2026-07-07T02:45:37.060485+00:00,0.7812795639038086,E19_mode_command,LAND_warmup,0,37.5665,126.978,20.0,0.0,37.5665,126.978,20.0,0.0,0.0,0,3,12,37.5665,126.978,20.0,0.0,0.0,-0.03,0.0,0.0,GLOBAL_POSITION_INT,GPS 1: detected MAV,STABILIZE,0,0,0,0
2026-07-07T02:45:37.060603+00:00,0.7813944816589355,E19_mode_command,LAND_warmup,0,37.5665,126.978,20.0,0.0,,,,,,,3,12,37.5665,126.978,20.0,,,,0.0,0.0,MISSION_CURRENT,GPS 1: detected MAV,STABILIZE,0,0,0,0
2026-07-07T02:45:37.060793+00:00,0.7815845012664795,E19_mode_command,LAND_warmup,0,37.5665,126.978,20.0,0.0,,,,,,,3,12,37.5665,126.978,20.0,,,,0.0,0.0,GPS_RAW_INT,GPS 1: detected MAV,STABILIZE,0,0,0,0
2026-07-07T02:45:37.060830+00:00,0.7816197872161865,E19_mode_command,LAND_warmup,0,37.5665,126.978,20.0,0.0,,,,,,,3,12,37.5665,126.978,20.0,,,,0.0,0.0,FENCE_STATUS,GPS 1: detected MAV,STABILIZE,0,0,0,0
2026-07-07T02:45:37.258653+00:00,0.979466438293457,E19_mode_command,LAND_warmup,0,37.5665,126.978,20.0,0.0,,,,,,,3,12,37.5665,126.978,20.0,,,,0.0,0.0,HEARTBEAT,GPS 1: detected MAV,STABILIZE,0,0,0,0
2026-07-07T02:45:37.258796+00:00,0.9795894622802734,E19_mode_command,LAND_warmup,0,37.5665,126.978,20.0,0.0,37.5665,126.978,20.0,0.0,0.0,0,3,12,37.5665,126.978,20.0,0.0,0.0,-0.03,0.0,0.0,GLOBAL_POSITION_INT,GPS 1: detected MAV,STABILIZE,0,0,0,0
2026-07-07T02:45:37.258908+00:00,0.979698896408081,E19_mode_command,LAND_warmup,0,37.5665,126.978,20.0,0.0,,,,,,,3,12,37.5665,126.978,20.0,,,,0.0,0.0,MISSION_CURRENT,GPS 1: detected MAV,STABILIZE,0,0,0,0
2026-07-07T02:45:37.259093+00:00,0.9798855781555176,E19_mode_command,LAND_warmup,0,37.5665,126.978,20.0,0.0,,,,,,,3,12,37.5665,126.978,20.0,,,,0.0,0.0,GPS_RAW_INT,GPS 1: detected MAV,STABILIZE,0,0,0,0
2026-07-07T02:45:37.259129+00:00,0.9799191951751709,E19_mode_command,LAND_warmup,0,37.5665,126.978,20.0,0.0,,,,,,,3,12,37.5665,126.978,20.0,,,,0.0,0.0,FENCE_STATUS,GPS 1: detected MAV,STABILIZE,0,0,0,0
2026-07-07T02:45:37.457019+00:00,1.1778326034545898,E19_mode_command,LAND_warmup,0,37.5665,126.978,20.0,0.0,,,,,,,3,12,37.5665,126.978,20.0,,,,0.0,0.0,HEARTBEAT,GPS 1: detected MAV,STABILIZE,0,0,0,0
2026-07-07T02:45:37.457163+00:00,1.1779565811157227,E19_mode_command,LAND_warmup,0,37.5665,126.978,20.0,0.0,37.5665,126.978,20.0,0.0,0.0,0,3,12,37.5665,126.978,20.0,0.0,0.0,-0.03,0.0,0.0,GLOBAL_POSITION_INT,GPS 1: detected MAV,STABILIZE,0,0,0,0
2026-07-07T02:45:37.457279+00:00,1.178069829940796,E19_mode_command,LAND_warmup,0,37.5665,126.978,20.0,0.0,,,,,,,3,12,37.5665,126.978,20.0,,,,0.0,0.0,MISSION_CURRENT,GPS 1: detected MAV,STABILIZE,0,0,0,0
2026-07-07T02:45:37.457539+00:00,1.1783359050750732,E19_mode_command,LAND_warmup,0,37.5665,126.978,20.0,0.0,,,,,,,3,12,37.5665,126.978,20.0,,,,0.0,0.0,GPS_RAW_INT,GPS 1: detected MAV,STABILIZE,0,0,0,0
2026-07-07T02:45:37.457586+00:00,1.1783759593963623,E19_mode_command,LAND_warmup,0,37.5665,126.978,20.0,0.0,,,,,,,3,12,37.5665,126.978,20.0,,,,0.0,0.0,FENCE_STATUS,GPS 1: detected MAV,STABILIZE,0,0,0,0
2026-07-07T02:45:37.661021+00:00,1.3818333148956299,E19_mode_command,LAND_warmup,0,37.5665,126.978,20.0,0.0,,,,,,,3,12,37.5665,126.978,20.0,,,,0.0,0.0,HEARTBEAT,GPS 1: detected MAV,STABILIZE,0,0,0,0
2026-07-07T02:45:37.661162+00:00,1.3819561004638672,E19_mode_command,LAND_warmup,0,37.5665,126.978,20.0,0.0,37.5665,126.978,20.0,0.0,0.0,0,3,12,37.5665,126.978,20.0,0.0,0.0,-0.04,0.0,0.0,GLOBAL_POSITION_INT,GPS 1: detected MAV,STABILIZE,0,0,0,0
2026-07-07T02:45:37.661284+00:00,1.3820772171020508,E19_mode_command,LAND_warmup,0,37.5665,126.978,20.0,0.0,,,,,,,3,12,37.5665,126.978,20.0,,,,0.0,0.0,MISSION_CURRENT,GPS 1: detected MAV,STABILIZE,0,0,0,0
2026-07-07T02:45:37.661534+00:00,1.3823304176330566,E19_mode_command,LAND_warmup,0,37.5665,126.978,20.0,0.0,,,,,,,3,12,37.5665,126.978,20.0,,,,0.0,0.0,GPS_RAW_INT,GPS 1: detected MAV,STABILIZE,0,0,0,0
2026-07-07T02:45:37.661579+00:00,1.3823699951171875,E19_mode_command,LAND_warmup,0,37.5665,126.978,20.0,0.0,,,,,,,3,12,37.5665,126.978,20.0,,,,0.0,0.0,FENCE_STATUS,GPS 1: detected MAV,STABILIZE,0,0,0,0
2026-07-07T02:45:37.859252+00:00,1.5800650119781494,E19_mode_command,LAND_warmup,0,37.5665,126.978,20.0,0.0,,,,,,,3,12,37.5665,126.978,20.0,,,,0.0,0.0,HEARTBEAT,GPS 1: detected MAV,STABILIZE,0,0,0,0
2026-07-07T02:45:37.859401+00:00,1.5801987648010254,E19_mode_command,LAND_warmup,0,37.5665,126.978,20.0,0.0,37.5665,126.978,20.0,0.0,0.0,0,3,12,37.5665,126.978,20.0,0.0,0.0,-0.04,0.0,0.0,GLOBAL_POSITION_INT,GPS 1: detected MAV,STABILIZE,0,0,0,0
2026-07-07T02:45:37.859623+00:00,1.5804226398468018,E19_mode_command,LAND_warmup,0,37.5665,126.978,20.0,0.0,,,,,,,3,12,37.5665,126.978,20.0,,,,0.0,0.0,MISSION_CURRENT,GPS 1: detected MAV,STABILIZE,0,0,0,0
2026-07-07T02:45:37.859888+00:00,1.5806844234466553,E19_mode_command,LAND_warmup,0,37.5665,126.978,20.0,0.0,,,,,,,3,12,37.5665,126.978,20.0,,,,0.0,0.0,GPS_RAW_INT,GPS 1: detected MAV,STABILIZE,0,0,0,0
2026-07-07T02:45:37.859974+00:00,1.5807693004608154,E19_mode_command,LAND_warmup,0,37.5665,126.978,20.0,0.0,,,,,,,3,12,37.5665,126.978,20.0,,,,0.0,0.0,FENCE_STATUS,GPS 1: detected MAV,STABILIZE,0,0,0,0
2026-07-07T02:45:38.063469+00:00,1.7843170166015625,E19_mode_command,LAND_warmup,0,37.5665,126.978,20.0,0.0,,,,,,,3,12,37.5665,126.978,20.0,,,,0.0,0.0,HEARTBEAT,GPS 1: detected MAV,STABILIZE,0,0,0,0
2026-07-07T02:45:38.063684+00:00,1.7844820022583008,E19_mode_command,LAND_warmup,0,37.5665,126.978,20.0,0.0,37.5665,126.978,20.0,0.0,0.0,0,3,12,37.5665,126.978,20.0,0.0,0.0,-0.04,0.0,0.0,GLOBAL_POSITION_INT,GPS 1: detected MAV,STABILIZE,0,0,0,0
2026-07-07T02:45:38.063810+00:00,1.7846028804779053,E19_mode_command,LAND_warmup,0,37.5665,126.978,20.0,0.0,,,,,,,3,12,37.5665,126.978,20.0,,,,0.0,0.0,MISSION_CURRENT,GPS 1: detected MAV,STABILIZE,0,0,0,0
2026-07-07T02:45:38.064014+00:00,1.7848076820373535,E19_mode_command,LAND_warmup,0,37.5665,126.978,20.0,0.0,,,,,,,3,12,37.5665,126.978,20.0,,,,0.0,0.0,GPS_RAW_INT,GPS 1: detected MAV,STABILIZE,0,0,0,0
2026-07-07T02:45:38.064053+00:00,1.7848434448242188,E19_mode_command,LAND_warmup,0,37.5665,126.978,20.0,0.0,,,,,,,3,12,37.5665,126.978,20.0,,,,0.0,0.0,FENCE_STATUS,GPS 1: detected MAV,STABILIZE,0,0,0,0
2026-07-07T02:45:38.261655+00:00,1.982468605041504,E19_mode_command,LAND_warmup,0,37.5665,126.978,20.0,0.0,,,,,,,3,12,37.5665,126.978,20.0,,,,0.0,0.0,HEARTBEAT,GPS 1: detected MAV,STABILIZE,0,0,0,0
2026-07-07T02:45:38.261804+00:00,1.9825990200042725,E19_mode_command,LAND_warmup,0,37.5665,126.978,20.0,0.0,37.5665,126.978,20.0,0.0,0.0,0,3,12,37.5665,126.978,20.0,0.0,0.0,-0.04,0.0,0.0,GLOBAL_POSITION_INT,GPS 1: detected MAV,STABILIZE,0,0,0,0
2026-07-07T02:45:38.261926+00:00,1.9827172756195068,E19_mode_command,LAND_warmup,0,37.5665,126.978,20.0,0.0,,,,,,,3,12,37.5665,126.978,20.0,,,,0.0,0.0,MISSION_CURRENT,GPS 1: detected MAV,STABILIZE,0,0,0,0
2026-07-07T02:45:38.262121+00:00,1.9829127788543701,E19_mode_command,LAND_warmup,0,37.5665,126.978,20.0,0.0,,,,,,,3,12,37.5665,126.978,20.0,,,,0.0,0.0,GPS_RAW_INT,GPS 1: detected MAV,STABILIZE,0,0,0,0
2026-07-07T02:45:38.262159+00:00,1.9829485416412354,E19_mode_command,LAND_warmup,0,37.5665,126.978,20.0,0.0,,,,,,,3,12,37.5665,126.978,20.0,,,,0.0,0.0,FENCE_STATUS,GPS 1: detected MAV,STABILIZE,0,0,0,0
2026-07-07T02:45:38.460088+00:00,2.1809048652648926,E19_mode_command,LAND_warmup,0,37.5665,126.978,20.0,0.0,,,,,,,3,12,37.5665,126.978,20.0,,,,0.0,0.0,HEARTBEAT,GPS 1: detected MAV,STABILIZE,0,0,0,0
2026-07-07T02:45:38.460302+00:00,2.181102752685547,E19_mode_command,LAND_warmup,0,37.5665,126.978,20.0,0.0,37.5665,126.978,20.0,0.0,0.0,0,3,12,37.5665,126.978,20.0,0.0,0.0,-0.04,0.0,0.0,GLOBAL_POSITION_INT,GPS 1: detected MAV,STABILIZE,0,0,0,0
2026-07-07T02:45:38.460514+00:00,2.181312322616577,E19_mode_command,LAND_warmup,0,37.5665,126.978,20.0,0.0,,,,,,,3,12,37.5665,126.978,20.0,,,,0.0,0.0,MISSION_CURRENT,GPS 1: detected MAV,STABILIZE,0,0,0,0
2026-07-07T02:45:38.460782+00:00,2.1815788745880127,E19_mode_command,LAND_warmup,0,37.5665,126.978,20.0,0.0,,,,,,,3,12,37.5665,126.978,20.0,,,,0.0,0.0,GPS_RAW_INT,GPS 1: detected MAV,STABILIZE,0,0,0,0
2026-07-07T02:45:38.460848+00:00,2.1816422939300537,E19_mode_command,LAND_warmup,0,37.5665,126.978,20.0,0.0,,,,,,,3,12,37.5665,126.978,20.0,,,,0.0,0.0,FENCE_STATUS,GPS 1: detected MAV,STABILIZE,0,0,0,0
2026-07-07T02:45:49.065247+00:00,12.7860586643219,E19_mode_command,LAND_command,0,,,,,,,,,,,3,12,37.5665,126.978,20.0,,,,,,HEARTBEAT,GPS 1: detected MAV,LAND,0,0,0,0
2026-07-07T02:45:49.065426+00:00,12.786226034164429,E19_mode_command,LAND_command,0,,,,,0.0,0.0,0.0,13173877.35106569,,,3,12,37.5665,126.978,20.0,0.0,0.0,0.0,,,GLOBAL_POSITION_INT,GPS 1: detected MAV,LAND,0,0,0,0
2026-07-07T02:45:49.065609+00:00,12.786408424377441,E19_mode_command,LAND_command,0,,,,,,,,,,,3,12,37.5665,126.978,20.0,,,,,,MISSION_CURRENT,GPS 1: detected MAV,LAND,0,0,0,0
2026-07-07T02:45:49.065998+00:00,12.786795377731323,E19_mode_command,LAND_command,0,,,,,,,,,,,1,0,0.0,0.0,0.0,,,,,,GPS_RAW_INT,GPS 1: detected MAV,LAND,0,0,0,0
2026-07-07T02:45:49.066065+00:00,12.786859512329102,E19_mode_command,LAND_command,0,,,,,,,,,,,1,0,0.0,0.0,0.0,,,,,,FENCE_STATUS,GPS 1: detected MAV,LAND,0,0,0,0
2026-07-07T02:45:49.259680+00:00,12.980491876602173,E19_mode_command,LAND_command,0,,,,,,,,,,,1,0,0.0,0.0,0.0,,,,,,HEARTBEAT,GPS 1: detected MAV,LAND,0,0,0,0
2026-07-07T02:45:49.259817+00:00,12.980610370635986,E19_mode_command,LAND_command,0,,,,,0.0,0.0,0.0,13173877.35106569,,,1,0,0.0,0.0,0.0,0.0,0.0,0.0,,,GLOBAL_POSITION_INT,GPS 1: detected MAV,LAND,0,0,0,0
2026-07-07T02:45:49.259934+00:00,12.980725765228271,E19_mode_command,LAND_command,0,,,,,,,,,,,1,0,0.0,0.0,0.0,,,,,,MISSION_CURRENT,GPS 1: detected MAV,LAND,0,0,0,0
2026-07-07T02:45:49.260129+00:00,12.980921268463135,E19_mode_command,LAND_command,0,,,,,,,,,,,1,0,0.0,0.0,0.0,,,,,,GPS_RAW_INT,GPS 1: detected MAV,LAND,0,0,0,0
2026-07-07T02:45:49.260167+00:00,12.980957508087158,E19_mode_command,LAND_command,0,,,,,,,,,,,1,0,0.0,0.0,0.0,,,,,,FENCE_STATUS,GPS 1: detected MAV,LAND,0,0,0,0
2026-07-07T02:45:49.463471+00:00,13.184329271316528,E19_mode_command,LAND_command,0,,,,,,,,,,,1,0,0.0,0.0,0.0,,,,,,HEARTBEAT,GPS 1: detected MAV,LAND,0,0,0,0
2026-07-07T02:45:49.463671+00:00,13.184464931488037,E19_mode_command,LAND_command,0,,,,,0.0,0.0,0.0,13173877.35106569,,,1,0,0.0,0.0,0.0,0.0,0.0,0.0,,,GLOBAL_POSITION_INT,GPS 1: detected MAV,LAND,0,0,0,0
2026-07-07T02:45:49.463782+00:00,13.184572696685791,E19_mode_command,LAND_command,0,,,,,,,,,,,1,0,0.0,0.0,0.0,,,,,,MISSION_CURRENT,GPS 1: detected MAV,LAND,0,0,0,0
2026-07-07T02:45:49.463966+00:00,13.184759855270386,E19_mode_command,LAND_command,0,,,,,,,,,,,1,0,0.0,0.0,0.0,,,,,,GPS_RAW_INT,GPS 1: detected MAV,LAND,0,0,0,0
2026-07-07T02:45:49.464004+00:00,13.184794664382935,E19_mode_command,LAND_command,0,,,,,,,,,,,1,0,0.0,0.0,0.0,,,,,,FENCE_STATUS,GPS 1: detected MAV,LAND,0,0,0,0
2026-07-07T02:45:49.661938+00:00,13.38275146484375,E19_mode_command,LAND_command,0,,,,,,,,,,,1,0,0.0,0.0,0.0,,,,,,HEARTBEAT,GPS 1: detected MAV,LAND,0,0,0,0
2026-07-07T02:45:49.662078+00:00,13.382871389389038,E19_mode_command,LAND_command,0,,,,,0.0,0.0,0.0,13173877.35106569,,,1,0,0.0,0.0,0.0,0.0,0.0,0.0,,,GLOBAL_POSITION_INT,GPS 1: detected MAV,LAND,0,0,0,0
2026-07-07T02:45:49.662266+00:00,13.383063316345215,E19_mode_command,LAND_command,0,,,,,,,,,,,1,0,0.0,0.0,0.0,,,,,,MISSION_CURRENT,GPS 1: detected MAV,LAND,0,0,0,0
2026-07-07T02:45:49.662470+00:00,13.383261919021606,E19_mode_command,LAND_command,0,,,,,,,,,,,1,0,0.0,0.0,0.0,,,,,,GPS_RAW_INT,GPS 1: detected MAV,LAND,0,0,0,0
2026-07-07T02:45:49.662509+00:00,13.383299350738525,E19_mode_command,LAND_command,0,,,,,,,,,,,1,0,0.0,0.0,0.0,,,,,,FENCE_STATUS,GPS 1: detected MAV,LAND,0,0,0,0
2026-07-07T02:45:49.860360+00:00,13.581174850463867,E19_mode_command,LAND_command,0,,,,,,,,,,,1,0,0.0,0.0,0.0,,,,,,HEARTBEAT,GPS 1: detected MAV,LAND,0,0,0,0
2026-07-07T02:45:49.860494+00:00,13.581286430358887,E19_mode_command,LAND_command,0,,,,,0.0,0.0,0.0,13173877.35106569,,,1,0,0.0,0.0,0.0,0.0,0.0,0.0,,,GLOBAL_POSITION_INT,GPS 1: detected MAV,LAND,0,0,0,0
2026-07-07T02:45:49.860644+00:00,13.581440210342407,E19_mode_command,LAND_command,0,,,,,,,,,,,1,0,0.0,0.0,0.0,,,,,,MISSION_CURRENT,GPS 1: detected MAV,LAND,0,0,0,0
2026-07-07T02:45:49.860830+00:00,13.581621408462524,E19_mode_command,LAND_command,0,,,,,,,,,,,1,0,0.0,0.0,0.0,,,,,,GPS_RAW_INT,GPS 1: detected MAV,LAND,0,0,0,0
2026-07-07T02:45:49.860864+00:00,13.58165454864502,E19_mode_command,LAND_command,0,,,,,,,,,,,1,0,0.0,0.0,0.0,,,,,,FENCE_STATUS,GPS 1: detected MAV,LAND,0,0,0,0
2026-07-07T02:45:50.058675+00:00,13.779489040374756,E19_mode_command,LAND_command,0,,,,,,,,,,,1,0,0.0,0.0,0.0,,,,,,HEARTBEAT,GPS 1: detected MAV,LAND,0,0,0,0
2026-07-07T02:45:50.058815+00:00,13.779608011245728,E19_mode_command,LAND_command,0,,,,,0.0,0.0,0.0,13173877.35106569,,,1,0,0.0,0.0,0.0,0.0,0.0,0.0,,,GLOBAL_POSITION_INT,GPS 1: detected MAV,LAND,0,0,0,0
2026-07-07T02:45:50.058928+00:00,13.779718399047852,E19_mode_command,LAND_command,0,,,,,,,,,,,1,0,0.0,0.0,0.0,,,,,,MISSION_CURRENT,GPS 1: detected MAV,LAND,0,0,0,0
2026-07-07T02:45:50.059115+00:00,13.779908180236816,E19_mode_command,LAND_command,0,,,,,,,,,,,1,0,0.0,0.0,0.0,,,,,,GPS_RAW_INT,GPS 1: detected MAV,LAND,0,0,0,0
2026-07-07T02:45:50.059155+00:00,13.779945373535156,E19_mode_command,LAND_command,0,,,,,,,,,,,1,0,0.0,0.0,0.0,,,,,,FENCE_STATUS,GPS 1: detected MAV,LAND,0,0,0,0
2026-07-07T02:45:50.262641+00:00,13.983452320098877,E19_mode_command,LAND_command,0,,,,,,,,,,,1,0,0.0,0.0,0.0,,,,,,HEARTBEAT,GPS 1: detected MAV,LAND,0,0,0,0
2026-07-07T02:45:50.262781+00:00,13.983574628829956,E19_mode_command,LAND_command,0,,,,,0.0,0.0,0.0,13173877.35106569,,,1,0,0.0,0.0,0.0,0.0,0.0,0.0,,,GLOBAL_POSITION_INT,GPS 1: detected MAV,LAND,0,0,0,0
2026-07-07T02:45:50.262901+00:00,13.983691930770874,E19_mode_command,LAND_command,0,,,,,,,,,,,1,0,0.0,0.0,0.0,,,,,,MISSION_CURRENT,GPS 1: detected MAV,LAND,0,0,0,0
2026-07-07T02:45:50.263104+00:00,13.98389720916748,E19_mode_command,LAND_command,0,,,,,,,,,,,1,0,0.0,0.0,0.0,,,,,,GPS_RAW_INT,GPS 1: detected MAV,LAND,0,0,0,0
2026-07-07T02:45:50.263143+00:00,13.983933448791504,E19_mode_command,LAND_command,0,,,,,,,,,,,1,0,0.0,0.0,0.0,,,,,,FENCE_STATUS,GPS 1: detected MAV,LAND,0,0,0,0
2026-07-07T02:45:50.460870+00:00,14.181682348251343,E19_mode_command,LAND_command,0,,,,,,,,,,,1,0,0.0,0.0,0.0,,,,,,HEARTBEAT,GPS 1: detected MAV,LAND,0,0,0,0
2026-07-07T02:45:50.461042+00:00,14.181840419769287,E19_mode_command,LAND_command,0,,,,,0.0,0.0,0.0,13173877.35106569,,,1,0,0.0,0.0,0.0,0.0,0.01,0.0,,,GLOBAL_POSITION_INT,GPS 1: detected MAV,LAND,0,0,0,0
2026-07-07T02:45:50.461170+00:00,14.181962013244629,E19_mode_command,LAND_command,0,,,,,,,,,,,1,0,0.0,0.0,0.0,,,,,,MISSION_CURRENT,GPS 1: detected MAV,LAND,0,0,0,0
2026-07-07T02:45:50.461367+00:00,14.182158470153809,E19_mode_command,LAND_command,0,,,,,,,,,,,1,0,0.0,0.0,0.0,,,,,,GPS_RAW_INT,GPS 1: detected MAV,LAND,0,0,0,0
2026-07-07T02:45:50.461405+00:00,14.182194948196411,E19_mode_command,LAND_command,0,,,,,,,,,,,1,0,0.0,0.0,0.0,,,,,,FENCE_STATUS,GPS 1: detected MAV,LAND,0,0,0,0
2026-07-07T02:45:50.665058+00:00,14.385873079299927,E19_mode_command,LAND_command,0,,,,,,,,,,,1,0,0.0,0.0,0.0,,,,,,HEARTBEAT,GPS 1: detected MAV,LAND,0,0,0,0
2026-07-07T02:45:50.665226+00:00,14.386019229888916,E19_mode_command,LAND_command,0,,,,,0.0,0.0,0.0,13173877.35106569,,,1,0,0.0,0.0,0.0,-0.01,0.01,0.0,,,GLOBAL_POSITION_INT,GPS 1: detected MAV,LAND,0,0,0,0
2026-07-07T02:45:50.665351+00:00,14.38614273071289,E19_mode_command,LAND_command,0,,,,,,,,,,,1,0,0.0,0.0,0.0,,,,,,MISSION_CURRENT,GPS 1: detected MAV,LAND,0,0,0,0
2026-07-07T02:45:50.665632+00:00,14.386430025100708,E19_mode_command,LAND_command,0,,,,,,,,,,,1,0,0.0,0.0,0.0,,,,,,GPS_RAW_INT,GPS 1: detected MAV,LAND,0,0,0,0
2026-07-07T02:45:50.665685+00:00,14.386475324630737,E19_mode_command,LAND_command,0,,,,,,,,,,,1,0,0.0,0.0,0.0,,,,,,FENCE_STATUS,GPS 1: detected MAV,LAND,0,0,0,0
2026-07-07T02:45:50.863353+00:00,14.584167242050171,E19_mode_command,LAND_command,0,,,,,,,,,,,1,0,0.0,0.0,0.0,,,,,,HEARTBEAT,GPS 1: detected MAV,LAND,0,0,0,0
2026-07-07T02:45:50.863582+00:00,14.58438229560852,E19_mode_command,LAND_command,0,,,,,0.0,0.0,0.0,13173877.35106569,,,1,0,0.0,0.0,0.0,-0.01,0.01,0.0,,,GLOBAL_POSITION_INT,GPS 1: detected MAV,LAND,0,0,0,0
2026-07-07T02:45:50.863722+00:00,14.58451533317566,E19_mode_command,LAND_command,0,,,,,,,,,,,1,0,0.0,0.0,0.0,,,,,,MISSION_CURRENT,GPS 1: detected MAV,LAND,0,0,0,0
2026-07-07T02:45:50.863919+00:00,14.584711074829102,E19_mode_command,LAND_command,0,,,,,,,,,,,1,0,0.0,0.0,0.0,,,,,,GPS_RAW_INT,GPS 1: detected MAV,LAND,0,0,0,0
2026-07-07T02:45:50.863958+00:00,14.584748029708862,E19_mode_command,LAND_command,0,,,,,,,,,,,1,0,0.0,0.0,0.0,,,,,,FENCE_STATUS,GPS 1: detected MAV,LAND,0,0,0,0
2026-07-07T02:45:51.061729+00:00,14.782541275024414,E19_mode_command,LAND_command,0,,,,,,,,,,,1,0,0.0,0.0,0.0,,,,,,HEARTBEAT,GPS 1: detected MAV,LAND,0,0,0,0
2026-07-07T02:45:51.061869+00:00,14.78266191482544,E19_mode_command,LAND_command,0,,,,,0.0,0.0,0.0,13173877.35106569,,,1,0,0.0,0.0,0.0,-0.01,0.01,0.0,,,GLOBAL_POSITION_INT,GPS 1: detected MAV,LAND,0,0,0,0
2026-07-07T02:45:51.062012+00:00,14.782807350158691,E19_mode_command,LAND_command,0,,,,,,,,,,,1,0,0.0,0.0,0.0,,,,,,MISSION_CURRENT,GPS 1: detected MAV,LAND,0,0,0,0
2026-07-07T02:45:51.062218+00:00,14.783009767532349,E19_mode_command,LAND_command,0,,,,,,,,,,,1,0,0.0,0.0,0.0,,,,,,GPS_RAW_INT,GPS 1: detected MAV,LAND,0,0,0,0
2026-07-07T02:45:51.062258+00:00,14.783048391342163,E19_mode_command,LAND_command,0,,,,,,,,,,,1,0,0.0,0.0,0.0,,,,,,FENCE_STATUS,GPS 1: detected MAV,LAND,0,0,0,0
2026-07-07T02:45:51.265500+00:00,14.986315488815308,E19_mode_command,LAND_command,0,,,,,,,,,,,1,0,0.0,0.0,0.0,,,,,,HEARTBEAT,GPS 1: detected MAV,LAND,0,0,0,0
2026-07-07T02:45:51.265675+00:00,14.98647141456604,E19_mode_command,LAND_command,0,,,,,0.0,0.0,0.0,13173877.35106569,,,1,0,0.0,0.0,0.0,-0.01,0.01,0.0,,,GLOBAL_POSITION_INT,GPS 1: detected MAV,LAND,0,0,0,0
2026-07-07T02:45:51.265794+00:00,14.986585140228271,E19_mode_command,LAND_command,0,,,,,,,,,,,1,0,0.0,0.0,0.0,,,,,,MISSION_CURRENT,GPS 1: detected MAV,LAND,0,0,0,0
2026-07-07T02:45:51.266000+00:00,14.986791849136353,E19_mode_command,LAND_command,0,,,,,,,,,,,1,0,0.0,0.0,0.0,,,,,,GPS_RAW_INT,GPS 1: detected MAV,LAND,0,0,0,0
2026-07-07T02:45:51.266039+00:00,14.986829280853271,E19_mode_command,LAND_command,0,,,,,,,,,,,1,0,0.0,0.0,0.0,,,,,,FENCE_STATUS,GPS 1: detected MAV,LAND,0,0,0,0
2026-07-07T02:45:51.463795+00:00,15.184607744216919,E19_mode_command,LAND_command,0,,,,,,,,,,,1,0,0.0,0.0,0.0,,,,,,HEARTBEAT,GPS 1: detected MAV,LAND,0,0,0,0
2026-07-07T02:45:51.463933+00:00,15.184726238250732,E19_mode_command,LAND_command,0,,,,,0.0,0.0,0.0,13173877.35106569,,,1,0,0.0,0.0,0.0,-0.01,0.01,0.0,,,GLOBAL_POSITION_INT,GPS 1: detected MAV,LAND,0,0,0,0
2026-07-07T02:45:51.464048+00:00,15.184839248657227,E19_mode_command,LAND_command,0,,,,,,,,,,,1,0,0.0,0.0,0.0,,,,,,MISSION_CURRENT,GPS 1: detected MAV,LAND,0,0,0,0
2026-07-07T02:45:51.464242+00:00,15.185035228729248,E19_mode_command,LAND_command,0,,,,,,,,,,,1,0,0.0,0.0,0.0,,,,,,GPS_RAW_INT,GPS 1: detected MAV,LAND,0,0,0,0
2026-07-07T02:45:51.464281+00:00,15.185070753097534,E19_mode_command,LAND_command,0,,,,,,,,,,,1,0,0.0,0.0,0.0,,,,,,FENCE_STATUS,GPS 1: detected MAV,LAND,0,0,0,0
2026-07-07T02:45:51.662226+00:00,15.383040189743042,E19_mode_command,LAND_command,0,,,,,,,,,,,1,0,0.0,0.0,0.0,,,,,,HEARTBEAT,GPS 1: detected MAV,LAND,0,0,0,0
2026-07-07T02:45:51.662374+00:00,15.383168697357178,E19_mode_command,LAND_command,0,,,,,0.0,0.0,0.0,13173877.35106569,,,1,0,0.0,0.0,0.0,-0.01,0.01,0.0,,,GLOBAL_POSITION_INT,GPS 1: detected MAV,LAND,0,0,0,0
2026-07-07T02:45:51.662491+00:00,15.383283615112305,E19_mode_command,LAND_command,0,,,,,,,,,,,1,0,0.0,0.0,0.0,,,,,,MISSION_CURRENT,GPS 1: detected MAV,LAND,0,0,0,0
2026-07-07T02:45:51.662718+00:00,15.383514404296875,E19_mode_command,LAND_command,0,,,,,,,,,,,1,0,0.0,0.0,0.0,,,,,,GPS_RAW_INT,GPS 1: detected MAV,LAND,0,0,0,0
2026-07-07T02:45:51.662786+00:00,15.3835768699646,E19_mode_command,LAND_command,0,,,,,,,,,,,1,0,0.0,0.0,0.0,,,,,,FENCE_STATUS,GPS 1: detected MAV,LAND,0,0,0,0
2026-07-07T02:45:51.860537+00:00,15.581350088119507,E19_mode_command,LAND_command,0,,,,,,,,,,,1,0,0.0,0.0,0.0,,,,,,HEARTBEAT,GPS 1: detected MAV,LAND,0,0,0,0
2026-07-07T02:45:51.860681+00:00,15.581475496292114,E19_mode_command,LAND_command,0,,,,,0.0,0.0,0.0,13173877.35106569,,,1,0,0.0,0.0,0.0,-0.01,0.01,0.0,,,GLOBAL_POSITION_INT,GPS 1: detected MAV,LAND,0,0,0,0
2026-07-07T02:45:51.860802+00:00,15.58159351348877,E19_mode_command,LAND_command,0,,,,,,,,,,,1,0,0.0,0.0,0.0,,,,,,MISSION_CURRENT,GPS 1: detected MAV,LAND,0,0,0,0
2026-07-07T02:45:51.860997+00:00,15.581788778305054,E19_mode_command,LAND_command,0,,,,,,,,,,,1,0,0.0,0.0,0.0,,,,,,GPS_RAW_INT,GPS 1: detected MAV,LAND,0,0,0,0
2026-07-07T02:45:51.861034+00:00,15.581823825836182,E19_mode_command,LAND_command,0,,,,,,,,,,,1,0,0.0,0.0,0.0,,,,,,FENCE_STATUS,GPS 1: detected MAV,LAND,0,0,0,0
2026-07-07T02:46:08.207513+00:00,0.01139688491821289,E19_mode_command,BRAKE_warmup,0,37.5665,126.978,20.0,0.0,,,,,,,,,,,,,,,0.0,0.0,STATUSTEXT,GPS 1: detected MAV,,,,,
2026-07-07T02:46:08.376639+00:00,0.18048357963562012,E19_mode_command,BRAKE_warmup,0,37.5665,126.978,20.0,0.0,,,,,,,,,,,,,,,0.0,0.0,HEARTBEAT,GPS 1: detected MAV,STABILIZE,,,,
2026-07-07T02:46:08.376773+00:00,0.18059730529785156,E19_mode_command,BRAKE_warmup,0,37.5665,126.978,20.0,0.0,37.5665,126.978,20.0,0.0,0.0,0,,,,,,0.0,0.0,-0.02,0.0,0.0,GLOBAL_POSITION_INT,GPS 1: detected MAV,STABILIZE,,,,
2026-07-07T02:46:08.376884+00:00,0.18070697784423828,E19_mode_command,BRAKE_warmup,0,37.5665,126.978,20.0,0.0,,,,,,,,,,,,,,,0.0,0.0,MISSION_CURRENT,GPS 1: detected MAV,STABILIZE,0,,,
2026-07-07T02:46:08.377066+00:00,0.18088889122009277,E19_mode_command,BRAKE_warmup,0,37.5665,126.978,20.0,0.0,,,,,,,3,12,37.5665,126.978,20.0,,,,0.0,0.0,GPS_RAW_INT,GPS 1: detected MAV,STABILIZE,0,,,
2026-07-07T02:46:08.377101+00:00,0.1809234619140625,E19_mode_command,BRAKE_warmup,0,37.5665,126.978,20.0,0.0,,,,,,,3,12,37.5665,126.978,20.0,,,,0.0,0.0,FENCE_STATUS,GPS 1: detected MAV,STABILIZE,0,0,0,0
2026-07-07T02:46:08.574951+00:00,0.3787963390350342,E19_mode_command,BRAKE_warmup,0,37.5665,126.978,20.0,0.0,,,,,,,3,12,37.5665,126.978,20.0,,,,0.0,0.0,HEARTBEAT,GPS 1: detected MAV,STABILIZE,0,0,0,0
2026-07-07T02:46:08.575112+00:00,0.37894225120544434,E19_mode_command,BRAKE_warmup,0,37.5665,126.978,20.0,0.0,37.5665,126.978,20.0,0.0,0.0,0,3,12,37.5665,126.978,20.0,0.0,0.0,-0.02,0.0,0.0,GLOBAL_POSITION_INT,GPS 1: detected MAV,STABILIZE,0,0,0,0
2026-07-07T02:46:08.575246+00:00,0.3790731430053711,E19_mode_command,BRAKE_warmup,0,37.5665,126.978,20.0,0.0,,,,,,,3,12,37.5665,126.978,20.0,,,,0.0,0.0,MISSION_CURRENT,GPS 1: detected MAV,STABILIZE,0,0,0,0
2026-07-07T02:46:08.575484+00:00,0.3793363571166992,E19_mode_command,BRAKE_warmup,0,37.5665,126.978,20.0,0.0,,,,,,,3,12,37.5665,126.978,20.0,,,,0.0,0.0,GPS_RAW_INT,GPS 1: detected MAV,STABILIZE,0,0,0,0
2026-07-07T02:46:08.575557+00:00,0.3793799877166748,E19_mode_command,BRAKE_warmup,0,37.5665,126.978,20.0,0.0,,,,,,,3,12,37.5665,126.978,20.0,,,,0.0,0.0,FENCE_STATUS,GPS 1: detected MAV,STABILIZE,0,0,0,0
2026-07-07T02:46:08.773245+00:00,0.5770909786224365,E19_mode_command,BRAKE_warmup,0,37.5665,126.978,20.0,0.0,,,,,,,3,12,37.5665,126.978,20.0,,,,0.0,0.0,HEARTBEAT,GPS 1: detected MAV,STABILIZE,0,0,0,0
2026-07-07T02:46:08.773516+00:00,0.5773463249206543,E19_mode_command,BRAKE_warmup,0,37.5665,126.978,20.0,0.0,37.5665,126.978,20.0,0.0,0.0,0,3,12,37.5665,126.978,20.0,0.0,0.0,-0.03,0.0,0.0,GLOBAL_POSITION_INT,GPS 1: detected MAV,STABILIZE,0,0,0,0
2026-07-07T02:46:08.773639+00:00,0.5774631500244141,E19_mode_command,BRAKE_warmup,0,37.5665,126.978,20.0,0.0,,,,,,,3,12,37.5665,126.978,20.0,,,,0.0,0.0,MISSION_CURRENT,GPS 1: detected MAV,STABILIZE,0,0,0,0
2026-07-07T02:46:08.773858+00:00,0.577686071395874,E19_mode_command,BRAKE_warmup,0,37.5665,126.978,20.0,0.0,,,,,,,3,12,37.5665,126.978,20.0,,,,0.0,0.0,GPS_RAW_INT,GPS 1: detected MAV,STABILIZE,0,0,0,0
2026-07-07T02:46:08.773911+00:00,0.5777337551116943,E19_mode_command,BRAKE_warmup,0,37.5665,126.978,20.0,0.0,,,,,,,3,12,37.5665,126.978,20.0,,,,0.0,0.0,FENCE_STATUS,GPS 1: detected MAV,STABILIZE,0,0,0,0
2026-07-07T02:46:08.971595+00:00,0.7754411697387695,E19_mode_command,BRAKE_warmup,0,37.5665,126.978,20.0,0.0,,,,,,,3,12,37.5665,126.978,20.0,,,,0.0,0.0,HEARTBEAT,GPS 1: detected MAV,STABILIZE,0,0,0,0
2026-07-07T02:46:08.971768+00:00,0.7755968570709229,E19_mode_command,BRAKE_warmup,0,37.5665,126.978,20.0,0.0,37.5665,126.978,20.0,0.0,0.0,0,3,12,37.5665,126.978,20.0,0.0,0.0,-0.03,0.0,0.0,GLOBAL_POSITION_INT,GPS 1: detected MAV,STABILIZE,0,0,0,0
2026-07-07T02:46:08.971918+00:00,0.7757472991943359,E19_mode_command,BRAKE_warmup,0,37.5665,126.978,20.0,0.0,,,,,,,3,12,37.5665,126.978,20.0,,,,0.0,0.0,MISSION_CURRENT,GPS 1: detected MAV,STABILIZE,0,0,0,0
2026-07-07T02:46:08.972126+00:00,0.7759511470794678,E19_mode_command,BRAKE_warmup,0,37.5665,126.978,20.0,0.0,,,,,,,3,12,37.5665,126.978,20.0,,,,0.0,0.0,GPS_RAW_INT,GPS 1: detected MAV,STABILIZE,0,0,0,0
2026-07-07T02:46:08.972167+00:00,0.7759900093078613,E19_mode_command,BRAKE_warmup,0,37.5665,126.978,20.0,0.0,,,,,,,3,12,37.5665,126.978,20.0,,,,0.0,0.0,FENCE_STATUS,GPS 1: detected MAV,STABILIZE,0,0,0,0
2026-07-07T02:46:09.175584+00:00,0.9794306755065918,E19_mode_command,BRAKE_warmup,0,37.5665,126.978,20.0,0.0,,,,,,,3,12,37.5665,126.978,20.0,,,,0.0,0.0,HEARTBEAT,GPS 1: detected MAV,STABILIZE,0,0,0,0
2026-07-07T02:46:09.175747+00:00,0.9795739650726318,E19_mode_command,BRAKE_warmup,0,37.5665,126.978,20.0,0.0,37.5665,126.978,20.0,0.0,0.0,0,3,12,37.5665,126.978,20.0,0.0,0.0,-0.03,0.0,0.0,GLOBAL_POSITION_INT,GPS 1: detected MAV,STABILIZE,0,0,0,0
2026-07-07T02:46:09.175867+00:00,0.9796919822692871,E19_mode_command,BRAKE_warmup,0,37.5665,126.978,20.0,0.0,,,,,,,3,12,37.5665,126.978,20.0,,,,0.0,0.0,MISSION_CURRENT,GPS 1: detected MAV,STABILIZE,0,0,0,0
2026-07-07T02:46:09.176145+00:00,0.9799726009368896,E19_mode_command,BRAKE_warmup,0,37.5665,126.978,20.0,0.0,,,,,,,3,12,37.5665,126.978,20.0,,,,0.0,0.0,GPS_RAW_INT,GPS 1: detected MAV,STABILIZE,0,0,0,0
2026-07-07T02:46:09.176190+00:00,0.9800131320953369,E19_mode_command,BRAKE_warmup,0,37.5665,126.978,20.0,0.0,,,,,,,3,12,37.5665,126.978,20.0,,,,0.0,0.0,FENCE_STATUS,GPS 1: detected MAV,STABILIZE,0,0,0,0
2026-07-07T02:46:09.373803+00:00,1.177649736404419,E19_mode_command,BRAKE_warmup,0,37.5665,126.978,20.0,0.0,,,,,,,3,12,37.5665,126.978,20.0,,,,0.0,0.0,HEARTBEAT,GPS 1: detected MAV,STABILIZE,0,0,0,0
2026-07-07T02:46:09.373970+00:00,1.1777961254119873,E19_mode_command,BRAKE_warmup,0,37.5665,126.978,20.0,0.0,37.5665,126.978,20.0,0.0,0.0,0,3,12,37.5665,126.978,20.0,0.0,0.0,-0.03,0.0,0.0,GLOBAL_POSITION_INT,GPS 1: detected MAV,STABILIZE,0,0,0,0
2026-07-07T02:46:09.374119+00:00,1.1779491901397705,E19_mode_command,BRAKE_warmup,0,37.5665,126.978,20.0,0.0,,,,,,,3,12,37.5665,126.978,20.0,,,,0.0,0.0,MISSION_CURRENT,GPS 1: detected MAV,STABILIZE,0,0,0,0
2026-07-07T02:46:09.374373+00:00,1.178201675415039,E19_mode_command,BRAKE_warmup,0,37.5665,126.978,20.0,0.0,,,,,,,3,12,37.5665,126.978,20.0,,,,0.0,0.0,GPS_RAW_INT,GPS 1: detected MAV,STABILIZE,0,0,0,0
2026-07-07T02:46:09.374429+00:00,1.1782565116882324,E19_mode_command,BRAKE_warmup,0,37.5665,126.978,20.0,0.0,,,,,,,3,12,37.5665,126.978,20.0,,,,0.0,0.0,FENCE_STATUS,GPS 1: detected MAV,STABILIZE,0,0,0,0
2026-07-07T02:46:09.577801+00:00,1.381645679473877,E19_mode_command,BRAKE_warmup,0,37.5665,126.978,20.0,0.0,,,,,,,3,12,37.5665,126.978,20.0,,,,0.0,0.0,HEARTBEAT,GPS 1: detected MAV,STABILIZE,0,0,0,0
2026-07-07T02:46:09.577942+00:00,1.381767988204956,E19_mode_command,BRAKE_warmup,0,37.5665,126.978,20.0,0.0,37.5665,126.978,20.0,0.0,0.0,0,3,12,37.5665,126.978,20.0,0.0,0.0,-0.04,0.0,0.0,GLOBAL_POSITION_INT,GPS 1: detected MAV,STABILIZE,0,0,0,0
2026-07-07T02:46:09.578062+00:00,1.3818867206573486,E19_mode_command,BRAKE_warmup,0,37.5665,126.978,20.0,0.0,,,,,,,3,12,37.5665,126.978,20.0,,,,0.0,0.0,MISSION_CURRENT,GPS 1: detected MAV,STABILIZE,0,0,0,0
2026-07-07T02:46:09.578263+00:00,1.3820865154266357,E19_mode_command,BRAKE_warmup,0,37.5665,126.978,20.0,0.0,,,,,,,3,12,37.5665,126.978,20.0,,,,0.0,0.0,GPS_RAW_INT,GPS 1: detected MAV,STABILIZE,0,0,0,0
2026-07-07T02:46:09.578301+00:00,1.3821241855621338,E19_mode_command,BRAKE_warmup,0,37.5665,126.978,20.0,0.0,,,,,,,3,12,37.5665,126.978,20.0,,,,0.0,0.0,FENCE_STATUS,GPS 1: detected MAV,STABILIZE,0,0,0,0
2026-07-07T02:46:09.776316+00:00,1.5801637172698975,E19_mode_command,BRAKE_warmup,0,37.5665,126.978,20.0,0.0,,,,,,,3,12,37.5665,126.978,20.0,,,,0.0,0.0,HEARTBEAT,GPS 1: detected MAV,STABILIZE,0,0,0,0
2026-07-07T02:46:09.776535+00:00,1.5803697109222412,E19_mode_command,BRAKE_warmup,0,37.5665,126.978,20.0,0.0,37.5665,126.978,20.0,0.0,0.0,0,3,12,37.5665,126.978,20.0,0.0,0.0,-0.04,0.0,0.0,GLOBAL_POSITION_INT,GPS 1: detected MAV,STABILIZE,0,0,0,0
2026-07-07T02:46:09.776764+00:00,1.580596685409546,E19_mode_command,BRAKE_warmup,0,37.5665,126.978,20.0,0.0,,,,,,,3,12,37.5665,126.978,20.0,,,,0.0,0.0,MISSION_CURRENT,GPS 1: detected MAV,STABILIZE,0,0,0,0
2026-07-07T02:46:09.777036+00:00,1.5808658599853516,E19_mode_command,BRAKE_warmup,0,37.5665,126.978,20.0,0.0,,,,,,,3,12,37.5665,126.978,20.0,,,,0.0,0.0,GPS_RAW_INT,GPS 1: detected MAV,STABILIZE,0,0,0,0
2026-07-07T02:46:09.777106+00:00,1.5809330940246582,E19_mode_command,BRAKE_warmup,0,37.5665,126.978,20.0,0.0,,,,,,,3,12,37.5665,126.978,20.0,,,,0.0,0.0,FENCE_STATUS,GPS 1: detected MAV,STABILIZE,0,0,0,0
2026-07-07T02:46:09.974578+00:00,1.7784249782562256,E19_mode_command,BRAKE_warmup,0,37.5665,126.978,20.0,0.0,,,,,,,3,12,37.5665,126.978,20.0,,,,0.0,0.0,HEARTBEAT,GPS 1: detected MAV,STABILIZE,0,0,0,0
2026-07-07T02:46:09.974728+00:00,1.7785532474517822,E19_mode_command,BRAKE_warmup,0,37.5665,126.978,20.0,0.0,37.5665,126.978,20.0,0.0,0.0,0,3,12,37.5665,126.978,20.0,0.0,0.0,-0.04,0.0,0.0,GLOBAL_POSITION_INT,GPS 1: detected MAV,STABILIZE,0,0,0,0
2026-07-07T02:46:09.974847+00:00,1.7786712646484375,E19_mode_command,BRAKE_warmup,0,37.5665,126.978,20.0,0.0,,,,,,,3,12,37.5665,126.978,20.0,,,,0.0,0.0,MISSION_CURRENT,GPS 1: detected MAV,STABILIZE,0,0,0,0
2026-07-07T02:46:09.975100+00:00,1.7789297103881836,E19_mode_command,BRAKE_warmup,0,37.5665,126.978,20.0,0.0,,,,,,,3,12,37.5665,126.978,20.0,,,,0.0,0.0,GPS_RAW_INT,GPS 1: detected MAV,STABILIZE,0,0,0,0
2026-07-07T02:46:09.975147+00:00,1.77897047996521,E19_mode_command,BRAKE_warmup,0,37.5665,126.978,20.0,0.0,,,,,,,3,12,37.5665,126.978,20.0,,,,0.0,0.0,FENCE_STATUS,GPS 1: detected MAV,STABILIZE,0,0,0,0
2026-07-07T02:46:10.178416+00:00,1.9822635650634766,E19_mode_command,BRAKE_warmup,0,37.5665,126.978,20.0,0.0,,,,,,,3,12,37.5665,126.978,20.0,,,,0.0,0.0,HEARTBEAT,GPS 1: detected MAV,STABILIZE,0,0,0,0
2026-07-07T02:46:10.178573+00:00,1.9823989868164062,E19_mode_command,BRAKE_warmup,0,37.5665,126.978,20.0,0.0,37.5665,126.978,20.0,0.0,0.0,0,3,12,37.5665,126.978,20.0,0.0,0.0,-0.04,0.0,0.0,GLOBAL_POSITION_INT,GPS 1: detected MAV,STABILIZE,0,0,0,0
2026-07-07T02:46:10.178692+00:00,1.982515573501587,E19_mode_command,BRAKE_warmup,0,37.5665,126.978,20.0,0.0,,,,,,,3,12,37.5665,126.978,20.0,,,,0.0,0.0,MISSION_CURRENT,GPS 1: detected MAV,STABILIZE,0,0,0,0
2026-07-07T02:46:10.178894+00:00,1.9827182292938232,E19_mode_command,BRAKE_warmup,0,37.5665,126.978,20.0,0.0,,,,,,,3,12,37.5665,126.978,20.0,,,,0.0,0.0,GPS_RAW_INT,GPS 1: detected MAV,STABILIZE,0,0,0,0
2026-07-07T02:46:10.178933+00:00,1.9827556610107422,E19_mode_command,BRAKE_warmup,0,37.5665,126.978,20.0,0.0,,,,,,,3,12,37.5665,126.978,20.0,,,,0.0,0.0,FENCE_STATUS,GPS 1: detected MAV,STABILIZE,0,0,0,0
