timestamp,elapsed_s,experiment,phase,sample_index,target_lat,target_lon,target_alt,target_drift_m,obs_lat,obs_lon,obs_alt,official_drift_m,target_error_m,reflected,gps_fix_type,gps_satellites,gps_raw_lat,gps_raw_lon,gps_raw_alt,vn,ve,vd,commanded_speed_mps,commanded_accel_mps2,message_type,status_text,mode,fence_breach_status,fence_breach_count,fence_breach_type
2026-07-06T16:39:10.368914+00:00,0.014029979705810547,E2_mavproxy_udp_gps_input_negative,warmup,0,37.5665,126.978,20.0,0.0,,,,,,,,,,,,,,,0.0,0.0,STATUSTEXT,GPS 1: detected MAV,,,,
2026-07-06T16:39:10.441082+00:00,0.08620429039001465,E2_mavproxy_udp_gps_input_negative,warmup,0,37.5665,126.978,20.0,0.0,37.5665,126.978,0.0,0.0,0.0,0,,,,,,0.0,0.0,0.0,0.0,0.0,GLOBAL_POSITION_INT,GPS 1: detected MAV,,,,
2026-07-06T16:39:10.441522+00:00,0.08662271499633789,E2_mavproxy_udp_gps_input_negative,warmup,0,37.5665,126.978,20.0,0.0,,,,,,,3,12,37.5665,126.978,20.0,,,,0.0,0.0,GPS_RAW_INT,GPS 1: detected MAV,,,,
2026-07-06T16:39:10.506623+00:00,0.1517333984375,E2_mavproxy_udp_gps_input_negative,warmup,0,37.5665,126.978,20.0,0.0,,,,,,,3,12,37.5665,126.978,20.0,,,,0.0,0.0,HEARTBEAT,GPS 1: detected MAV,STABILIZE,,,
2026-07-06T16:39:10.641437+00:00,0.2865419387817383,E2_mavproxy_udp_gps_input_negative,warmup,0,37.5665,126.978,20.0,0.0,37.5665,126.978,0.0,0.0,0.0,0,3,12,37.5665,126.978,20.0,0.0,0.0,0.0,0.0,0.0,GLOBAL_POSITION_INT,GPS 1: detected MAV,STABILIZE,,,
2026-07-06T16:39:10.641759+00:00,0.28685641288757324,E2_mavproxy_udp_gps_input_negative,warmup,0,37.5665,126.978,20.0,0.0,,,,,,,3,12,37.5665,126.978,20.0,,,,0.0,0.0,GPS_RAW_INT,GPS 1: detected MAV,STABILIZE,,,
2026-07-06T16:39:10.693093+00:00,0.33820581436157227,E2_mavproxy_udp_gps_input_negative,warmup,0,37.5665,126.978,20.0,0.0,,,,,,,3,12,37.5665,126.978,20.0,,,,0.0,0.0,HEARTBEAT,GPS 1: detected MAV,STABILIZE,,,
2026-07-06T16:39:10.850371+00:00,0.4954793453216553,E2_mavproxy_udp_gps_input_negative,warmup,0,37.5665,126.978,20.0,0.0,37.5665,126.978,0.0,0.0,0.0,0,3,12,37.5665,126.978,20.0,0.0,0.0,0.0,0.0,0.0,GLOBAL_POSITION_INT,GPS 1: detected MAV,STABILIZE,,,
2026-07-06T16:39:10.850761+00:00,0.49586057662963867,E2_mavproxy_udp_gps_input_negative,warmup,0,37.5665,126.978,20.0,0.0,,,,,,,3,12,37.5665,126.978,20.0,,,,0.0,0.0,GPS_RAW_INT,GPS 1: detected MAV,STABILIZE,,,
2026-07-06T16:39:10.880724+00:00,0.5258331298828125,E2_mavproxy_udp_gps_input_negative,warmup,0,37.5665,126.978,20.0,0.0,,,,,,,3,12,37.5665,126.978,20.0,,,,0.0,0.0,STATUSTEXT,EKF3 IMU0 initialised,STABILIZE,,,
2026-07-06T16:39:10.881084+00:00,0.5261819362640381,E2_mavproxy_udp_gps_input_negative,warmup,0,37.5665,126.978,20.0,0.0,,,,,,,3,12,37.5665,126.978,20.0,,,,0.0,0.0,STATUSTEXT,EKF3 IMU1 initialised,STABILIZE,,,
2026-07-06T16:39:10.881328+00:00,0.526425838470459,E2_mavproxy_udp_gps_input_negative,warmup,0,37.5665,126.978,20.0,0.0,,,,,,,3,12,37.5665,126.978,20.0,,,,0.0,0.0,STATUSTEXT,AHRS: EKF3 active,STABILIZE,,,
2026-07-06T16:39:10.899081+00:00,0.5441892147064209,E2_mavproxy_udp_gps_input_negative,warmup,0,37.5665,126.978,20.0,0.0,,,,,,,3,12,37.5665,126.978,20.0,,,,0.0,0.0,HEARTBEAT,AHRS: EKF3 active,STABILIZE,,,
2026-07-06T16:39:11.037412+00:00,0.6825189590454102,E2_mavproxy_udp_gps_input_negative,warmup,0,37.5665,126.978,20.0,0.0,37.5665,126.978,20.0,0.0,0.0,0,3,12,37.5665,126.978,20.0,0.0,0.0,0.04,0.0,0.0,GLOBAL_POSITION_INT,AHRS: EKF3 active,STABILIZE,,,
2026-07-06T16:39:11.037749+00:00,0.6828470230102539,E2_mavproxy_udp_gps_input_negative,warmup,0,37.5665,126.978,20.0,0.0,,,,,,,3,12,37.5665,126.978,20.0,,,,0.0,0.0,GPS_RAW_INT,AHRS: EKF3 active,STABILIZE,,,
2026-07-06T16:39:11.105751+00:00,0.7508585453033447,E2_mavproxy_udp_gps_input_negative,warmup,0,37.5665,126.978,20.0,0.0,,,,,,,3,12,37.5665,126.978,20.0,,,,0.0,0.0,HEARTBEAT,AHRS: EKF3 active,STABILIZE,,,
2026-07-06T16:39:11.239365+00:00,0.8844738006591797,E2_mavproxy_udp_gps_input_negative,warmup,0,37.5665,126.978,20.0,0.0,37.5665,126.978,20.0,0.0,0.0,0,3,12,37.5665,126.978,20.0,0.0,0.0,0.12,0.0,0.0,GLOBAL_POSITION_INT,AHRS: EKF3 active,STABILIZE,,,
2026-07-06T16:39:11.240147+00:00,0.8852481842041016,E2_mavproxy_udp_gps_input_negative,warmup,0,37.5665,126.978,20.0,0.0,,,,,,,3,12,37.5665,126.978,20.0,,,,0.0,0.0,GPS_RAW_INT,AHRS: EKF3 active,STABILIZE,,,
2026-07-06T16:39:11.308994+00:00,0.9541049003601074,E2_mavproxy_udp_gps_input_negative,warmup,0,37.5665,126.978,20.0,0.0,,,,,,,3,12,37.5665,126.978,20.0,,,,0.0,0.0,HEARTBEAT,AHRS: EKF3 active,STABILIZE,,,
2026-07-06T16:39:11.439331+00:00,1.0844368934631348,E2_mavproxy_udp_gps_input_negative,warmup,0,37.5665,126.978,20.0,0.0,37.5665,126.978,20.0,0.0,0.0,0,3,12,37.5665,126.978,20.0,0.0,0.0,0.16,0.0,0.0,GLOBAL_POSITION_INT,AHRS: EKF3 active,STABILIZE,,,
2026-07-06T16:39:11.439674+00:00,1.084770917892456,E2_mavproxy_udp_gps_input_negative,warmup,0,37.5665,126.978,20.0,0.0,,,,,,,3,12,37.5665,126.978,20.0,,,,0.0,0.0,GPS_RAW_INT,AHRS: EKF3 active,STABILIZE,,,
2026-07-06T16:39:11.516278+00:00,1.1613929271697998,E2_mavproxy_udp_gps_input_negative,warmup,0,37.5665,126.978,20.0,0.0,,,,,,,3,12,37.5665,126.978,20.0,,,,0.0,0.0,HEARTBEAT,AHRS: EKF3 active,STABILIZE,,,
2026-07-06T16:39:11.645467+00:00,1.2905752658843994,E2_mavproxy_udp_gps_input_negative,warmup,0,37.5665,126.978,20.0,0.0,37.5665,126.978,20.0,0.0,0.0,0,3,12,37.5665,126.978,20.0,0.0,0.0,0.17,0.0,0.0,GLOBAL_POSITION_INT,AHRS: EKF3 active,STABILIZE,,,
2026-07-06T16:39:11.645850+00:00,1.2909519672393799,E2_mavproxy_udp_gps_input_negative,warmup,0,37.5665,126.978,20.0,0.0,,,,,,,3,12,37.5665,126.978,20.0,,,,0.0,0.0,GPS_RAW_INT,AHRS: EKF3 active,STABILIZE,,,
2026-07-06T16:39:11.722940+00:00,1.3680469989776611,E2_mavproxy_udp_gps_input_negative,warmup,0,37.5665,126.978,20.0,0.0,,,,,,,3,12,37.5665,126.978,20.0,,,,0.0,0.0,HEARTBEAT,AHRS: EKF3 active,STABILIZE,,,
2026-07-06T16:39:11.854136+00:00,1.4992430210113525,E2_mavproxy_udp_gps_input_negative,warmup,0,37.5665,126.978,20.0,0.0,37.5665,126.978,20.0,0.0,0.0,0,3,12,37.5665,126.978,20.0,0.0,0.0,0.18,0.0,0.0,GLOBAL_POSITION_INT,AHRS: EKF3 active,STABILIZE,,,
2026-07-06T16:39:11.854445+00:00,1.4995427131652832,E2_mavproxy_udp_gps_input_negative,warmup,0,37.5665,126.978,20.0,0.0,,,,,,,3,12,37.5665,126.978,20.0,,,,0.0,0.0,GPS_RAW_INT,AHRS: EKF3 active,STABILIZE,,,
2026-07-06T16:39:11.904508+00:00,1.5496177673339844,E2_mavproxy_udp_gps_input_negative,warmup,0,37.5665,126.978,20.0,0.0,,,,,,,3,12,37.5665,126.978,20.0,,,,0.0,0.0,HEARTBEAT,AHRS: EKF3 active,STABILIZE,,,
2026-07-06T16:39:12.042168+00:00,1.68727445602417,E2_mavproxy_udp_gps_input_negative,warmup,0,37.5665,126.978,20.0,0.0,37.5665,126.978,20.0,0.0,0.0,0,3,12,37.5665,126.978,20.0,0.0,0.0,0.18,0.0,0.0,GLOBAL_POSITION_INT,AHRS: EKF3 active,STABILIZE,,,
2026-07-06T16:39:12.042533+00:00,1.6876347064971924,E2_mavproxy_udp_gps_input_negative,warmup,0,37.5665,126.978,20.0,0.0,,,,,,,3,12,37.5665,126.978,20.0,,,,0.0,0.0,GPS_RAW_INT,AHRS: EKF3 active,STABILIZE,,,
2026-07-06T16:39:12.094607+00:00,1.7397165298461914,E2_mavproxy_udp_gps_input_negative,warmup,0,37.5665,126.978,20.0,0.0,,,,,,,3,12,37.5665,126.978,20.0,,,,0.0,0.0,HEARTBEAT,AHRS: EKF3 active,STABILIZE,,,
2026-07-06T16:39:12.233246+00:00,1.8783538341522217,E2_mavproxy_udp_gps_input_negative,warmup,0,37.5665,126.978,20.0,0.0,37.5665,126.978,20.0,0.0,0.0,0,3,12,37.5665,126.978,20.0,0.0,0.0,0.17,0.0,0.0,GLOBAL_POSITION_INT,AHRS: EKF3 active,STABILIZE,,,
2026-07-06T16:39:12.233715+00:00,1.8788177967071533,E2_mavproxy_udp_gps_input_negative,warmup,0,37.5665,126.978,20.0,0.0,,,,,,,3,12,37.5665,126.978,20.0,,,,0.0,0.0,GPS_RAW_INT,AHRS: EKF3 active,STABILIZE,,,
2026-07-06T16:39:12.326860+00:00,1.971975326538086,E2_mavproxy_udp_gps_input_negative,warmup,0,37.5665,126.978,20.0,0.0,,,,,,,3,12,37.5665,126.978,20.0,,,,0.0,0.0,HEARTBEAT,AHRS: EKF3 active,STABILIZE,,,
2026-07-06T16:39:12.431801+00:00,2.0769104957580566,E2_mavproxy_udp_gps_input_negative,warmup,0,37.5665,126.978,20.0,0.0,37.5665,126.978,20.0,0.0,0.0,0,3,12,37.5665,126.978,20.0,0.0,0.0,0.16,0.0,0.0,GLOBAL_POSITION_INT,AHRS: EKF3 active,STABILIZE,,,
2026-07-06T16:39:12.432237+00:00,2.0773403644561768,E2_mavproxy_udp_gps_input_negative,warmup,0,37.5665,126.978,20.0,0.0,,,,,,,3,12,37.5665,126.978,20.0,,,,0.0,0.0,GPS_RAW_INT,AHRS: EKF3 active,STABILIZE,,,
2026-07-06T16:39:12.506590+00:00,2.151705503463745,E2_mavproxy_udp_gps_input_negative,warmup,0,37.5665,126.978,20.0,0.0,,,,,,,3,12,37.5665,126.978,20.0,,,,0.0,0.0,HEARTBEAT,AHRS: EKF3 active,STABILIZE,,,
2026-07-06T16:39:12.623720+00:00,2.2688329219818115,E2_mavproxy_udp_gps_input_negative,warmup,0,37.5665,126.978,20.0,0.0,,,,,,,3,12,37.5665,126.978,20.0,,,,0.0,0.0,STATUSTEXT,EKF3 IMU0 tilt alignment complete,STABILIZE,,,
2026-07-06T16:39:12.640445+00:00,2.285557508468628,E2_mavproxy_udp_gps_input_negative,warmup,0,37.5665,126.978,20.0,0.0,,,,,,,3,12,37.5665,126.978,20.0,,,,0.0,0.0,STATUSTEXT,EKF3 IMU1 tilt alignment complete,STABILIZE,,,
2026-07-06T16:39:12.640599+00:00,2.2856967449188232,E2_mavproxy_udp_gps_input_negative,warmup,0,37.5665,126.978,20.0,0.0,37.5665,126.978,20.0,0.0,0.0,0,3,12,37.5665,126.978,20.0,0.0,0.0,0.15,0.0,0.0,GLOBAL_POSITION_INT,EKF3 IMU1 tilt alignment complete,STABILIZE,,,
2026-07-06T16:39:12.640914+00:00,2.286010503768921,E2_mavproxy_udp_gps_input_negative,warmup,0,37.5665,126.978,20.0,0.0,,,,,,,3,12,37.5665,126.978,20.0,,,,0.0,0.0,GPS_RAW_INT,EKF3 IMU1 tilt alignment complete,STABILIZE,,,
2026-07-06T16:39:12.724222+00:00,2.369335412979126,E2_mavproxy_udp_gps_input_negative,warmup,0,37.5665,126.978,20.0,0.0,,,,,,,3,12,37.5665,126.978,20.0,,,,0.0,0.0,HEARTBEAT,EKF3 IMU1 tilt alignment complete,STABILIZE,,,
2026-07-06T16:39:12.724321+00:00,2.369420051574707,E2_mavproxy_udp_gps_input_negative,warmup,0,37.5665,126.978,20.0,0.0,,,,,,,3,12,37.5665,126.978,20.0,,,,0.0,0.0,STATUSTEXT,EKF3 IMU1 MAG0 initial yaw alignment complete,STABILIZE,,,
2026-07-06T16:39:12.724371+00:00,2.3694677352905273,E2_mavproxy_udp_gps_input_negative,warmup,0,37.5665,126.978,20.0,0.0,,,,,,,3,12,37.5665,126.978,20.0,,,,0.0,0.0,STATUSTEXT,EKF3 IMU0 MAG0 initial yaw alignment complete,STABILIZE,,,
2026-07-06T16:39:12.834404+00:00,2.4795122146606445,E2_mavproxy_udp_gps_input_negative,warmup,0,37.5665,126.978,20.0,0.0,37.5665,126.978,20.0,0.0,0.0,0,3,12,37.5665,126.978,20.0,0.0,0.0,0.13,0.0,0.0,GLOBAL_POSITION_INT,EKF3 IMU0 MAG0 initial yaw alignment complete,STABILIZE,,,
2026-07-06T16:39:12.834740+00:00,2.479836940765381,E2_mavproxy_udp_gps_input_negative,warmup,0,37.5665,126.978,20.0,0.0,,,,,,,3,12,37.5665,126.978,20.0,,,,0.0,0.0,GPS_RAW_INT,EKF3 IMU0 MAG0 initial yaw alignment complete,STABILIZE,,,
2026-07-06T16:39:12.899825+00:00,2.5449321269989014,E2_mavproxy_udp_gps_input_negative,warmup,0,37.5665,126.978,20.0,0.0,,,,,,,3,12,37.5665,126.978,20.0,,,,0.0,0.0,HEARTBEAT,EKF3 IMU0 MAG0 initial yaw alignment complete,STABILIZE,,,
2026-07-06T16:39:13.042548+00:00,2.687655210494995,E2_mavproxy_udp_gps_input_negative,warmup,0,37.5665,126.978,20.0,0.0,37.5665,126.978,20.0,0.0,0.0,0,3,12,37.5665,126.978,20.0,0.0,0.0,0.11,0.0,0.0,GLOBAL_POSITION_INT,EKF3 IMU0 MAG0 initial yaw alignment complete,STABILIZE,,,
2026-07-06T16:39:13.042898+00:00,2.6879987716674805,E2_mavproxy_udp_gps_input_negative,warmup,0,37.5665,126.978,20.0,0.0,,,,,,,3,12,37.5665,126.978,20.0,,,,0.0,0.0,GPS_RAW_INT,EKF3 IMU0 MAG0 initial yaw alignment complete,STABILIZE,,,
2026-07-06T16:39:13.108209+00:00,2.753322124481201,E2_mavproxy_udp_gps_input_negative,warmup,0,37.5665,126.978,20.0,0.0,,,,,,,3,12,37.5665,126.978,20.0,,,,0.0,0.0,HEARTBEAT,EKF3 IMU0 MAG0 initial yaw alignment complete,STABILIZE,,,
2026-07-06T16:39:13.241676+00:00,2.886786460876465,E2_mavproxy_udp_gps_input_negative,warmup,0,37.5665,126.978,20.0,0.0,37.5665,126.978,20.0,0.0,0.0,0,3,12,37.5665,126.978,20.0,0.0,0.0,0.09,0.0,0.0,GLOBAL_POSITION_INT,EKF3 IMU0 MAG0 initial yaw alignment complete,STABILIZE,,,
2026-07-06T16:39:13.242254+00:00,2.887357711791992,E2_mavproxy_udp_gps_input_negative,warmup,0,37.5665,126.978,20.0,0.0,,,,,,,3,12,37.5665,126.978,20.0,,,,0.0,0.0,GPS_RAW_INT,EKF3 IMU0 MAG0 initial yaw alignment complete,STABILIZE,,,
2026-07-06T16:39:13.325301+00:00,2.9704153537750244,E2_mavproxy_udp_gps_input_negative,warmup,0,37.5665,126.978,20.0,0.0,,,,,,,3,12,37.5665,126.978,20.0,,,,0.0,0.0,HEARTBEAT,EKF3 IMU0 MAG0 initial yaw alignment complete,STABILIZE,,,
2026-07-06T16:39:13.438125+00:00,3.0832338333129883,E2_mavproxy_udp_gps_input_negative,warmup,0,37.5665,126.978,20.0,0.0,37.5665,126.978,20.0,0.0,0.0,0,3,12,37.5665,126.978,20.0,0.0,0.0,0.07,0.0,0.0,GLOBAL_POSITION_INT,EKF3 IMU0 MAG0 initial yaw alignment complete,STABILIZE,,,
2026-07-06T16:39:13.438598+00:00,3.083700180053711,E2_mavproxy_udp_gps_input_negative,warmup,0,37.5665,126.978,20.0,0.0,,,,,,,3,12,37.5665,126.978,20.0,,,,0.0,0.0,GPS_RAW_INT,EKF3 IMU0 MAG0 initial yaw alignment complete,STABILIZE,,,
2026-07-06T16:39:13.502879+00:00,3.1479907035827637,E2_mavproxy_udp_gps_input_negative,warmup,0,37.5665,126.978,20.0,0.0,,,,,,,3,12,37.5665,126.978,20.0,,,,0.0,0.0,HEARTBEAT,EKF3 IMU0 MAG0 initial yaw alignment complete,STABILIZE,,,
2026-07-06T16:39:13.645656+00:00,3.2907652854919434,E2_mavproxy_udp_gps_input_negative,warmup,0,37.5665,126.978,20.0,0.0,37.5665,126.978,20.0,0.0,0.0,0,3,12,37.5665,126.978,20.0,0.0,0.0,0.06,0.0,0.0,GLOBAL_POSITION_INT,EKF3 IMU0 MAG0 initial yaw alignment complete,STABILIZE,,,
2026-07-06T16:39:13.646163+00:00,3.2912659645080566,E2_mavproxy_udp_gps_input_negative,warmup,0,37.5665,126.978,20.0,0.0,,,,,,,3,12,37.5665,126.978,20.0,,,,0.0,0.0,GPS_RAW_INT,EKF3 IMU0 MAG0 initial yaw alignment complete,STABILIZE,,,
2026-07-06T16:39:13.710335+00:00,3.3554434776306152,E2_mavproxy_udp_gps_input_negative,warmup,0,37.5665,126.978,20.0,0.0,,,,,,,3,12,37.5665,126.978,20.0,,,,0.0,0.0,HEARTBEAT,EKF3 IMU0 MAG0 initial yaw alignment complete,STABILIZE,,,
2026-07-06T16:39:13.854139+00:00,3.4992496967315674,E2_mavproxy_udp_gps_input_negative,warmup,0,37.5665,126.978,20.0,0.0,37.5665,126.978,20.0,0.0,0.0,0,3,12,37.5665,126.978,20.0,0.0,0.0,0.04,0.0,0.0,GLOBAL_POSITION_INT,EKF3 IMU0 MAG0 initial yaw alignment complete,STABILIZE,,,
2026-07-06T16:39:13.864768+00:00,3.509874105453491,E2_mavproxy_udp_gps_input_negative,warmup,0,37.5665,126.978,20.0,0.0,,,,,,,3,12,37.5665,126.978,20.0,,,,0.0,0.0,GPS_RAW_INT,EKF3 IMU0 MAG0 initial yaw alignment complete,STABILIZE,,,
2026-07-06T16:39:13.912756+00:00,3.557865619659424,E2_mavproxy_udp_gps_input_negative,warmup,0,37.5665,126.978,20.0,0.0,,,,,,,3,12,37.5665,126.978,20.0,,,,0.0,0.0,HEARTBEAT,EKF3 IMU0 MAG0 initial yaw alignment complete,STABILIZE,,,
2026-07-06T16:39:14.045712+00:00,3.6908180713653564,E2_mavproxy_udp_gps_input_negative,warmup,0,37.5665,126.978,20.0,0.0,37.5665,126.978,20.0,0.0,0.0,0,3,12,37.5665,126.978,20.0,0.0,0.0,0.03,0.0,0.0,GLOBAL_POSITION_INT,EKF3 IMU0 MAG0 initial yaw alignment complete,STABILIZE,,,
2026-07-06T16:39:14.093730+00:00,3.7388410568237305,E2_mavproxy_udp_gps_input_negative,warmup,0,37.5665,126.978,20.0,0.0,,,,,,,3,12,37.5665,126.978,20.0,,,,0.0,0.0,GPS_RAW_INT,EKF3 IMU0 MAG0 initial yaw alignment complete,STABILIZE,,,
2026-07-06T16:39:14.103770+00:00,3.748875379562378,E2_mavproxy_udp_gps_input_negative,warmup,0,37.5665,126.978,20.0,0.0,,,,,,,3,12,37.5665,126.978,20.0,,,,0.0,0.0,HEARTBEAT,EKF3 IMU0 MAG0 initial yaw alignment complete,STABILIZE,,,
2026-07-06T16:39:14.235993+00:00,3.88110089302063,E2_mavproxy_udp_gps_input_negative,warmup,0,37.5665,126.978,20.0,0.0,37.5665,126.978,20.0,0.0,0.0,0,3,12,37.5665,126.978,20.0,0.0,0.0,0.02,0.0,0.0,GLOBAL_POSITION_INT,EKF3 IMU0 MAG0 initial yaw alignment complete,STABILIZE,,,
2026-07-06T16:39:14.236331+00:00,3.8814291954040527,E2_mavproxy_udp_gps_input_negative,warmup,0,37.5665,126.978,20.0,0.0,,,,,,,3,12,37.5665,126.978,20.0,,,,0.0,0.0,GPS_RAW_INT,EKF3 IMU0 MAG0 initial yaw alignment complete,STABILIZE,,,
2026-07-06T16:39:14.337088+00:00,3.9822146892547607,E2_mavproxy_udp_gps_input_negative,warmup,0,37.5665,126.978,20.0,0.0,,,,,,,3,12,37.5665,126.978,20.0,,,,0.0,0.0,HEARTBEAT,EKF3 IMU0 MAG0 initial yaw alignment complete,STABILIZE,,,
2026-07-06T16:39:14.441176+00:00,4.086287021636963,E2_mavproxy_udp_gps_input_negative,warmup,0,37.5665,126.978,20.0,0.0,37.5665,126.978,20.0,0.0,0.0,0,3,12,37.5665,126.978,20.0,0.0,0.0,0.01,0.0,0.0,GLOBAL_POSITION_INT,EKF3 IMU0 MAG0 initial yaw alignment complete,STABILIZE,,,
2026-07-06T16:39:14.441591+00:00,4.086692810058594,E2_mavproxy_udp_gps_input_negative,warmup,0,37.5665,126.978,20.0,0.0,,,,,,,3,12,37.5665,126.978,20.0,,,,0.0,0.0,GPS_RAW_INT,EKF3 IMU0 MAG0 initial yaw alignment complete,STABILIZE,,,
2026-07-06T16:39:14.510953+00:00,4.156068325042725,E2_mavproxy_udp_gps_input_negative,warmup,0,37.5665,126.978,20.0,0.0,,,,,,,3,12,37.5665,126.978,20.0,,,,0.0,0.0,HEARTBEAT,EKF3 IMU0 MAG0 initial yaw alignment complete,STABILIZE,,,
2026-07-06T16:39:14.645499+00:00,4.290606260299683,E2_mavproxy_udp_gps_input_negative,warmup,0,37.5665,126.978,20.0,0.0,37.5665,126.978,20.0,0.0,0.0,0,3,12,37.5665,126.978,20.0,0.0,0.0,0.0,0.0,0.0,GLOBAL_POSITION_INT,EKF3 IMU0 MAG0 initial yaw alignment complete,STABILIZE,,,
2026-07-06T16:39:14.659859+00:00,4.304965019226074,E2_mavproxy_udp_gps_input_negative,warmup,0,37.5665,126.978,20.0,0.0,,,,,,,3,12,37.5665,126.978,20.0,,,,0.0,0.0,GPS_RAW_INT,EKF3 IMU0 MAG0 initial yaw alignment complete,STABILIZE,,,
2026-07-06T16:39:14.697573+00:00,4.342681407928467,E2_mavproxy_udp_gps_input_negative,warmup,0,37.5665,126.978,20.0,0.0,,,,,,,3,12,37.5665,126.978,20.0,,,,0.0,0.0,HEARTBEAT,EKF3 IMU0 MAG0 initial yaw alignment complete,STABILIZE,,,
2026-07-06T16:39:14.848289+00:00,4.493398427963257,E2_mavproxy_udp_gps_input_negative,warmup,0,37.5665,126.978,20.0,0.0,37.5665,126.978,20.0,0.0,0.0,0,3,12,37.5665,126.978,20.0,0.0,0.0,0.0,0.0,0.0,GLOBAL_POSITION_INT,EKF3 IMU0 MAG0 initial yaw alignment complete,STABILIZE,,,
2026-07-06T16:39:14.848699+00:00,4.493799686431885,E2_mavproxy_udp_gps_input_negative,warmup,0,37.5665,126.978,20.0,0.0,,,,,,,3,12,37.5665,126.978,20.0,,,,0.0,0.0,GPS_RAW_INT,EKF3 IMU0 MAG0 initial yaw alignment complete,STABILIZE,,,
2026-07-06T16:39:14.913973+00:00,4.559083461761475,E2_mavproxy_udp_gps_input_negative,warmup,0,37.5665,126.978,20.0,0.0,,,,,,,3,12,37.5665,126.978,20.0,,,,0.0,0.0,HEARTBEAT,EKF3 IMU0 MAG0 initial yaw alignment complete,STABILIZE,,,
2026-07-06T16:39:15.052054+00:00,4.69716215133667,E2_mavproxy_udp_gps_input_negative,warmup,0,37.5665,126.978,20.0,0.0,37.5665,126.978,20.0,0.0,0.0,0,3,12,37.5665,126.978,20.0,0.0,0.0,-0.01,0.0,0.0,GLOBAL_POSITION_INT,EKF3 IMU0 MAG0 initial yaw alignment complete,STABILIZE,,,
2026-07-06T16:39:15.052355+00:00,4.697452545166016,E2_mavproxy_udp_gps_input_negative,warmup,0,37.5665,126.978,20.0,0.0,,,,,,,3,12,37.5665,126.978,20.0,,,,0.0,0.0,GPS_RAW_INT,EKF3 IMU0 MAG0 initial yaw alignment complete,STABILIZE,,,
2026-07-06T16:39:15.117593+00:00,4.762704133987427,E2_mavproxy_udp_gps_input_negative,warmup,0,37.5665,126.978,20.0,0.0,,,,,,,3,12,37.5665,126.978,20.0,,,,0.0,0.0,HEARTBEAT,EKF3 IMU0 MAG0 initial yaw alignment complete,STABILIZE,,,
2026-07-06T16:39:14.036738+00:00,3.6818482875823975,E2_mavproxy_udp_gps_input_negative,warmup,0,37.5665,126.978,20.0,0.0,37.5665,126.978,20.0,0.0,0.0,0,3,12,37.5665,126.978,20.0,0.0,0.0,-0.02,0.0,0.0,GLOBAL_POSITION_INT,EKF3 IMU0 MAG0 initial yaw alignment complete,STABILIZE,,,
2026-07-06T16:39:14.037175+00:00,3.6822783946990967,E2_mavproxy_udp_gps_input_negative,warmup,0,37.5665,126.978,20.0,0.0,,,,,,,3,12,37.5665,126.978,20.0,,,,0.0,0.0,GPS_RAW_INT,EKF3 IMU0 MAG0 initial yaw alignment complete,STABILIZE,,,
2026-07-06T16:39:14.092639+00:00,3.737755060195923,E2_mavproxy_udp_gps_input_negative,warmup,0,37.5665,126.978,20.0,0.0,,,,,,,3,12,37.5665,126.978,20.0,,,,0.0,0.0,HEARTBEAT,EKF3 IMU0 MAG0 initial yaw alignment complete,STABILIZE,,,
2026-07-06T16:39:14.259637+00:00,3.9047470092773438,E2_mavproxy_udp_gps_input_negative,warmup,0,37.5665,126.978,20.0,0.0,37.5665,126.978,20.0,0.0,0.0,0,3,12,37.5665,126.978,20.0,0.0,0.0,-0.02,0.0,0.0,GLOBAL_POSITION_INT,EKF3 IMU0 MAG0 initial yaw alignment complete,STABILIZE,,,
2026-07-06T16:39:14.260141+00:00,3.9052436351776123,E2_mavproxy_udp_gps_input_negative,warmup,0,37.5665,126.978,20.0,0.0,,,,,,,3,12,37.5665,126.978,20.0,,,,0.0,0.0,GPS_RAW_INT,EKF3 IMU0 MAG0 initial yaw alignment complete,STABILIZE,,,
2026-07-06T16:39:14.288267+00:00,3.933375120162964,E2_mavproxy_udp_gps_input_negative,warmup,0,37.5665,126.978,20.0,0.0,,,,,,,3,12,37.5665,126.978,20.0,,,,0.0,0.0,HEARTBEAT,EKF3 IMU0 MAG0 initial yaw alignment complete,STABILIZE,,,
2026-07-06T16:39:14.442784+00:00,4.087893486022949,E2_mavproxy_udp_gps_input_negative,warmup,0,37.5665,126.978,20.0,0.0,37.5665,126.978,20.0,0.0,0.0,0,3,12,37.5665,126.978,20.0,0.0,0.0,-0.03,0.0,0.0,GLOBAL_POSITION_INT,EKF3 IMU0 MAG0 initial yaw alignment complete,STABILIZE,,,
2026-07-06T16:39:14.443329+00:00,4.088430881500244,E2_mavproxy_udp_gps_input_negative,warmup,0,37.5665,126.978,20.0,0.0,,,,,,,3,12,37.5665,126.978,20.0,,,,0.0,0.0,GPS_RAW_INT,EKF3 IMU0 MAG0 initial yaw alignment complete,STABILIZE,,,
2026-07-06T16:39:14.508430+00:00,4.153547286987305,E2_mavproxy_udp_gps_input_negative,warmup,0,37.5665,126.978,20.0,0.0,,,,,,,3,12,37.5665,126.978,20.0,,,,0.0,0.0,HEARTBEAT,EKF3 IMU0 MAG0 initial yaw alignment complete,STABILIZE,,,
2026-07-06T16:39:14.621978+00:00,4.267088174819946,E2_mavproxy_udp_gps_input_negative,warmup,0,37.5665,126.978,20.0,0.0,37.5665,126.978,20.0,0.0,0.0,0,3,12,37.5665,126.978,20.0,0.0,0.0,-0.03,0.0,0.0,GLOBAL_POSITION_INT,EKF3 IMU0 MAG0 initial yaw alignment complete,STABILIZE,,,
2026-07-06T16:39:14.630082+00:00,4.275188207626343,E2_mavproxy_udp_gps_input_negative,warmup,0,37.5665,126.978,20.0,0.0,,,,,,,3,12,37.5665,126.978,20.0,,,,0.0,0.0,GPS_RAW_INT,EKF3 IMU0 MAG0 initial yaw alignment complete,STABILIZE,,,
2026-07-06T16:39:14.716747+00:00,4.3618552684783936,E2_mavproxy_udp_gps_input_negative,warmup,0,37.5665,126.978,20.0,0.0,,,,,,,3,12,37.5665,126.978,20.0,,,,0.0,0.0,HEARTBEAT,EKF3 IMU0 MAG0 initial yaw alignment complete,STABILIZE,,,
2026-07-06T16:39:14.821557+00:00,4.466663599014282,E2_mavproxy_udp_gps_input_negative,warmup,0,37.5665,126.978,20.0,0.0,37.5665,126.978,20.0,0.0,0.0,0,3,12,37.5665,126.978,20.0,0.0,0.0,-0.03,0.0,0.0,GLOBAL_POSITION_INT,EKF3 IMU0 MAG0 initial yaw alignment complete,STABILIZE,,,
2026-07-06T16:39:14.821906+00:00,4.467003345489502,E2_mavproxy_udp_gps_input_negative,warmup,0,37.5665,126.978,20.0,0.0,,,,,,,3,12,37.5665,126.978,20.0,,,,0.0,0.0,GPS_RAW_INT,EKF3 IMU0 MAG0 initial yaw alignment complete,STABILIZE,,,
2026-07-06T16:39:14.907282+00:00,4.55240273475647,E2_mavproxy_udp_gps_input_negative,warmup,0,37.5665,126.978,20.0,0.0,,,,,,,3,12,37.5665,126.978,20.0,,,,0.0,0.0,HEARTBEAT,EKF3 IMU0 MAG0 initial yaw alignment complete,STABILIZE,,,
2026-07-06T16:39:15.030846+00:00,4.675953388214111,E2_mavproxy_udp_gps_input_negative,warmup,0,37.5665,126.978,20.0,0.0,37.5665,126.978,20.0,0.0,0.0,0,3,12,37.5665,126.978,20.0,0.0,0.0,-0.04,0.0,0.0,GLOBAL_POSITION_INT,EKF3 IMU0 MAG0 initial yaw alignment complete,STABILIZE,,,
2026-07-06T16:39:15.032688+00:00,4.677791118621826,E2_mavproxy_udp_gps_input_negative,warmup,0,37.5665,126.978,20.0,0.0,,,,,,,3,12,37.5665,126.978,20.0,,,,0.0,0.0,GPS_RAW_INT,EKF3 IMU0 MAG0 initial yaw alignment complete,STABILIZE,,,
2026-07-06T16:39:15.079434+00:00,4.724541902542114,E2_mavproxy_udp_gps_input_negative,warmup,0,37.5665,126.978,20.0,0.0,,,,,,,3,12,37.5665,126.978,20.0,,,,0.0,0.0,HEARTBEAT,EKF3 IMU0 MAG0 initial yaw alignment complete,STABILIZE,,,
2026-07-06T16:39:15.229090+00:00,4.8742005825042725,E2_mavproxy_udp_gps_input_negative,warmup,0,37.5665,126.978,20.0,0.0,37.5665,126.978,20.0,0.0,0.0,0,3,12,37.5665,126.978,20.0,0.0,0.0,-0.04,0.0,0.0,GLOBAL_POSITION_INT,EKF3 IMU0 MAG0 initial yaw alignment complete,STABILIZE,,,
2026-07-06T16:39:15.230609+00:00,4.875714063644409,E2_mavproxy_udp_gps_input_negative,warmup,0,37.5665,126.978,20.0,0.0,,,,,,,3,12,37.5665,126.978,20.0,,,,0.0,0.0,GPS_RAW_INT,EKF3 IMU0 MAG0 initial yaw alignment complete,STABILIZE,,,
2026-07-06T16:39:15.282125+00:00,4.927237510681152,E2_mavproxy_udp_gps_input_negative,warmup,0,37.5665,126.978,20.0,0.0,,,,,,,3,12,37.5665,126.978,20.0,,,,0.0,0.0,HEARTBEAT,EKF3 IMU0 MAG0 initial yaw alignment complete,STABILIZE,,,
2026-07-06T16:39:15.417392+00:00,5.062501668930054,E2_mavproxy_udp_gps_input_negative,warmup,0,37.5665,126.978,20.0,0.0,37.5665,126.978,20.0,0.0,0.0,0,3,12,37.5665,126.978,20.0,0.0,0.0,-0.04,0.0,0.0,GLOBAL_POSITION_INT,EKF3 IMU0 MAG0 initial yaw alignment complete,STABILIZE,,,
2026-07-06T16:39:15.418337+00:00,5.0634379386901855,E2_mavproxy_udp_gps_input_negative,warmup,0,37.5665,126.978,20.0,0.0,,,,,,,3,12,37.5665,126.978,20.0,,,,0.0,0.0,GPS_RAW_INT,EKF3 IMU0 MAG0 initial yaw alignment complete,STABILIZE,,,
2026-07-06T16:39:15.483087+00:00,5.128194093704224,E2_mavproxy_udp_gps_input_negative,warmup,0,37.5665,126.978,20.0,0.0,,,,,,,3,12,37.5665,126.978,20.0,,,,0.0,0.0,HEARTBEAT,EKF3 IMU0 MAG0 initial yaw alignment complete,STABILIZE,,,
2026-07-06T16:39:15.626815+00:00,5.271922588348389,E2_mavproxy_udp_gps_input_negative,warmup,0,37.5665,126.978,20.0,0.0,37.5665,126.978,20.0,0.0,0.0,0,3,12,37.5665,126.978,20.0,0.0,0.0,-0.04,0.0,0.0,GLOBAL_POSITION_INT,EKF3 IMU0 MAG0 initial yaw alignment complete,STABILIZE,,,
2026-07-06T16:39:15.627129+00:00,5.272224426269531,E2_mavproxy_udp_gps_input_negative,warmup,0,37.5665,126.978,20.0,0.0,,,,,,,3,12,37.5665,126.978,20.0,,,,0.0,0.0,GPS_RAW_INT,EKF3 IMU0 MAG0 initial yaw alignment complete,STABILIZE,,,
2026-07-06T16:39:15.708045+00:00,5.353154182434082,E2_mavproxy_udp_gps_input_negative,warmup,0,37.5665,126.978,20.0,0.0,,,,,,,3,12,37.5665,126.978,20.0,,,,0.0,0.0,HEARTBEAT,EKF3 IMU0 MAG0 initial yaw alignment complete,STABILIZE,,,
2026-07-06T16:39:15.842278+00:00,5.487385511398315,E2_mavproxy_udp_gps_input_negative,injection,1,37.56650635201923,126.97800801368734,20.0,0.9988764305990786,37.5665063,126.978008,20.0,0.9939385639803775,0.005908737696590499,1,3,12,37.5665,126.978,20.0,0.0,0.0,-0.04,2.0,4.0,GLOBAL_POSITION_INT,EKF3 IMU0 MAG0 initial yaw alignment complete,STABILIZE,,,
2026-07-06T16:39:15.843230+00:00,5.488333225250244,E2_mavproxy_udp_gps_input_negative,injection,1,37.56650635201923,126.97800801368734,20.0,0.9988764305990786,,,,,,,3,12,37.5665063,126.978008,20.0,,,,2.0,4.0,GPS_RAW_INT,EKF3 IMU0 MAG0 initial yaw alignment complete,STABILIZE,,,
2026-07-06T16:39:15.887354+00:00,5.5324671268463135,E2_mavproxy_udp_gps_input_negative,injection,1,37.56650635201923,126.97800801368734,20.0,0.9988764305990786,,,,,,,3,12,37.5665063,126.978008,20.0,,,,2.0,4.0,HEARTBEAT,EKF3 IMU0 MAG0 initial yaw alignment complete,STABILIZE,,,
2026-07-06T16:39:16.025240+00:00,5.6703526973724365,E2_mavproxy_udp_gps_input_negative,injection,1,37.56650635201923,126.97800801368734,20.0,0.9988764305990786,37.5665063,126.978008,20.0,0.9939385639803775,0.005908737696590499,1,3,12,37.5665063,126.978008,20.0,0.0,0.0,-0.04,2.0,4.0,GLOBAL_POSITION_INT,EKF3 IMU0 MAG0 initial yaw alignment complete,STABILIZE,,,
2026-07-06T16:39:16.075783+00:00,5.720896482467651,E2_mavproxy_udp_gps_input_negative,injection,1,37.56650635201923,126.97800801368734,20.0,0.9988764305990786,,,,,,,3,12,37.5665063,126.978008,20.0,,,,2.0,4.0,GPS_RAW_INT,EKF3 IMU0 MAG0 initial yaw alignment complete,STABILIZE,,,
2026-07-06T16:39:16.106353+00:00,5.751463174819946,E2_mavproxy_udp_gps_input_negative,injection,1,37.56650635201923,126.97800801368734,20.0,0.9988764305990786,,,,,,,3,12,37.5665063,126.978008,20.0,,,,2.0,4.0,HEARTBEAT,EKF3 IMU0 MAG0 initial yaw alignment complete,STABILIZE,,,
2026-07-06T16:39:16.253292+00:00,5.89840292930603,E2_mavproxy_udp_gps_input_negative,injection,1,37.56650635201923,126.97800801368734,20.0,0.9988764305990786,37.5665063,126.978008,20.0,0.9939385639803775,0.005908737696590499,1,3,12,37.5665063,126.978008,20.0,0.0,0.0,-0.04,2.0,4.0,GLOBAL_POSITION_INT,EKF3 IMU0 MAG0 initial yaw alignment complete,STABILIZE,,,
2026-07-06T16:39:16.274570+00:00,5.919788122177124,E2_mavproxy_udp_gps_input_negative,injection,1,37.56650635201923,126.97800801368734,20.0,0.9988764305990786,,,,,,,3,12,37.5665063,126.978008,20.0,,,,2.0,4.0,GPS_RAW_INT,EKF3 IMU0 MAG0 initial yaw alignment complete,STABILIZE,,,
2026-07-06T16:39:16.292439+00:00,5.9375505447387695,E2_mavproxy_udp_gps_input_negative,injection,1,37.56650635201923,126.97800801368734,20.0,0.9988764305990786,,,,,,,3,12,37.5665063,126.978008,20.0,,,,2.0,4.0,HEARTBEAT,EKF3 IMU0 MAG0 initial yaw alignment complete,STABILIZE,,,
2026-07-06T16:39:16.449641+00:00,6.094750642776489,E2_mavproxy_udp_gps_input_negative,injection,2,37.566512704038466,126.9780160273747,20.0,1.997752818609409,37.5665127,126.978016,20.0,1.9957296931827684,0.00245419022910509,1,3,12,37.5665063,126.978008,20.0,0.0,0.0,-0.04,2.0,0.0,GLOBAL_POSITION_INT,EKF3 IMU0 MAG0 initial yaw alignment complete,STABILIZE,,,
2026-07-06T16:39:16.450027+00:00,6.095127820968628,E2_mavproxy_udp_gps_input_negative,injection,2,37.566512704038466,126.9780160273747,20.0,1.997752818609409,,,,,,,3,12,37.5665127,126.978016,20.0,,,,2.0,0.0,GPS_RAW_INT,EKF3 IMU0 MAG0 initial yaw alignment complete,STABILIZE,,,
2026-07-06T16:39:16.485351+00:00,6.130460023880005,E2_mavproxy_udp_gps_input_negative,injection,2,37.566512704038466,126.9780160273747,20.0,1.997752818609409,,,,,,,3,12,37.5665127,126.978016,20.0,,,,2.0,0.0,HEARTBEAT,EKF3 IMU0 MAG0 initial yaw alignment complete,STABILIZE,,,
2026-07-06T16:39:16.630059+00:00,6.275169134140015,E2_mavproxy_udp_gps_input_negative,injection,2,37.566512704038466,126.9780160273747,20.0,1.997752818609409,37.5665127,126.978016,20.0,1.9957296931827684,0.00245419022910509,1,3,12,37.5665127,126.978016,20.0,0.0,0.0,-0.04,2.0,0.0,GLOBAL_POSITION_INT,EKF3 IMU0 MAG0 initial yaw alignment complete,STABILIZE,,,
2026-07-06T16:39:16.641463+00:00,6.2865705490112305,E2_mavproxy_udp_gps_input_negative,injection,2,37.566512704038466,126.9780160273747,20.0,1.997752818609409,,,,,,,3,12,37.5665127,126.978016,20.0,,,,2.0,0.0,GPS_RAW_INT,EKF3 IMU0 MAG0 initial yaw alignment complete,STABILIZE,,,
2026-07-06T16:39:16.684591+00:00,6.329702615737915,E2_mavproxy_udp_gps_input_negative,injection,2,37.566512704038466,126.9780160273747,20.0,1.997752818609409,,,,,,,3,12,37.5665127,126.978016,20.0,,,,2.0,0.0,HEARTBEAT,EKF3 IMU0 MAG0 initial yaw alignment complete,STABILIZE,,,
2026-07-06T16:39:16.854359+00:00,6.499543905258179,E2_mavproxy_udp_gps_input_negative,injection,3,37.5665190560577,126.97802404106206,20.0,2.9966291649166483,37.566519,126.978024,20.0,2.989662989559788,0.007207813323002627,1,3,12,37.5665127,126.978016,20.0,0.0,0.0,-0.03,2.0,4.440892098500626e-16,GLOBAL_POSITION_INT,EKF3 IMU0 MAG0 initial yaw alignment complete,STABILIZE,,,
2026-07-06T16:39:16.869927+00:00,6.515037298202515,E2_mavproxy_udp_gps_input_negative,injection,3,37.5665190560577,126.97802404106206,20.0,2.9966291649166483,,,,,,,3,12,37.566519,126.978024,20.0,,,,2.0,4.440892098500626e-16,GPS_RAW_INT,EKF3 IMU0 MAG0 initial yaw alignment complete,STABILIZE,,,
2026-07-06T16:39:16.911524+00:00,6.556811809539795,E2_mavproxy_udp_gps_input_negative,injection,3,37.5665190560577,126.97802404106206,20.0,2.9966291649166483,,,,,,,3,12,37.566519,126.978024,20.0,,,,2.0,4.440892098500626e-16,HEARTBEAT,EKF3 IMU0 MAG0 initial yaw alignment complete,STABILIZE,,,
2026-07-06T16:39:17.031010+00:00,6.676119327545166,E2_mavproxy_udp_gps_input_negative,injection,3,37.5665190560577,126.97802404106206,20.0,2.9966291649166483,37.566519,126.978024,20.0,2.989662989559788,0.007207813323002627,1,3,12,37.566519,126.978024,20.0,0.0,0.0,-0.03,2.0,4.440892098500626e-16,GLOBAL_POSITION_INT,EKF3 IMU0 MAG0 initial yaw alignment complete,STABILIZE,,,
2026-07-06T16:39:17.031335+00:00,6.676433801651001,E2_mavproxy_udp_gps_input_negative,injection,3,37.5665190560577,126.97802404106206,20.0,2.9966291649166483,,,,,,,3,12,37.566519,126.978024,20.0,,,,2.0,4.440892098500626e-16,GPS_RAW_INT,EKF3 IMU0 MAG0 initial yaw alignment complete,STABILIZE,,,
2026-07-06T16:39:17.094743+00:00,6.739864349365234,E2_mavproxy_udp_gps_input_negative,injection,3,37.5665190560577,126.97802404106206,20.0,2.9966291649166483,,,,,,,3,12,37.566519,126.978024,20.0,,,,2.0,4.440892098500626e-16,HEARTBEAT,EKF3 IMU0 MAG0 initial yaw alignment complete,STABILIZE,,,
2026-07-06T16:39:17.251554+00:00,6.896663665771484,E2_mavproxy_udp_gps_input_negative,injection,3,37.5665190560577,126.97802404106206,20.0,2.9966291649166483,37.566519,126.978024,20.0,2.989662989559788,0.007207813323002627,1,3,12,37.566519,126.978024,20.0,0.0,0.0,-0.03,2.0,4.440892098500626e-16,GLOBAL_POSITION_INT,EKF3 IMU0 MAG0 initial yaw alignment complete,STABILIZE,,,
2026-07-06T16:39:17.251890+00:00,6.896986484527588,E2_mavproxy_udp_gps_input_negative,injection,3,37.5665190560577,126.97802404106206,20.0,2.9966291649166483,,,,,,,3,12,37.566519,126.978024,20.0,,,,2.0,4.440892098500626e-16,GPS_RAW_INT,EKF3 IMU0 MAG0 initial yaw alignment complete,STABILIZE,,,
2026-07-06T16:39:17.285931+00:00,6.931039333343506,E2_mavproxy_udp_gps_input_negative,injection,3,37.5665190560577,126.97802404106206,20.0,2.9966291649166483,,,,,,,3,12,37.566519,126.978024,20.0,,,,2.0,4.440892098500626e-16,HEARTBEAT,EKF3 IMU0 MAG0 initial yaw alignment complete,STABILIZE,,,
2026-07-06T16:39:17.419946+00:00,7.065056324005127,E2_mavproxy_udp_gps_input_negative,injection,4,37.566525408076934,126.9780320547494,20.0,3.9955054677494575,37.5665254,126.978032,20.0,3.9914592170329293,0.00490838073606408,1,3,12,37.566519,126.978024,20.0,0.0,0.0,-0.03,1.9999999999999998,8.881784197001252e-16,GLOBAL_POSITION_INT,EKF3 IMU0 MAG0 initial yaw alignment complete,STABILIZE,,,
2026-07-06T16:39:17.462109+00:00,7.10722017288208,E2_mavproxy_udp_gps_input_negative,injection,4,37.566525408076934,126.9780320547494,20.0,3.9955054677494575,,,,,,,3,12,37.5665254,126.978032,20.0,,,,1.9999999999999998,8.881784197001252e-16,GPS_RAW_INT,EKF3 IMU0 MAG0 initial yaw alignment complete,STABILIZE,,,
2026-07-06T16:39:17.512434+00:00,7.157548427581787,E2_mavproxy_udp_gps_input_negative,injection,4,37.566525408076934,126.9780320547494,20.0,3.9955054677494575,,,,,,,3,12,37.5665254,126.978032,20.0,,,,1.9999999999999998,8.881784197001252e-16,HEARTBEAT,EKF3 IMU0 MAG0 initial yaw alignment complete,STABILIZE,,,
2026-07-06T16:39:17.646308+00:00,7.291453838348389,E2_mavproxy_udp_gps_input_negative,injection,4,37.566525408076934,126.9780320547494,20.0,3.9955054677494575,37.5665254,126.978032,20.0,3.9914592170329293,0.00490838073606408,1,3,12,37.5665254,126.978032,20.0,0.0,0.0,-0.03,1.9999999999999998,8.881784197001252e-16,GLOBAL_POSITION_INT,EKF3 IMU0 MAG0 initial yaw alignment complete,STABILIZE,,,
2026-07-06T16:39:17.658827+00:00,7.303936004638672,E2_mavproxy_udp_gps_input_negative,injection,4,37.566525408076934,126.9780320547494,20.0,3.9955054677494575,,,,,,,3,12,37.5665254,126.978032,20.0,,,,1.9999999999999998,8.881784197001252e-16,GPS_RAW_INT,EKF3 IMU0 MAG0 initial yaw alignment complete,STABILIZE,,,
2026-07-06T16:39:17.695124+00:00,7.340233087539673,E2_mavproxy_udp_gps_input_negative,injection,4,37.566525408076934,126.9780320547494,20.0,3.9955054677494575,,,,,,,3,12,37.5665254,126.978032,20.0,,,,1.9999999999999998,8.881784197001252e-16,HEARTBEAT,EKF3 IMU0 MAG0 initial yaw alignment complete,STABILIZE,,,
2026-07-06T16:39:17.835653+00:00,7.480778932571411,E2_mavproxy_udp_gps_input_negative,injection,4,37.566525408076934,126.9780320547494,20.0,3.9955054677494575,37.5665254,126.978032,20.0,3.9914592170329293,0.00490838073606408,1,3,12,37.5665254,126.978032,20.0,0.0,0.0,-0.03,1.9999999999999998,8.881784197001252e-16,GLOBAL_POSITION_INT,EKF3 IMU0 MAG0 initial yaw alignment complete,STABILIZE,,,
2026-07-06T16:39:17.836088+00:00,7.481189489364624,E2_mavproxy_udp_gps_input_negative,injection,4,37.566525408076934,126.9780320547494,20.0,3.9955054677494575,,,,,,,3,12,37.5665254,126.978032,20.0,,,,1.9999999999999998,8.881784197001252e-16,GPS_RAW_INT,EKF3 IMU0 MAG0 initial yaw alignment complete,STABILIZE,,,
2026-07-06T16:39:17.889162+00:00,7.534265518188477,E2_mavproxy_udp_gps_input_negative,injection,5,37.56653176009617,126.97804006843675,20.0,4.994381727993494,,,,,,,3,12,37.5665254,126.978032,20.0,,,,1.9999999999999998,0.0,HEARTBEAT,EKF3 IMU0 MAG0 initial yaw alignment complete,STABILIZE,,,
2026-07-06T16:39:18.015581+00:00,7.660687446594238,E2_mavproxy_udp_gps_input_negative,injection,5,37.56653176009617,126.97804006843675,20.0,4.994381727993494,37.5665317,126.97804,20.0,4.985391393888302,0.009002114317831598,1,3,12,37.5665254,126.978032,20.0,0.0,0.0,-0.03,1.9999999999999998,0.0,GLOBAL_POSITION_INT,EKF3 IMU0 MAG0 initial yaw alignment complete,STABILIZE,,,
2026-07-06T16:39:18.024900+00:00,7.670009136199951,E2_mavproxy_udp_gps_input_negative,injection,5,37.56653176009617,126.97804006843675,20.0,4.994381727993494,,,,,,,3,12,37.5665317,126.97804,20.0,,,,1.9999999999999998,0.0,GPS_RAW_INT,EKF3 IMU0 MAG0 initial yaw alignment complete,STABILIZE,,,
2026-07-06T16:39:18.110876+00:00,7.755987167358398,E2_mavproxy_udp_gps_input_negative,injection,5,37.56653176009617,126.97804006843675,20.0,4.994381727993494,,,,,,,3,12,37.5665317,126.97804,20.0,,,,1.9999999999999998,0.0,HEARTBEAT,EKF3 IMU0 MAG0 initial yaw alignment complete,STABILIZE,,,
2026-07-06T16:39:18.248357+00:00,7.893468379974365,E2_mavproxy_udp_gps_input_negative,injection,5,37.56653176009617,126.97804006843675,20.0,4.994381727993494,37.5665317,126.97804,20.0,4.985391393888302,0.009002114317831598,1,3,12,37.5665317,126.97804,20.0,0.0,0.0,-0.02,1.9999999999999998,0.0,GLOBAL_POSITION_INT,EKF3 IMU0 MAG0 initial yaw alignment complete,STABILIZE,,,
2026-07-06T16:39:18.248706+00:00,7.893804550170898,E2_mavproxy_udp_gps_input_negative,injection,5,37.56653176009617,126.97804006843675,20.0,4.994381727993494,,,,,,,3,12,37.5665317,126.97804,20.0,,,,1.9999999999999998,0.0,GPS_RAW_INT,EKF3 IMU0 MAG0 initial yaw alignment complete,STABILIZE,,,
2026-07-06T16:39:18.317502+00:00,7.962610244750977,E2_mavproxy_udp_gps_input_negative,injection,5,37.56653176009617,126.97804006843675,20.0,4.994381727993494,,,,,,,3,12,37.5665317,126.97804,20.0,,,,1.9999999999999998,0.0,HEARTBEAT,EKF3 IMU0 MAG0 initial yaw alignment complete,STABILIZE,,,
2026-07-06T16:39:18.431810+00:00,8.07691240310669,E2_mavproxy_udp_gps_input_negative,injection,6,37.5665381121154,126.9780480821241,20.0,5.993257945648749,37.5665317,126.97804,20.0,4.985391393888302,1.0078666781158245,1,3,12,37.5665317,126.97804,20.0,0.0,0.0,-0.02,2.0000000000000004,1.7763568394002505e-15,GLOBAL_POSITION_INT,EKF3 IMU0 MAG0 initial yaw alignment complete,STABILIZE,,,
2026-07-06T16:39:18.454046+00:00,8.099151849746704,E2_mavproxy_udp_gps_input_negative,injection,6,37.5665381121154,126.9780480821241,20.0,5.993257945648749,,,,,,,3,12,37.5665317,126.97804,20.0,,,,2.0000000000000004,1.7763568394002505e-15,GPS_RAW_INT,EKF3 IMU0 MAG0 initial yaw alignment complete,STABILIZE,,,
2026-07-06T16:39:18.487066+00:00,8.132174730300903,E2_mavproxy_udp_gps_input_negative,injection,6,37.5665381121154,126.9780480821241,20.0,5.993257945648749,,,,,,,3,12,37.5665317,126.97804,20.0,,,,2.0000000000000004,1.7763568394002505e-15,HEARTBEAT,EKF3 IMU0 MAG0 initial yaw alignment complete,STABILIZE,,,
2026-07-06T16:39:18.619869+00:00,8.264976024627686,E2_mavproxy_udp_gps_input_negative,injection,6,37.5665381121154,126.9780480821241,20.0,5.993257945648749,37.5665381,126.978048,20.0,5.987188570432289,0.007362569347262746,1,3,12,37.5665317,126.97804,20.0,0.0,0.0,-0.02,2.0000000000000004,1.7763568394002505e-15,GLOBAL_POSITION_INT,EKF3 IMU0 MAG0 initial yaw alignment complete,STABILIZE,,,
2026-07-06T16:39:18.620284+00:00,8.265384435653687,E2_mavproxy_udp_gps_input_negative,injection,6,37.5665381121154,126.9780480821241,20.0,5.993257945648749,,,,,,,3,12,37.5665381,126.978048,20.0,,,,2.0000000000000004,1.7763568394002505e-15,GPS_RAW_INT,EKF3 IMU0 MAG0 initial yaw alignment complete,STABILIZE,,,
2026-07-06T16:39:18.685668+00:00,8.330780267715454,E2_mavproxy_udp_gps_input_negative,injection,6,37.5665381121154,126.9780480821241,20.0,5.993257945648749,,,,,,,3,12,37.5665381,126.978048,20.0,,,,2.0000000000000004,1.7763568394002505e-15,HEARTBEAT,EKF3 IMU0 MAG0 initial yaw alignment complete,STABILIZE,,,
2026-07-06T16:39:18.821408+00:00,8.466516971588135,E2_mavproxy_udp_gps_input_negative,injection,6,37.5665381121154,126.9780480821241,20.0,5.993257945648749,37.5665381,126.978048,20.0,5.987188570432289,0.007362569347262746,1,3,12,37.5665381,126.978048,20.0,0.0,0.0,-0.02,2.0000000000000004,1.7763568394002505e-15,GLOBAL_POSITION_INT,EKF3 IMU0 MAG0 initial yaw alignment complete,STABILIZE,,,
2026-07-06T16:39:18.830205+00:00,8.475311517715454,E2_mavproxy_udp_gps_input_negative,injection,6,37.5665381121154,126.9780480821241,20.0,5.993257945648749,,,,,,,3,12,37.5665381,126.978048,20.0,,,,2.0000000000000004,1.7763568394002505e-15,GPS_RAW_INT,EKF3 IMU0 MAG0 initial yaw alignment complete,STABILIZE,,,
2026-07-06T16:39:18.896786+00:00,8.54190182685852,E2_mavproxy_udp_gps_input_negative,injection,6,37.5665381121154,126.9780480821241,20.0,5.993257945648749,,,,,,,3,12,37.5665381,126.978048,20.0,,,,2.0000000000000004,1.7763568394002505e-15,HEARTBEAT,EKF3 IMU0 MAG0 initial yaw alignment complete,STABILIZE,,,
2026-07-06T16:39:19.018923+00:00,8.664067506790161,E2_mavproxy_udp_gps_input_negative,injection,7,37.56654446413464,126.97805609581145,20.0,6.992134120715214,37.5665444,126.978056,20.0,6.981120219999487,0.011053036504831852,1,3,12,37.5665381,126.978048,20.0,0.0,0.0,-0.02,1.9999999999999984,3.972054645195637e-15,GLOBAL_POSITION_INT,EKF3 IMU0 MAG0 initial yaw alignment complete,STABILIZE,,,
2026-07-06T16:39:19.019365+00:00,8.664465427398682,E2_mavproxy_udp_gps_input_negative,injection,7,37.56654446413464,126.97805609581145,20.0,6.992134120715214,,,,,,,3,12,37.5665444,126.978056,20.0,,,,1.9999999999999984,3.972054645195637e-15,GPS_RAW_INT,EKF3 IMU0 MAG0 initial yaw alignment complete,STABILIZE,,,
2026-07-06T16:39:19.084436+00:00,8.72954511642456,E2_mavproxy_udp_gps_input_negative,injection,7,37.56654446413464,126.97805609581145,20.0,6.992134120715214,,,,,,,3,12,37.5665444,126.978056,20.0,,,,1.9999999999999984,3.972054645195637e-15,HEARTBEAT,EKF3 IMU0 MAG0 initial yaw alignment complete,STABILIZE,,,
2026-07-06T16:39:19.231044+00:00,8.876156091690063,E2_mavproxy_udp_gps_input_negative,injection,7,37.56654446413464,126.97805609581145,20.0,6.992134120715214,37.5665444,126.978056,20.0,6.981120219999487,0.011053036504831852,1,3,12,37.5665444,126.978056,20.0,0.0,0.0,-0.02,1.9999999999999984,3.972054645195637e-15,GLOBAL_POSITION_INT,EKF3 IMU0 MAG0 initial yaw alignment complete,STABILIZE,,,
2026-07-06T16:39:19.231445+00:00,8.876548051834106,E2_mavproxy_udp_gps_input_negative,injection,7,37.56654446413464,126.97805609581145,20.0,6.992134120715214,,,,,,,3,12,37.5665444,126.978056,20.0,,,,1.9999999999999984,3.972054645195637e-15,GPS_RAW_INT,EKF3 IMU0 MAG0 initial yaw alignment complete,STABILIZE,,,
2026-07-06T16:39:19.285895+00:00,8.93100380897522,E2_mavproxy_udp_gps_input_negative,injection,7,37.56654446413464,126.97805609581145,20.0,6.992134120715214,,,,,,,3,12,37.5665444,126.978056,20.0,,,,1.9999999999999984,3.972054645195637e-15,HEARTBEAT,EKF3 IMU0 MAG0 initial yaw alignment complete,STABILIZE,,,
2026-07-06T16:39:19.424769+00:00,9.06987452507019,E2_mavproxy_udp_gps_input_negative,injection,7,37.56654446413464,126.97805609581145,20.0,6.992134120715214,37.5665444,126.978056,20.0,6.981120219999487,0.011053036504831852,1,3,12,37.5665444,126.978056,20.0,0.0,0.0,-0.02,1.9999999999999984,3.972054645195637e-15,GLOBAL_POSITION_INT,EKF3 IMU0 MAG0 initial yaw alignment complete,STABILIZE,,,
2026-07-06T16:39:19.425122+00:00,9.070220232009888,E2_mavproxy_udp_gps_input_negative,injection,7,37.56654446413464,126.97805609581145,20.0,6.992134120715214,,,,,,,3,12,37.5665444,126.978056,20.0,,,,1.9999999999999984,3.972054645195637e-15,GPS_RAW_INT,EKF3 IMU0 MAG0 initial yaw alignment complete,STABILIZE,,,
2026-07-06T16:39:19.484743+00:00,9.129844903945923,E2_mavproxy_udp_gps_input_negative,injection,8,37.56655081615387,126.9780641094988,20.0,7.991010253192881,,,,,,,3,12,37.5665444,126.978056,20.0,,,,2.000000000000001,5.0242958677880805e-15,HEARTBEAT,EKF3 IMU0 MAG0 initial yaw alignment complete,STABILIZE,,,
2026-07-06T16:39:19.619491+00:00,9.264601469039917,E2_mavproxy_udp_gps_input_negative,injection,8,37.56655081615387,126.9780641094988,20.0,7.991010253192881,37.5665508,126.9780641,20.0,7.989148161816393,0.001981754890039203,1,3,12,37.5665444,126.978056,20.0,0.0,0.0,-0.02,2.000000000000001,5.0242958677880805e-15,GLOBAL_POSITION_INT,EKF3 IMU0 MAG0 initial yaw alignment complete,STABILIZE,,,
2026-07-06T16:39:19.619915+00:00,9.26501727104187,E2_mavproxy_udp_gps_input_negative,injection,8,37.56655081615387,126.9780641094988,20.0,7.991010253192881,,,,,,,3,12,37.5665508,126.9780641,20.0,,,,2.000000000000001,5.0242958677880805e-15,GPS_RAW_INT,EKF3 IMU0 MAG0 initial yaw alignment complete,STABILIZE,,,
2026-07-06T16:39:19.713151+00:00,9.358258485794067,E2_mavproxy_udp_gps_input_negative,injection,8,37.56655081615387,126.9780641094988,20.0,7.991010253192881,,,,,,,3,12,37.5665508,126.9780641,20.0,,,,2.000000000000001,5.0242958677880805e-15,HEARTBEAT,EKF3 IMU0 MAG0 initial yaw alignment complete,STABILIZE,,,
2026-07-06T16:39:19.820795+00:00,9.465903282165527,E2_mavproxy_udp_gps_input_negative,injection,8,37.56655081615387,126.9780641094988,20.0,7.991010253192881,37.5665508,126.9780641,20.0,7.989148161816393,0.001981754890039203,1,3,12,37.5665508,126.9780641,20.0,0.0,0.0,-0.02,2.000000000000001,5.0242958677880805e-15,GLOBAL_POSITION_INT,EKF3 IMU0 MAG0 initial yaw alignment complete,STABILIZE,,,
2026-07-06T16:39:19.822624+00:00,9.467729568481445,E2_mavproxy_udp_gps_input_negative,injection,8,37.56655081615387,126.9780641094988,20.0,7.991010253192881,,,,,,,3,12,37.5665508,126.9780641,20.0,,,,2.000000000000001,5.0242958677880805e-15,GPS_RAW_INT,EKF3 IMU0 MAG0 initial yaw alignment complete,STABILIZE,,,
2026-07-06T16:39:19.888140+00:00,9.533251285552979,E2_mavproxy_udp_gps_input_negative,injection,8,37.56655081615387,126.9780641094988,20.0,7.991010253192881,,,,,,,3,12,37.5665508,126.9780641,20.0,,,,2.000000000000001,5.0242958677880805e-15,HEARTBEAT,EKF3 IMU0 MAG0 initial yaw alignment complete,STABILIZE,,,
2026-07-06T16:39:20.030510+00:00,9.67561388015747,E2_mavproxy_udp_gps_input_negative,injection,9,37.566557168173105,126.97807212318617,20.0,8.989886343967408,37.5665571,126.9780721,20.0,8.983081938897369,0.007851132416971527,1,3,12,37.5665508,126.9780641,20.0,0.0,0.0,-0.01,2.000000000000001,0.0,GLOBAL_POSITION_INT,EKF3 IMU0 MAG0 initial yaw alignment complete,STABILIZE,,,
2026-07-06T16:39:20.030879+00:00,9.675979137420654,E2_mavproxy_udp_gps_input_negative,injection,9,37.566557168173105,126.97807212318617,20.0,8.989886343967408,,,,,,,3,12,37.5665571,126.9780721,20.0,,,,2.000000000000001,0.0,GPS_RAW_INT,EKF3 IMU0 MAG0 initial yaw alignment complete,STABILIZE,,,
2026-07-06T16:39:20.031139+00:00,9.67623782157898,E2_mavproxy_udp_gps_input_negative,injection,9,37.566557168173105,126.97807212318617,20.0,8.989886343967408,,,,,,,3,12,37.5665571,126.9780721,20.0,,,,2.000000000000001,0.0,STATUSTEXT,EKF3 IMU0 origin set,STABILIZE,,,
2026-07-06T16:39:20.031179+00:00,9.676272630691528,E2_mavproxy_udp_gps_input_negative,injection,9,37.566557168173105,126.97807212318617,20.0,8.989886343967408,,,,,,,3,12,37.5665571,126.9780721,20.0,,,,2.000000000000001,0.0,STATUSTEXT,EKF3 IMU1 origin set,STABILIZE,,,
2026-07-06T16:39:20.068650+00:00,9.713758707046509,E2_mavproxy_udp_gps_input_negative,injection,9,37.566557168173105,126.97807212318617,20.0,8.989886343967408,,,,,,,3,12,37.5665571,126.9780721,20.0,,,,2.000000000000001,0.0,STATUSTEXT,Field Elevation Set: 20m,STABILIZE,,,
2026-07-06T16:39:20.087042+00:00,9.73215365409851,E2_mavproxy_udp_gps_input_negative,injection,9,37.566557168173105,126.97807212318617,20.0,8.989886343967408,,,,,,,3,12,37.5665571,126.9780721,20.0,,,,2.000000000000001,0.0,HEARTBEAT,Field Elevation Set: 20m,STABILIZE,,,
2026-07-06T16:39:20.227081+00:00,9.872188568115234,E2_mavproxy_udp_gps_input_negative,injection,9,37.566557168173105,126.97807212318617,20.0,8.989886343967408,37.5665571,126.9780721,20.0,8.983081938897369,0.007851132416971527,1,3,12,37.5665571,126.9780721,20.0,0.0,0.0,0.0,2.000000000000001,0.0,GLOBAL_POSITION_INT,Field Elevation Set: 20m,STABILIZE,,,
2026-07-06T16:39:20.227413+00:00,9.8725106716156,E2_mavproxy_udp_gps_input_negative,injection,9,37.566557168173105,126.97807212318617,20.0,8.989886343967408,,,,,,,3,12,37.5665571,126.9780721,20.0,,,,2.000000000000001,0.0,GPS_RAW_INT,Field Elevation Set: 20m,STABILIZE,,,
2026-07-06T16:39:20.294936+00:00,9.94004774093628,E2_mavproxy_udp_gps_input_negative,injection,9,37.566557168173105,126.97807212318617,20.0,8.989886343967408,,,,,,,3,12,37.5665571,126.9780721,20.0,,,,2.000000000000001,0.0,HEARTBEAT,Field Elevation Set: 20m,STABILIZE,,,
2026-07-06T16:39:20.432090+00:00,10.077199459075928,E2_mavproxy_udp_gps_input_negative,injection,9,37.566557168173105,126.97807212318617,20.0,8.989886343967408,37.5665571,126.9780721,20.0,8.983081938897369,0.007851132416971527,1,3,12,37.5665571,126.9780721,20.0,0.0,0.0,0.0,2.000000000000001,0.0,GLOBAL_POSITION_INT,Field Elevation Set: 20m,STABILIZE,,,
2026-07-06T16:39:20.432493+00:00,10.07759404182434,E2_mavproxy_udp_gps_input_negative,injection,9,37.566557168173105,126.97807212318617,20.0,8.989886343967408,,,,,,,3,12,37.5665571,126.9780721,20.0,,,,2.000000000000001,0.0,GPS_RAW_INT,Field Elevation Set: 20m,STABILIZE,,,
2026-07-06T16:39:20.501326+00:00,10.146435022354126,E2_mavproxy_udp_gps_input_negative,injection,9,37.566557168173105,126.97807212318617,20.0,8.989886343967408,,,,,,,3,12,37.5665571,126.9780721,20.0,,,,2.000000000000001,0.0,HEARTBEAT,Field Elevation Set: 20m,STABILIZE,,,
2026-07-06T16:39:20.630977+00:00,10.276088237762451,E2_mavproxy_udp_gps_input_negative,injection,10,37.56656352019235,126.97808013687352,20.0,9.988762391826127,37.5665635,126.9780801,20.0,9.984876688081394,0.003950136384100554,1,3,12,37.5665571,126.9780721,20.0,0.0,0.0,0.0,1.9999999999999984,5.0242958677880805e-15,GLOBAL_POSITION_INT,Field Elevation Set: 20m,STABILIZE,,,
2026-07-06T16:39:20.631352+00:00,10.276451349258423,E2_mavproxy_udp_gps_input_negative,injection,10,37.56656352019235,126.97808013687352,20.0,9.988762391826127,,,,,,,3,12,37.5665635,126.9780801,20.0,,,,1.9999999999999984,5.0242958677880805e-15,GPS_RAW_INT,Field Elevation Set: 20m,STABILIZE,,,
2026-07-06T16:39:20.687999+00:00,10.333111763000488,E2_mavproxy_udp_gps_input_negative,injection,10,37.56656352019235,126.97808013687352,20.0,9.988762391826127,,,,,,,3,12,37.5665635,126.9780801,20.0,,,,1.9999999999999984,5.0242958677880805e-15,HEARTBEAT,Field Elevation Set: 20m,STABILIZE,,,
2026-07-06T16:39:20.829403+00:00,10.474518299102783,E2_mavproxy_udp_gps_input_negative,injection,10,37.56656352019235,126.97808013687352,20.0,9.988762391826127,37.5665635,126.9780801,20.0,9.984876688081394,0.003950136384100554,1,3,12,37.5665635,126.9780801,20.0,0.0,0.0,0.0,1.9999999999999984,5.0242958677880805e-15,GLOBAL_POSITION_INT,Field Elevation Set: 20m,STABILIZE,,,
2026-07-06T16:39:20.829839+00:00,10.474940776824951,E2_mavproxy_udp_gps_input_negative,injection,10,37.56656352019235,126.97808013687352,20.0,9.988762391826127,,,,,,,3,12,37.5665635,126.9780801,20.0,,,,1.9999999999999984,5.0242958677880805e-15,GPS_RAW_INT,Field Elevation Set: 20m,STABILIZE,,,
2026-07-06T16:39:20.885414+00:00,10.530522346496582,E2_mavproxy_udp_gps_input_negative,injection,10,37.56656352019235,126.97808013687352,20.0,9.988762391826127,,,,,,,3,12,37.5665635,126.9780801,20.0,,,,1.9999999999999984,5.0242958677880805e-15,HEARTBEAT,Field Elevation Set: 20m,STABILIZE,,,
2026-07-06T16:39:21.022898+00:00,10.668005228042603,E2_mavproxy_udp_gps_input_negative,injection,10,37.56656352019235,126.97808013687352,20.0,9.988762391826127,37.5665635,126.9780801,20.0,9.984876688081394,0.003950136384100554,1,3,12,37.5665635,126.9780801,20.0,0.0,0.0,0.0,1.9999999999999984,5.0242958677880805e-15,GLOBAL_POSITION_INT,Field Elevation Set: 20m,STABILIZE,,,
2026-07-06T16:39:21.023206+00:00,10.6683030128479,E2_mavproxy_udp_gps_input_negative,injection,10,37.56656352019235,126.97808013687352,20.0,9.988762391826127,,,,,,,3,12,37.5665635,126.9780801,20.0,,,,1.9999999999999984,5.0242958677880805e-15,GPS_RAW_INT,Field Elevation Set: 20m,STABILIZE,,,
2026-07-06T16:39:21.110721+00:00,10.75583815574646,E2_mavproxy_udp_gps_input_negative,injection,11,37.56656987221158,126.97808815056086,20.0,10.987638396537346,,,,,,,3,12,37.5665635,126.9780801,20.0,,,,1.9999999999999998,3.552713678800501e-15,HEARTBEAT,Field Elevation Set: 20m,STABILIZE,,,
2026-07-06T16:39:21.281871+00:00,10.926979541778564,E2_mavproxy_udp_gps_input_negative,injection,11,37.56656987221158,126.97808815056086,20.0,10.987638396537346,37.5665698,126.9780881,20.0,10.978809821102969,0.00918329108405013,1,3,12,37.5665635,126.9780801,20.0,0.0,0.0,0.0,1.9999999999999998,3.552713678800501e-15,GLOBAL_POSITION_INT,Field Elevation Set: 20m,STABILIZE,,,
2026-07-06T16:39:21.282539+00:00,10.927643537521362,E2_mavproxy_udp_gps_input_negative,injection,11,37.56656987221158,126.97808815056086,20.0,10.987638396537346,,,,,,,3,12,37.5665698,126.9780881,20.0,,,,1.9999999999999998,3.552713678800501e-15,GPS_RAW_INT,Field Elevation Set: 20m,STABILIZE,,,
2026-07-06T16:39:21.300385+00:00,10.945494413375854,E2_mavproxy_udp_gps_input_negative,injection,11,37.56656987221158,126.97808815056086,20.0,10.987638396537346,,,,,,,3,12,37.5665698,126.9780881,20.0,,,,1.9999999999999998,3.552713678800501e-15,HEARTBEAT,Field Elevation Set: 20m,STABILIZE,,,
2026-07-06T16:39:21.431558+00:00,11.076667308807373,E2_mavproxy_udp_gps_input_negative,injection,11,37.56656987221158,126.97808815056086,20.0,10.987638396537346,37.5665698,126.9780881,20.0,10.978809821102969,0.00918329108405013,1,3,12,37.5665698,126.9780881,20.0,0.0,0.0,0.0,1.9999999999999998,3.552713678800501e-15,GLOBAL_POSITION_INT,Field Elevation Set: 20m,STABILIZE,,,
2026-07-06T16:39:21.433386+00:00,11.078489780426025,E2_mavproxy_udp_gps_input_negative,injection,11,37.56656987221158,126.97808815056086,20.0,10.987638396537346,,,,,,,3,12,37.5665698,126.9780881,20.0,,,,1.9999999999999998,3.552713678800501e-15,GPS_RAW_INT,Field Elevation Set: 20m,STABILIZE,,,
2026-07-06T16:39:21.497856+00:00,11.142966985702515,E2_mavproxy_udp_gps_input_negative,injection,11,37.56656987221158,126.97808815056086,20.0,10.987638396537346,,,,,,,3,12,37.5665698,126.9780881,20.0,,,,1.9999999999999998,3.552713678800501e-15,HEARTBEAT,Field Elevation Set: 20m,STABILIZE,,,
2026-07-06T16:39:21.689382+00:00,11.334490776062012,E2_mavproxy_udp_gps_input_negative,injection,12,37.566576224230815,126.97809616424821,20.0,11.986514358659738,,,,,,,3,12,37.5665698,126.9780881,20.0,,,,2.000000000000001,3.552713678800501e-15,HEARTBEAT,Field Elevation Set: 20m,STABILIZE,,,
2026-07-06T16:39:21.744343+00:00,11.389451742172241,E2_mavproxy_udp_gps_input_negative,injection,12,37.566576224230815,126.97809616424821,20.0,11.986514358659738,37.5665762,126.9780961,20.0,11.980605206554753,0.006271034229535233,1,3,12,37.5665698,126.9780881,20.0,0.0,0.0,0.0,2.000000000000001,3.552713678800501e-15,GLOBAL_POSITION_INT,Field Elevation Set: 20m,STABILIZE,,,
2026-07-06T16:39:21.745886+00:00,11.390991449356079,E2_mavproxy_udp_gps_input_negative,injection,12,37.566576224230815,126.97809616424821,20.0,11.986514358659738,,,,,,,3,12,37.5665762,126.9780961,20.0,,,,2.000000000000001,3.552713678800501e-15,GPS_RAW_INT,Field Elevation Set: 20m,STABILIZE,,,
2026-07-06T16:39:21.896870+00:00,11.54197883605957,E2_mavproxy_udp_gps_input_negative,injection,12,37.566576224230815,126.97809616424821,20.0,11.986514358659738,,,,,,,3,12,37.5665762,126.9780961,20.0,,,,2.000000000000001,3.552713678800501e-15,HEARTBEAT,Field Elevation Set: 20m,STABILIZE,,,
2026-07-06T16:39:22.010497+00:00,11.655607223510742,E2_mavproxy_udp_gps_input_negative,injection,12,37.566576224230815,126.97809616424821,20.0,11.986514358659738,37.5665762,126.9780961,20.0,11.980605206554753,0.006271034229535233,1,3,12,37.5665762,126.9780961,20.0,0.0,0.0,0.0,2.000000000000001,3.552713678800501e-15,GLOBAL_POSITION_INT,Field Elevation Set: 20m,STABILIZE,,,
2026-07-06T16:39:22.010895+00:00,11.65599536895752,E2_mavproxy_udp_gps_input_negative,injection,12,37.566576224230815,126.97809616424821,20.0,11.986514358659738,,,,,,,3,12,37.5665762,126.9780961,20.0,,,,2.000000000000001,3.552713678800501e-15,GPS_RAW_INT,Field Elevation Set: 20m,STABILIZE,,,
2026-07-06T16:39:22.116487+00:00,11.761600971221924,E2_mavproxy_udp_gps_input_negative,injection,12,37.566576224230815,126.97809616424821,20.0,11.986514358659738,,,,,,,3,12,37.5665762,126.9780961,20.0,,,,2.000000000000001,3.552713678800501e-15,HEARTBEAT,Field Elevation Set: 20m,STABILIZE,,,
2026-07-06T16:39:22.279098+00:00,11.924205541610718,E2_mavproxy_udp_gps_input_negative,injection,13,37.56658257625005,126.97810417793556,20.0,12.985390278193282,37.5665825,126.9781041,20.0,12.974537855381545,0.010911986608970164,1,3,12,37.5665762,126.9780961,20.0,0.0,0.0,0.0,2.000000000000001,0.0,GLOBAL_POSITION_INT,Field Elevation Set: 20m,STABILIZE,,,
2026-07-06T16:39:22.279498+00:00,11.924598455429077,E2_mavproxy_udp_gps_input_negative,injection,13,37.56658257625005,126.97810417793556,20.0,12.985390278193282,,,,,,,3,12,37.5665825,126.9781041,20.0,,,,2.000000000000001,0.0,GPS_RAW_INT,Field Elevation Set: 20m,STABILIZE,,,
2026-07-06T16:39:22.288793+00:00,11.933901071548462,E2_mavproxy_udp_gps_input_negative,injection,13,37.56658257625005,126.97810417793556,20.0,12.985390278193282,,,,,,,3,12,37.5665825,126.9781041,20.0,,,,2.000000000000001,0.0,HEARTBEAT,Field Elevation Set: 20m,STABILIZE,,,
2026-07-06T16:39:22.504240+00:00,12.149348974227905,E2_mavproxy_udp_gps_input_negative,injection,13,37.56658257625005,126.97810417793556,20.0,12.985390278193282,,,,,,,3,12,37.5665825,126.9781041,20.0,,,,2.000000000000001,0.0,HEARTBEAT,Field Elevation Set: 20m,STABILIZE,,,
2026-07-06T16:39:22.504359+00:00,12.14945387840271,E2_mavproxy_udp_gps_input_negative,injection,13,37.56658257625005,126.97810417793556,20.0,12.985390278193282,37.5665825,126.9781041,20.0,12.974537855381545,0.010911986608970164,1,3,12,37.5665825,126.9781041,20.0,0.0,0.0,0.0,2.000000000000001,0.0,GLOBAL_POSITION_INT,Field Elevation Set: 20m,STABILIZE,,,
2026-07-06T16:39:22.504644+00:00,12.149737358093262,E2_mavproxy_udp_gps_input_negative,injection,13,37.56658257625005,126.97810417793556,20.0,12.985390278193282,,,,,,,3,12,37.5665825,126.9781041,20.0,,,,2.000000000000001,0.0,GPS_RAW_INT,Field Elevation Set: 20m,STABILIZE,,,
2026-07-06T16:39:22.701073+00:00,12.346182584762573,E2_mavproxy_udp_gps_input_negative,injection,14,37.56658892826928,126.97811219162291,20.0,13.984266155137986,,,,,,,3,12,37.5665825,126.9781041,20.0,,,,1.999999999999996,1.0048591735576161e-14,HEARTBEAT,Field Elevation Set: 20m,STABILIZE,,,
2026-07-06T16:39:22.748000+00:00,12.393106698989868,E2_mavproxy_udp_gps_input_negative,injection,14,37.56658892826928,126.97811219162291,20.0,13.984266155137986,37.5665889,126.9781121,20.0,13.976333647795823,0.008665692357385955,1,3,12,37.5665825,126.9781041,20.0,0.0,0.0,0.0,1.999999999999996,1.0048591735576161e-14,GLOBAL_POSITION_INT,Field Elevation Set: 20m,STABILIZE,,,
2026-07-06T16:39:22.764837+00:00,12.409942626953125,E2_mavproxy_udp_gps_input_negative,injection,14,37.56658892826928,126.97811219162291,20.0,13.984266155137986,,,,,,,3,12,37.5665889,126.9781121,20.0,,,,1.999999999999996,1.0048591735576161e-14,GPS_RAW_INT,Field Elevation Set: 20m,STABILIZE,,,
2026-07-06T16:39:22.886068+00:00,12.531176805496216,E2_mavproxy_udp_gps_input_negative,injection,14,37.56658892826928,126.97811219162291,20.0,13.984266155137986,,,,,,,3,12,37.5665889,126.9781121,20.0,,,,1.999999999999996,1.0048591735576161e-14,HEARTBEAT,Field Elevation Set: 20m,STABILIZE,,,
