timestamp,elapsed_s,experiment,phase,sample_index,target_lat,target_lon,target_alt,target_drift_m,obs_lat,obs_lon,obs_alt,official_drift_m,target_error_m,reflected,gps_fix_type,gps_satellites,gps_raw_lat,gps_raw_lon,gps_raw_alt,vn,ve,vd,commanded_speed_mps,commanded_accel_mps2,message_type,status_text,mode,mission_seq,fence_breach_status,fence_breach_count,fence_breach_type
2026-07-07T02:41:25.279652+00:00,0.017388105392456055,E20_mission_edit,warmup,0,37.5665,126.978,20.0,0.0,,,,,,,,,,,,,,,0.0,0.0,STATUSTEXT,GPS 1: detected MAV,,,,,
2026-07-07T02:41:25.291743+00:00,0.029480934143066406,E20_mission_edit,warmup,0,37.5665,126.978,20.0,0.0,,,,,,,,,,,,,,,0.0,0.0,HEARTBEAT,GPS 1: detected MAV,STABILIZE,,,,
2026-07-07T02:41:25.291898+00:00,0.029616832733154297,E20_mission_edit,warmup,0,37.5665,126.978,20.0,0.0,37.5665,126.978,20.0,0.0,0.0,0,,,,,,0.0,0.0,-0.01,0.0,0.0,GLOBAL_POSITION_INT,GPS 1: detected MAV,STABILIZE,,,,
2026-07-07T02:41:25.292022+00:00,0.029738187789916992,E20_mission_edit,warmup,0,37.5665,126.978,20.0,0.0,,,,,,,,,,,,,,,0.0,0.0,MISSION_CURRENT,GPS 1: detected MAV,STABILIZE,0,,,
2026-07-07T02:41:25.292288+00:00,0.030007600784301758,E20_mission_edit,warmup,0,37.5665,126.978,20.0,0.0,,,,,,,3,12,37.5665,126.978,20.0,,,,0.0,0.0,GPS_RAW_INT,GPS 1: detected MAV,STABILIZE,0,,,
2026-07-07T02:41:25.292332+00:00,0.030046939849853516,E20_mission_edit,warmup,0,37.5665,126.978,20.0,0.0,,,,,,,3,12,37.5665,126.978,20.0,,,,0.0,0.0,FENCE_STATUS,GPS 1: detected MAV,STABILIZE,0,0,0,0
2026-07-07T02:41:25.490955+00:00,0.22869110107421875,E20_mission_edit,warmup,0,37.5665,126.978,20.0,0.0,,,,,,,3,12,37.5665,126.978,20.0,,,,0.0,0.0,HEARTBEAT,GPS 1: detected MAV,STABILIZE,0,0,0,0
2026-07-07T02:41:25.491094+00:00,0.22881007194519043,E20_mission_edit,warmup,0,37.5665,126.978,20.0,0.0,37.5665,126.978,20.0,0.0,0.0,0,3,12,37.5665,126.978,20.0,0.0,0.0,-0.02,0.0,0.0,GLOBAL_POSITION_INT,GPS 1: detected MAV,STABILIZE,0,0,0,0
2026-07-07T02:41:25.491208+00:00,0.22892236709594727,E20_mission_edit,warmup,0,37.5665,126.978,20.0,0.0,,,,,,,3,12,37.5665,126.978,20.0,,,,0.0,0.0,MISSION_CURRENT,GPS 1: detected MAV,STABILIZE,0,0,0,0
2026-07-07T02:41:25.491396+00:00,0.2291123867034912,E20_mission_edit,warmup,0,37.5665,126.978,20.0,0.0,,,,,,,3,12,37.5665,126.978,20.0,,,,0.0,0.0,GPS_RAW_INT,GPS 1: detected MAV,STABILIZE,0,0,0,0
2026-07-07T02:41:25.491434+00:00,0.22914814949035645,E20_mission_edit,warmup,0,37.5665,126.978,20.0,0.0,,,,,,,3,12,37.5665,126.978,20.0,,,,0.0,0.0,FENCE_STATUS,GPS 1: detected MAV,STABILIZE,0,0,0,0
2026-07-07T02:41:25.689731+00:00,0.42746734619140625,E20_mission_edit,warmup,0,37.5665,126.978,20.0,0.0,,,,,,,3,12,37.5665,126.978,20.0,,,,0.0,0.0,HEARTBEAT,GPS 1: detected MAV,STABILIZE,0,0,0,0
2026-07-07T02:41:25.689863+00:00,0.427579402923584,E20_mission_edit,warmup,0,37.5665,126.978,20.0,0.0,37.5665,126.978,20.0,0.0,0.0,0,3,12,37.5665,126.978,20.0,0.0,0.0,-0.02,0.0,0.0,GLOBAL_POSITION_INT,GPS 1: detected MAV,STABILIZE,0,0,0,0
2026-07-07T02:41:25.689969+00:00,0.42768430709838867,E20_mission_edit,warmup,0,37.5665,126.978,20.0,0.0,,,,,,,3,12,37.5665,126.978,20.0,,,,0.0,0.0,MISSION_CURRENT,GPS 1: detected MAV,STABILIZE,0,0,0,0
2026-07-07T02:41:25.690191+00:00,0.42791223526000977,E20_mission_edit,warmup,0,37.5665,126.978,20.0,0.0,,,,,,,3,12,37.5665,126.978,20.0,,,,0.0,0.0,GPS_RAW_INT,GPS 1: detected MAV,STABILIZE,0,0,0,0
2026-07-07T02:41:25.690237+00:00,0.4279515743255615,E20_mission_edit,warmup,0,37.5665,126.978,20.0,0.0,,,,,,,3,12,37.5665,126.978,20.0,,,,0.0,0.0,FENCE_STATUS,GPS 1: detected MAV,STABILIZE,0,0,0,0
2026-07-07T02:41:25.887838+00:00,0.6255753040313721,E20_mission_edit,warmup,0,37.5665,126.978,20.0,0.0,,,,,,,3,12,37.5665,126.978,20.0,,,,0.0,0.0,HEARTBEAT,GPS 1: detected MAV,STABILIZE,0,0,0,0
2026-07-07T02:41:25.887975+00:00,0.6256904602050781,E20_mission_edit,warmup,0,37.5665,126.978,20.0,0.0,37.5665,126.978,20.0,0.0,0.0,0,3,12,37.5665,126.978,20.0,0.0,0.0,-0.02,0.0,0.0,GLOBAL_POSITION_INT,GPS 1: detected MAV,STABILIZE,0,0,0,0
2026-07-07T02:41:25.888092+00:00,0.6258118152618408,E20_mission_edit,warmup,0,37.5665,126.978,20.0,0.0,,,,,,,3,12,37.5665,126.978,20.0,,,,0.0,0.0,MISSION_CURRENT,GPS 1: detected MAV,STABILIZE,0,0,0,0
2026-07-07T02:41:25.888307+00:00,0.6260280609130859,E20_mission_edit,warmup,0,37.5665,126.978,20.0,0.0,,,,,,,3,12,37.5665,126.978,20.0,,,,0.0,0.0,GPS_RAW_INT,GPS 1: detected MAV,STABILIZE,0,0,0,0
2026-07-07T02:41:25.888378+00:00,0.6260964870452881,E20_mission_edit,warmup,0,37.5665,126.978,20.0,0.0,,,,,,,3,12,37.5665,126.978,20.0,,,,0.0,0.0,FENCE_STATUS,GPS 1: detected MAV,STABILIZE,0,0,0,0
2026-07-07T02:41:26.091595+00:00,0.8293318748474121,E20_mission_edit,warmup,0,37.5665,126.978,20.0,0.0,,,,,,,3,12,37.5665,126.978,20.0,,,,0.0,0.0,HEARTBEAT,GPS 1: detected MAV,STABILIZE,0,0,0,0
2026-07-07T02:41:26.091795+00:00,0.8295211791992188,E20_mission_edit,warmup,0,37.5665,126.978,20.0,0.0,37.5665,126.978,20.0,0.0,0.0,0,3,12,37.5665,126.978,20.0,0.0,0.0,-0.03,0.0,0.0,GLOBAL_POSITION_INT,GPS 1: detected MAV,STABILIZE,0,0,0,0
2026-07-07T02:41:26.092037+00:00,0.8297572135925293,E20_mission_edit,warmup,0,37.5665,126.978,20.0,0.0,,,,,,,3,12,37.5665,126.978,20.0,,,,0.0,0.0,MISSION_CURRENT,GPS 1: detected MAV,STABILIZE,0,0,0,0
2026-07-07T02:41:26.092276+00:00,0.8299963474273682,E20_mission_edit,warmup,0,37.5665,126.978,20.0,0.0,,,,,,,3,12,37.5665,126.978,20.0,,,,0.0,0.0,GPS_RAW_INT,GPS 1: detected MAV,STABILIZE,0,0,0,0
2026-07-07T02:41:26.092320+00:00,0.8300349712371826,E20_mission_edit,warmup,0,37.5665,126.978,20.0,0.0,,,,,,,3,12,37.5665,126.978,20.0,,,,0.0,0.0,FENCE_STATUS,GPS 1: detected MAV,STABILIZE,0,0,0,0
2026-07-07T02:41:26.289981+00:00,1.0277190208435059,E20_mission_edit,warmup,0,37.5665,126.978,20.0,0.0,,,,,,,3,12,37.5665,126.978,20.0,,,,0.0,0.0,HEARTBEAT,GPS 1: detected MAV,STABILIZE,0,0,0,0
2026-07-07T02:41:26.290164+00:00,1.0278897285461426,E20_mission_edit,warmup,0,37.5665,126.978,20.0,0.0,37.5665,126.978,20.0,0.0,0.0,0,3,12,37.5665,126.978,20.0,0.0,0.0,-0.03,0.0,0.0,GLOBAL_POSITION_INT,GPS 1: detected MAV,STABILIZE,0,0,0,0
2026-07-07T02:41:26.290328+00:00,1.0280506610870361,E20_mission_edit,warmup,0,37.5665,126.978,20.0,0.0,,,,,,,3,12,37.5665,126.978,20.0,,,,0.0,0.0,MISSION_CURRENT,GPS 1: detected MAV,STABILIZE,0,0,0,0
2026-07-07T02:41:26.290550+00:00,1.028271198272705,E20_mission_edit,warmup,0,37.5665,126.978,20.0,0.0,,,,,,,3,12,37.5665,126.978,20.0,,,,0.0,0.0,GPS_RAW_INT,GPS 1: detected MAV,STABILIZE,0,0,0,0
2026-07-07T02:41:26.290608+00:00,1.0283262729644775,E20_mission_edit,warmup,0,37.5665,126.978,20.0,0.0,,,,,,,3,12,37.5665,126.978,20.0,,,,0.0,0.0,FENCE_STATUS,GPS 1: detected MAV,STABILIZE,0,0,0,0
2026-07-07T02:41:26.488205+00:00,1.2259483337402344,E20_mission_edit,warmup,0,37.5665,126.978,20.0,0.0,,,,,,,3,12,37.5665,126.978,20.0,,,,0.0,0.0,HEARTBEAT,GPS 1: detected MAV,STABILIZE,0,0,0,0
2026-07-07T02:41:26.488374+00:00,1.2260961532592773,E20_mission_edit,warmup,0,37.5665,126.978,20.0,0.0,37.5665,126.978,20.0,0.0,0.0,0,3,12,37.5665,126.978,20.0,0.0,0.0,-0.03,0.0,0.0,GLOBAL_POSITION_INT,GPS 1: detected MAV,STABILIZE,0,0,0,0
2026-07-07T02:41:26.488494+00:00,1.2262110710144043,E20_mission_edit,warmup,0,37.5665,126.978,20.0,0.0,,,,,,,3,12,37.5665,126.978,20.0,,,,0.0,0.0,MISSION_CURRENT,GPS 1: detected MAV,STABILIZE,0,0,0,0
2026-07-07T02:41:26.488690+00:00,1.2264068126678467,E20_mission_edit,warmup,0,37.5665,126.978,20.0,0.0,,,,,,,3,12,37.5665,126.978,20.0,,,,0.0,0.0,GPS_RAW_INT,GPS 1: detected MAV,STABILIZE,0,0,0,0
2026-07-07T02:41:26.488730+00:00,1.2264440059661865,E20_mission_edit,warmup,0,37.5665,126.978,20.0,0.0,,,,,,,3,12,37.5665,126.978,20.0,,,,0.0,0.0,FENCE_STATUS,GPS 1: detected MAV,STABILIZE,0,0,0,0
2026-07-07T02:41:26.686552+00:00,1.4242887496948242,E20_mission_edit,warmup,0,37.5665,126.978,20.0,0.0,,,,,,,3,12,37.5665,126.978,20.0,,,,0.0,0.0,HEARTBEAT,GPS 1: detected MAV,STABILIZE,0,0,0,0
2026-07-07T02:41:26.686822+00:00,1.4245450496673584,E20_mission_edit,warmup,0,37.5665,126.978,20.0,0.0,37.5665,126.978,20.0,0.0,0.0,0,3,12,37.5665,126.978,20.0,0.0,0.0,-0.04,0.0,0.0,GLOBAL_POSITION_INT,GPS 1: detected MAV,STABILIZE,0,0,0,0
2026-07-07T02:41:26.686939+00:00,1.4246556758880615,E20_mission_edit,warmup,0,37.5665,126.978,20.0,0.0,,,,,,,3,12,37.5665,126.978,20.0,,,,0.0,0.0,MISSION_CURRENT,GPS 1: detected MAV,STABILIZE,0,0,0,0
2026-07-07T02:41:26.687225+00:00,1.4249451160430908,E20_mission_edit,warmup,0,37.5665,126.978,20.0,0.0,,,,,,,3,12,37.5665,126.978,20.0,,,,0.0,0.0,GPS_RAW_INT,GPS 1: detected MAV,STABILIZE,0,0,0,0
2026-07-07T02:41:26.687298+00:00,1.425016164779663,E20_mission_edit,warmup,0,37.5665,126.978,20.0,0.0,,,,,,,3,12,37.5665,126.978,20.0,,,,0.0,0.0,FENCE_STATUS,GPS 1: detected MAV,STABILIZE,0,0,0,0
2026-07-07T02:41:26.890664+00:00,1.628399133682251,E20_mission_edit,warmup,0,37.5665,126.978,20.0,0.0,,,,,,,3,12,37.5665,126.978,20.0,,,,0.0,0.0,HEARTBEAT,GPS 1: detected MAV,STABILIZE,0,0,0,0
2026-07-07T02:41:26.890826+00:00,1.628549337387085,E20_mission_edit,warmup,0,37.5665,126.978,20.0,0.0,37.5665,126.978,20.0,0.0,0.0,0,3,12,37.5665,126.978,20.0,0.0,0.0,-0.04,0.0,0.0,GLOBAL_POSITION_INT,GPS 1: detected MAV,STABILIZE,0,0,0,0
2026-07-07T02:41:26.890995+00:00,1.6287176609039307,E20_mission_edit,warmup,0,37.5665,126.978,20.0,0.0,,,,,,,3,12,37.5665,126.978,20.0,,,,0.0,0.0,MISSION_CURRENT,GPS 1: detected MAV,STABILIZE,0,0,0,0
2026-07-07T02:41:26.891260+00:00,1.6289803981781006,E20_mission_edit,warmup,0,37.5665,126.978,20.0,0.0,,,,,,,3,12,37.5665,126.978,20.0,,,,0.0,0.0,GPS_RAW_INT,GPS 1: detected MAV,STABILIZE,0,0,0,0
2026-07-07T02:41:26.891305+00:00,1.6290194988250732,E20_mission_edit,warmup,0,37.5665,126.978,20.0,0.0,,,,,,,3,12,37.5665,126.978,20.0,,,,0.0,0.0,FENCE_STATUS,GPS 1: detected MAV,STABILIZE,0,0,0,0
2026-07-07T02:41:27.089042+00:00,1.8267772197723389,E20_mission_edit,warmup,0,37.5665,126.978,20.0,0.0,,,,,,,3,12,37.5665,126.978,20.0,,,,0.0,0.0,HEARTBEAT,GPS 1: detected MAV,STABILIZE,0,0,0,0
2026-07-07T02:41:27.089201+00:00,1.826923131942749,E20_mission_edit,warmup,0,37.5665,126.978,20.0,0.0,37.5665,126.978,20.0,0.0,0.0,0,3,12,37.5665,126.978,20.0,0.0,0.0,-0.04,0.0,0.0,GLOBAL_POSITION_INT,GPS 1: detected MAV,STABILIZE,0,0,0,0
2026-07-07T02:41:27.089318+00:00,1.827033519744873,E20_mission_edit,warmup,0,37.5665,126.978,20.0,0.0,,,,,,,3,12,37.5665,126.978,20.0,,,,0.0,0.0,MISSION_CURRENT,GPS 1: detected MAV,STABILIZE,0,0,0,0
2026-07-07T02:41:27.089505+00:00,1.8272218704223633,E20_mission_edit,warmup,0,37.5665,126.978,20.0,0.0,,,,,,,3,12,37.5665,126.978,20.0,,,,0.0,0.0,GPS_RAW_INT,GPS 1: detected MAV,STABILIZE,0,0,0,0
2026-07-07T02:41:27.089543+00:00,1.8272571563720703,E20_mission_edit,warmup,0,37.5665,126.978,20.0,0.0,,,,,,,3,12,37.5665,126.978,20.0,,,,0.0,0.0,FENCE_STATUS,GPS 1: detected MAV,STABILIZE,0,0,0,0
2026-07-07T02:41:27.287311+00:00,2.0250468254089355,E20_mission_edit,warmup,0,37.5665,126.978,20.0,0.0,,,,,,,3,12,37.5665,126.978,20.0,,,,0.0,0.0,HEARTBEAT,GPS 1: detected MAV,STABILIZE,0,0,0,0
2026-07-07T02:41:27.287459+00:00,2.0251781940460205,E20_mission_edit,warmup,0,37.5665,126.978,20.0,0.0,37.5665,126.978,20.0,0.0,0.0,0,3,12,37.5665,126.978,20.0,0.0,0.0,-0.04,0.0,0.0,GLOBAL_POSITION_INT,GPS 1: detected MAV,STABILIZE,0,0,0,0
2026-07-07T02:41:27.287650+00:00,2.0253708362579346,E20_mission_edit,warmup,0,37.5665,126.978,20.0,0.0,,,,,,,3,12,37.5665,126.978,20.0,,,,0.0,0.0,MISSION_CURRENT,GPS 1: detected MAV,STABILIZE,0,0,0,0
2026-07-07T02:41:27.287853+00:00,2.025569438934326,E20_mission_edit,warmup,0,37.5665,126.978,20.0,0.0,,,,,,,3,12,37.5665,126.978,20.0,,,,0.0,0.0,GPS_RAW_INT,GPS 1: detected MAV,STABILIZE,0,0,0,0
2026-07-07T02:41:27.287890+00:00,2.025603771209717,E20_mission_edit,warmup,0,37.5665,126.978,20.0,0.0,,,,,,,3,12,37.5665,126.978,20.0,,,,0.0,0.0,FENCE_STATUS,GPS 1: detected MAV,STABILIZE,0,0,0,0
2026-07-07T02:41:27.491185+00:00,2.2289223670959473,E20_mission_edit,warmup,0,37.5665,126.978,20.0,0.0,,,,,,,3,12,37.5665,126.978,20.0,,,,0.0,0.0,HEARTBEAT,GPS 1: detected MAV,STABILIZE,0,0,0,0
2026-07-07T02:41:44.692755+00:00,19.430492639541626,E20_mission_edit,mission_edit_observe,0,,,,,,,,,,,3,12,37.5665,126.978,20.0,,,,,,HEARTBEAT,GPS 1: detected MAV,AUTO,0,0,0,0
2026-07-07T02:41:44.692891+00:00,19.430606365203857,E20_mission_edit,mission_edit_observe,0,,,,,0.0,0.0,0.0,13173877.35106569,,,3,12,37.5665,126.978,20.0,-0.01,0.01,0.0,,,GLOBAL_POSITION_INT,GPS 1: detected MAV,AUTO,0,0,0,0
2026-07-07T02:41:44.693045+00:00,19.430766582489014,E20_mission_edit,mission_edit_observe,0,,,,,,,,,,,3,12,37.5665,126.978,20.0,,,,,,MISSION_CURRENT,GPS 1: detected MAV,AUTO,0,0,0,0
2026-07-07T02:41:44.693246+00:00,19.430965423583984,E20_mission_edit,mission_edit_observe,0,,,,,,,,,,,1,0,0.0,0.0,0.0,,,,,,GPS_RAW_INT,GPS 1: detected MAV,AUTO,0,0,0,0
2026-07-07T02:41:44.693287+00:00,19.43100118637085,E20_mission_edit,mission_edit_observe,0,,,,,,,,,,,1,0,0.0,0.0,0.0,,,,,,FENCE_STATUS,GPS 1: detected MAV,AUTO,0,0,0,0
2026-07-07T02:41:44.891006+00:00,19.62874174118042,E20_mission_edit,mission_edit_observe,0,,,,,,,,,,,1,0,0.0,0.0,0.0,,,,,,HEARTBEAT,GPS 1: detected MAV,AUTO,0,0,0,0
2026-07-07T02:41:44.891135+00:00,19.62885069847107,E20_mission_edit,mission_edit_observe,0,,,,,0.0,0.0,0.0,13173877.35106569,,,1,0,0.0,0.0,0.0,-0.01,0.01,0.0,,,GLOBAL_POSITION_INT,GPS 1: detected MAV,AUTO,0,0,0,0
2026-07-07T02:41:44.891242+00:00,19.628956079483032,E20_mission_edit,mission_edit_observe,0,,,,,,,,,,,1,0,0.0,0.0,0.0,,,,,,MISSION_CURRENT,GPS 1: detected MAV,AUTO,0,0,0,0
2026-07-07T02:41:44.891422+00:00,19.62913751602173,E20_mission_edit,mission_edit_observe,0,,,,,,,,,,,1,0,0.0,0.0,0.0,,,,,,GPS_RAW_INT,GPS 1: detected MAV,AUTO,0,0,0,0
2026-07-07T02:41:44.891456+00:00,19.629170179367065,E20_mission_edit,mission_edit_observe,0,,,,,,,,,,,1,0,0.0,0.0,0.0,,,,,,FENCE_STATUS,GPS 1: detected MAV,AUTO,0,0,0,0
2026-07-07T02:41:45.089336+00:00,19.827073574066162,E20_mission_edit,mission_edit_observe,0,,,,,,,,,,,1,0,0.0,0.0,0.0,,,,,,HEARTBEAT,GPS 1: detected MAV,AUTO,0,0,0,0
2026-07-07T02:41:45.089480+00:00,19.82719874382019,E20_mission_edit,mission_edit_observe,0,,,,,0.0,0.0,0.0,13173877.35106569,,,1,0,0.0,0.0,0.0,-0.01,0.01,0.0,,,GLOBAL_POSITION_INT,GPS 1: detected MAV,AUTO,0,0,0,0
2026-07-07T02:41:45.089622+00:00,19.82734227180481,E20_mission_edit,mission_edit_observe,0,,,,,,,,,,,1,0,0.0,0.0,0.0,,,,,,MISSION_CURRENT,GPS 1: detected MAV,AUTO,0,0,0,0
2026-07-07T02:41:45.089829+00:00,19.827544689178467,E20_mission_edit,mission_edit_observe,0,,,,,,,,,,,1,0,0.0,0.0,0.0,,,,,,GPS_RAW_INT,GPS 1: detected MAV,AUTO,0,0,0,0
2026-07-07T02:41:45.089865+00:00,19.827579259872437,E20_mission_edit,mission_edit_observe,0,,,,,,,,,,,1,0,0.0,0.0,0.0,,,,,,FENCE_STATUS,GPS 1: detected MAV,AUTO,0,0,0,0
2026-07-07T02:41:45.293331+00:00,20.031067609786987,E20_mission_edit,mission_edit_observe,0,,,,,,,,,,,1,0,0.0,0.0,0.0,,,,,,HEARTBEAT,GPS 1: detected MAV,AUTO,0,0,0,0
2026-07-07T02:41:45.293463+00:00,20.031179904937744,E20_mission_edit,mission_edit_observe,0,,,,,0.0,0.0,0.0,13173877.35106569,,,1,0,0.0,0.0,0.0,-0.01,0.01,0.0,,,GLOBAL_POSITION_INT,GPS 1: detected MAV,AUTO,0,0,0,0
2026-07-07T02:41:45.293575+00:00,20.031290292739868,E20_mission_edit,mission_edit_observe,0,,,,,,,,,,,1,0,0.0,0.0,0.0,,,,,,MISSION_CURRENT,GPS 1: detected MAV,AUTO,0,0,0,0
2026-07-07T02:41:45.293766+00:00,20.031482696533203,E20_mission_edit,mission_edit_observe,0,,,,,,,,,,,1,0,0.0,0.0,0.0,,,,,,GPS_RAW_INT,GPS 1: detected MAV,AUTO,0,0,0,0
2026-07-07T02:41:45.293804+00:00,20.03151845932007,E20_mission_edit,mission_edit_observe,0,,,,,,,,,,,1,0,0.0,0.0,0.0,,,,,,FENCE_STATUS,GPS 1: detected MAV,AUTO,0,0,0,0
2026-07-07T02:41:45.491809+00:00,20.22954773902893,E20_mission_edit,mission_edit_observe,0,,,,,,,,,,,1,0,0.0,0.0,0.0,,,,,,HEARTBEAT,GPS 1: detected MAV,AUTO,0,0,0,0
2026-07-07T02:41:45.491994+00:00,20.22971820831299,E20_mission_edit,mission_edit_observe,0,,,,,0.0,0.0,0.0,13173877.35106569,,,1,0,0.0,0.0,0.0,-0.01,0.01,0.0,,,GLOBAL_POSITION_INT,GPS 1: detected MAV,AUTO,0,0,0,0
2026-07-07T02:41:45.492177+00:00,20.229898691177368,E20_mission_edit,mission_edit_observe,0,,,,,,,,,,,1,0,0.0,0.0,0.0,,,,,,MISSION_CURRENT,GPS 1: detected MAV,AUTO,0,0,0,0
2026-07-07T02:41:45.492437+00:00,20.23015785217285,E20_mission_edit,mission_edit_observe,0,,,,,,,,,,,1,0,0.0,0.0,0.0,,,,,,GPS_RAW_INT,GPS 1: detected MAV,AUTO,0,0,0,0
2026-07-07T02:41:45.492484+00:00,20.230198621749878,E20_mission_edit,mission_edit_observe,0,,,,,,,,,,,1,0,0.0,0.0,0.0,,,,,,FENCE_STATUS,GPS 1: detected MAV,AUTO,0,0,0,0
2026-07-07T02:41:45.689906+00:00,20.427642822265625,E20_mission_edit,mission_edit_observe,0,,,,,,,,,,,1,0,0.0,0.0,0.0,,,,,,HEARTBEAT,GPS 1: detected MAV,AUTO,0,0,0,0
2026-07-07T02:41:45.690038+00:00,20.42775583267212,E20_mission_edit,mission_edit_observe,0,,,,,0.0,0.0,0.0,13173877.35106569,,,1,0,0.0,0.0,0.0,-0.01,0.01,0.0,,,GLOBAL_POSITION_INT,GPS 1: detected MAV,AUTO,0,0,0,0
2026-07-07T02:41:45.690153+00:00,20.427867650985718,E20_mission_edit,mission_edit_observe,0,,,,,,,,,,,1,0,0.0,0.0,0.0,,,,,,MISSION_CURRENT,GPS 1: detected MAV,AUTO,0,0,0,0
2026-07-07T02:41:45.690341+00:00,20.428056478500366,E20_mission_edit,mission_edit_observe,0,,,,,,,,,,,1,0,0.0,0.0,0.0,,,,,,GPS_RAW_INT,GPS 1: detected MAV,AUTO,0,0,0,0
2026-07-07T02:41:45.690378+00:00,20.42809247970581,E20_mission_edit,mission_edit_observe,0,,,,,,,,,,,1,0,0.0,0.0,0.0,,,,,,FENCE_STATUS,GPS 1: detected MAV,AUTO,0,0,0,0
2026-07-07T02:41:45.893808+00:00,20.63154411315918,E20_mission_edit,mission_edit_observe,0,,,,,,,,,,,1,0,0.0,0.0,0.0,,,,,,HEARTBEAT,GPS 1: detected MAV,AUTO,0,0,0,0
2026-07-07T02:41:45.893953+00:00,20.631669759750366,E20_mission_edit,mission_edit_observe,0,,,,,0.0,0.0,0.0,13173877.35106569,,,1,0,0.0,0.0,0.0,-0.01,0.02,0.0,,,GLOBAL_POSITION_INT,GPS 1: detected MAV,AUTO,0,0,0,0
2026-07-07T02:41:45.894115+00:00,20.631836652755737,E20_mission_edit,mission_edit_observe,0,,,,,,,,,,,1,0,0.0,0.0,0.0,,,,,,MISSION_CURRENT,GPS 1: detected MAV,AUTO,0,0,0,0
2026-07-07T02:41:45.894321+00:00,20.63203740119934,E20_mission_edit,mission_edit_observe,0,,,,,,,,,,,1,0,0.0,0.0,0.0,,,,,,GPS_RAW_INT,GPS 1: detected MAV,AUTO,0,0,0,0
2026-07-07T02:41:45.894359+00:00,20.632073163986206,E20_mission_edit,mission_edit_observe,0,,,,,,,,,,,1,0,0.0,0.0,0.0,,,,,,FENCE_STATUS,GPS 1: detected MAV,AUTO,0,0,0,0
2026-07-07T02:41:46.092334+00:00,20.830070734024048,E20_mission_edit,mission_edit_observe,0,,,,,,,,,,,1,0,0.0,0.0,0.0,,,,,,HEARTBEAT,GPS 1: detected MAV,AUTO,0,0,0,0
2026-07-07T02:41:46.092470+00:00,20.83018708229065,E20_mission_edit,mission_edit_observe,0,,,,,0.0,0.0,0.0,13173877.35106569,,,1,0,0.0,0.0,0.0,-0.02,0.02,0.0,,,GLOBAL_POSITION_INT,GPS 1: detected MAV,AUTO,0,0,0,0
2026-07-07T02:41:46.092581+00:00,20.83029580116272,E20_mission_edit,mission_edit_observe,0,,,,,,,,,,,1,0,0.0,0.0,0.0,,,,,,MISSION_CURRENT,GPS 1: detected MAV,AUTO,0,0,0,0
2026-07-07T02:41:46.092779+00:00,20.830496311187744,E20_mission_edit,mission_edit_observe,0,,,,,,,,,,,1,0,0.0,0.0,0.0,,,,,,GPS_RAW_INT,GPS 1: detected MAV,AUTO,0,0,0,0
2026-07-07T02:41:46.092819+00:00,20.830533027648926,E20_mission_edit,mission_edit_observe,0,,,,,,,,,,,1,0,0.0,0.0,0.0,,,,,,FENCE_STATUS,GPS 1: detected MAV,AUTO,0,0,0,0
2026-07-07T02:41:46.290785+00:00,21.028524160385132,E20_mission_edit,mission_edit_observe,0,,,,,,,,,,,1,0,0.0,0.0,0.0,,,,,,HEARTBEAT,GPS 1: detected MAV,AUTO,0,0,0,0
2026-07-07T02:41:46.290930+00:00,21.028648138046265,E20_mission_edit,mission_edit_observe,0,,,,,0.0,0.0,0.0,13173877.35106569,,,1,0,0.0,0.0,0.0,-0.02,0.02,0.0,,,GLOBAL_POSITION_INT,GPS 1: detected MAV,AUTO,0,0,0,0
2026-07-07T02:41:46.291044+00:00,21.028758764266968,E20_mission_edit,mission_edit_observe,0,,,,,,,,,,,1,0,0.0,0.0,0.0,,,,,,MISSION_CURRENT,GPS 1: detected MAV,AUTO,0,0,0,0
2026-07-07T02:41:46.291236+00:00,21.028952598571777,E20_mission_edit,mission_edit_observe,0,,,,,,,,,,,1,0,0.0,0.0,0.0,,,,,,GPS_RAW_INT,GPS 1: detected MAV,AUTO,0,0,0,0
2026-07-07T02:41:46.291273+00:00,21.028987646102905,E20_mission_edit,mission_edit_observe,0,,,,,,,,,,,1,0,0.0,0.0,0.0,,,,,,FENCE_STATUS,GPS 1: detected MAV,AUTO,0,0,0,0
2026-07-07T02:41:46.489010+00:00,21.226747035980225,E20_mission_edit,mission_edit_observe,0,,,,,,,,,,,1,0,0.0,0.0,0.0,,,,,,HEARTBEAT,GPS 1: detected MAV,AUTO,0,0,0,0
2026-07-07T02:41:46.489222+00:00,21.226946353912354,E20_mission_edit,mission_edit_observe,0,,,,,0.0,0.0,0.0,13173877.35106569,,,1,0,0.0,0.0,0.0,-0.02,0.02,0.0,,,GLOBAL_POSITION_INT,GPS 1: detected MAV,AUTO,0,0,0,0
2026-07-07T02:41:46.489357+00:00,21.22707509994507,E20_mission_edit,mission_edit_observe,0,,,,,,,,,,,1,0,0.0,0.0,0.0,,,,,,MISSION_CURRENT,GPS 1: detected MAV,AUTO,0,0,0,0
2026-07-07T02:41:46.489562+00:00,21.22727870941162,E20_mission_edit,mission_edit_observe,0,,,,,,,,,,,1,0,0.0,0.0,0.0,,,,,,GPS_RAW_INT,GPS 1: detected MAV,AUTO,0,0,0,0
2026-07-07T02:41:46.489602+00:00,21.22731637954712,E20_mission_edit,mission_edit_observe,0,,,,,,,,,,,1,0,0.0,0.0,0.0,,,,,,FENCE_STATUS,GPS 1: detected MAV,AUTO,0,0,0,0
2026-07-07T02:41:46.692932+00:00,21.430668115615845,E20_mission_edit,mission_edit_observe,0,,,,,,,,,,,1,0,0.0,0.0,0.0,,,,,,HEARTBEAT,GPS 1: detected MAV,AUTO,0,0,0,0
2026-07-07T02:41:46.693078+00:00,21.430795907974243,E20_mission_edit,mission_edit_observe,0,,,,,0.0,0.0,0.0,13173877.35106569,,,1,0,0.0,0.0,0.0,-0.02,0.02,0.0,,,GLOBAL_POSITION_INT,GPS 1: detected MAV,AUTO,0,0,0,0
2026-07-07T02:41:46.693193+00:00,21.430908679962158,E20_mission_edit,mission_edit_observe,0,,,,,,,,,,,1,0,0.0,0.0,0.0,,,,,,MISSION_CURRENT,GPS 1: detected MAV,AUTO,0,0,0,0
2026-07-07T02:41:46.693388+00:00,21.431103467941284,E20_mission_edit,mission_edit_observe,0,,,,,,,,,,,1,0,0.0,0.0,0.0,,,,,,GPS_RAW_INT,GPS 1: detected MAV,AUTO,0,0,0,0
2026-07-07T02:41:46.693426+00:00,21.431139945983887,E20_mission_edit,mission_edit_observe,0,,,,,,,,,,,1,0,0.0,0.0,0.0,,,,,,FENCE_STATUS,GPS 1: detected MAV,AUTO,0,0,0,0
2026-07-07T02:41:46.891369+00:00,21.62910747528076,E20_mission_edit,mission_edit_observe,0,,,,,,,,,,,1,0,0.0,0.0,0.0,,,,,,HEARTBEAT,GPS 1: detected MAV,AUTO,0,0,0,0
2026-07-07T02:41:46.891588+00:00,21.62931203842163,E20_mission_edit,mission_edit_observe,0,,,,,0.0,0.0,0.0,13173877.35106569,,,1,0,0.0,0.0,0.0,-0.02,0.02,0.0,,,GLOBAL_POSITION_INT,GPS 1: detected MAV,AUTO,0,0,0,0
2026-07-07T02:41:46.891717+00:00,21.62943458557129,E20_mission_edit,mission_edit_observe,0,,,,,,,,,,,1,0,0.0,0.0,0.0,,,,,,MISSION_CURRENT,GPS 1: detected MAV,AUTO,0,0,0,0
2026-07-07T02:41:46.891907+00:00,21.62962317466736,E20_mission_edit,mission_edit_observe,0,,,,,,,,,,,1,0,0.0,0.0,0.0,,,,,,GPS_RAW_INT,GPS 1: detected MAV,AUTO,0,0,0,0
2026-07-07T02:41:46.891943+00:00,21.62965703010559,E20_mission_edit,mission_edit_observe,0,,,,,,,,,,,1,0,0.0,0.0,0.0,,,,,,FENCE_STATUS,GPS 1: detected MAV,AUTO,0,0,0,0
2026-07-07T02:41:47.089583+00:00,21.827320098876953,E20_mission_edit,mission_edit_observe,0,,,,,,,,,,,1,0,0.0,0.0,0.0,,,,,,HEARTBEAT,GPS 1: detected MAV,AUTO,0,0,0,0
2026-07-07T02:41:47.089733+00:00,21.827454805374146,E20_mission_edit,mission_edit_observe,0,,,,,0.0,0.0,0.0,13173877.35106569,,,1,0,0.0,0.0,0.0,-0.02,0.02,0.0,,,GLOBAL_POSITION_INT,GPS 1: detected MAV,AUTO,0,0,0,0
2026-07-07T02:41:47.089929+00:00,21.827650785446167,E20_mission_edit,mission_edit_observe,0,,,,,,,,,,,1,0,0.0,0.0,0.0,,,,,,MISSION_CURRENT,GPS 1: detected MAV,AUTO,0,0,0,0
2026-07-07T02:41:47.090197+00:00,21.827917337417603,E20_mission_edit,mission_edit_observe,0,,,,,,,,,,,1,0,0.0,0.0,0.0,,,,,,GPS_RAW_INT,GPS 1: detected MAV,AUTO,0,0,0,0
2026-07-07T02:41:47.090241+00:00,21.82795548439026,E20_mission_edit,mission_edit_observe,0,,,,,,,,,,,1,0,0.0,0.0,0.0,,,,,,FENCE_STATUS,GPS 1: detected MAV,AUTO,0,0,0,0
2026-07-07T02:41:47.293701+00:00,22.03143858909607,E20_mission_edit,mission_edit_observe,0,,,,,,,,,,,1,0,0.0,0.0,0.0,,,,,,HEARTBEAT,GPS 1: detected MAV,AUTO,0,0,0,0
2026-07-07T02:41:47.293848+00:00,22.03156590461731,E20_mission_edit,mission_edit_observe,0,,,,,0.0,0.0,0.0,13173877.35106569,,,1,0,0.0,0.0,0.0,-0.02,0.02,0.0,,,GLOBAL_POSITION_INT,GPS 1: detected MAV,AUTO,0,0,0,0
2026-07-07T02:41:47.293964+00:00,22.031678676605225,E20_mission_edit,mission_edit_observe,0,,,,,,,,,,,1,0,0.0,0.0,0.0,,,,,,MISSION_CURRENT,GPS 1: detected MAV,AUTO,0,0,0,0
2026-07-07T02:41:47.294192+00:00,22.03191304206848,E20_mission_edit,mission_edit_observe,0,,,,,,,,,,,1,0,0.0,0.0,0.0,,,,,,GPS_RAW_INT,GPS 1: detected MAV,AUTO,0,0,0,0
2026-07-07T02:41:47.294238+00:00,22.031952142715454,E20_mission_edit,mission_edit_observe,0,,,,,,,,,,,1,0,0.0,0.0,0.0,,,,,,FENCE_STATUS,GPS 1: detected MAV,AUTO,0,0,0,0
2026-07-07T02:41:47.491938+00:00,22.229674339294434,E20_mission_edit,mission_edit_observe,0,,,,,,,,,,,1,0,0.0,0.0,0.0,,,,,,HEARTBEAT,GPS 1: detected MAV,AUTO,0,0,0,0
2026-07-07T02:41:47.492097+00:00,22.22981834411621,E20_mission_edit,mission_edit_observe,0,,,,,0.0,0.0,0.0,13173877.35106569,,,1,0,0.0,0.0,0.0,-0.02,0.02,0.0,,,GLOBAL_POSITION_INT,GPS 1: detected MAV,AUTO,0,0,0,0
2026-07-07T02:41:47.492211+00:00,22.229926109313965,E20_mission_edit,mission_edit_observe,0,,,,,,,,,,,1,0,0.0,0.0,0.0,,,,,,MISSION_CURRENT,GPS 1: detected MAV,AUTO,0,0,0,0
2026-07-07T02:41:47.492393+00:00,22.23010754585266,E20_mission_edit,mission_edit_observe,0,,,,,,,,,,,1,0,0.0,0.0,0.0,,,,,,GPS_RAW_INT,GPS 1: detected MAV,AUTO,0,0,0,0
2026-07-07T02:41:47.492427+00:00,22.230141162872314,E20_mission_edit,mission_edit_observe,0,,,,,,,,,,,1,0,0.0,0.0,0.0,,,,,,FENCE_STATUS,GPS 1: detected MAV,AUTO,0,0,0,0
2026-07-07T02:41:47.684377+00:00,22.422112941741943,E20_mission_edit,mission_edit_observe,0,,,,,,,,,,,1,0,0.0,0.0,0.0,,,,,,STATUSTEXT,PreArm: GPS 1: Bad fix,AUTO,0,0,0,0
2026-07-07T02:41:47.684449+00:00,22.42216658592224,E20_mission_edit,mission_edit_observe,0,,,,,,,,,,,1,0,0.0,0.0,0.0,,,,,,STATUSTEXT,PreArm: Mode requires mission,AUTO,0,0,0,0
2026-07-07T02:41:47.684506+00:00,22.422225952148438,E20_mission_edit,mission_edit_observe,0,,,,,,,,,,,1,0,0.0,0.0,0.0,,,,,,STATUSTEXT,PreArm: Fence requires position,AUTO,0,0,0,0
2026-07-07T02:41:47.690066+00:00,22.427791833877563,E20_mission_edit,mission_edit_observe,0,,,,,,,,,,,1,0,0.0,0.0,0.0,,,,,,HEARTBEAT,PreArm: Fence requires position,AUTO,0,0,0,0
2026-07-07T02:41:47.690220+00:00,22.427940130233765,E20_mission_edit,mission_edit_observe,0,,,,,0.0,0.0,0.0,13173877.35106569,,,1,0,0.0,0.0,0.0,-0.02,0.02,0.0,,,GLOBAL_POSITION_INT,PreArm: Fence requires position,AUTO,0,0,0,0
2026-07-07T02:41:47.690403+00:00,22.428122997283936,E20_mission_edit,mission_edit_observe,0,,,,,,,,,,,1,0,0.0,0.0,0.0,,,,,,MISSION_CURRENT,PreArm: Fence requires position,AUTO,0,0,0,0
2026-07-07T02:41:47.690691+00:00,22.428412199020386,E20_mission_edit,mission_edit_observe,0,,,,,,,,,,,1,0,0.0,0.0,0.0,,,,,,GPS_RAW_INT,PreArm: Fence requires position,AUTO,0,0,0,0
2026-07-07T02:41:47.690761+00:00,22.42847776412964,E20_mission_edit,mission_edit_observe,0,,,,,,,,,,,1,0,0.0,0.0,0.0,,,,,,FENCE_STATUS,PreArm: Fence requires position,AUTO,0,0,0,0
2026-07-07T02:41:47.894153+00:00,22.631890773773193,E20_mission_edit,mission_edit_observe,0,,,,,,,,,,,1,0,0.0,0.0,0.0,,,,,,HEARTBEAT,PreArm: Fence requires position,AUTO,0,0,0,0
2026-07-07T02:41:47.894291+00:00,22.632007837295532,E20_mission_edit,mission_edit_observe,0,,,,,0.0,0.0,0.0,13173877.35106569,,,1,0,0.0,0.0,0.0,-0.02,0.02,0.0,,,GLOBAL_POSITION_INT,PreArm: Fence requires position,AUTO,0,0,0,0
2026-07-07T02:41:47.894405+00:00,22.632120847702026,E20_mission_edit,mission_edit_observe,0,,,,,,,,,,,1,0,0.0,0.0,0.0,,,,,,MISSION_CURRENT,PreArm: Fence requires position,AUTO,0,0,0,0
2026-07-07T02:41:47.894603+00:00,22.632319927215576,E20_mission_edit,mission_edit_observe,0,,,,,,,,,,,1,0,0.0,0.0,0.0,,,,,,GPS_RAW_INT,PreArm: Fence requires position,AUTO,0,0,0,0
2026-07-07T02:41:47.894643+00:00,22.632356643676758,E20_mission_edit,mission_edit_observe,0,,,,,,,,,,,1,0,0.0,0.0,0.0,,,,,,FENCE_STATUS,PreArm: Fence requires position,AUTO,0,0,0,0
2026-07-07T02:41:48.092574+00:00,22.830310821533203,E20_mission_edit,mission_edit_observe,0,,,,,,,,,,,1,0,0.0,0.0,0.0,,,,,,HEARTBEAT,PreArm: Fence requires position,AUTO,0,0,0,0
2026-07-07T02:41:48.092717+00:00,22.8304340839386,E20_mission_edit,mission_edit_observe,0,,,,,0.0,0.0,0.0,13173877.35106569,,,1,0,0.0,0.0,0.0,-0.02,0.02,0.0,,,GLOBAL_POSITION_INT,PreArm: Fence requires position,AUTO,0,0,0,0
2026-07-07T02:41:48.092836+00:00,22.830552101135254,E20_mission_edit,mission_edit_observe,0,,,,,,,,,,,1,0,0.0,0.0,0.0,,,,,,MISSION_CURRENT,PreArm: Fence requires position,AUTO,0,0,0,0
2026-07-07T02:41:48.093031+00:00,22.83074641227722,E20_mission_edit,mission_edit_observe,0,,,,,,,,,,,1,0,0.0,0.0,0.0,,,,,,GPS_RAW_INT,PreArm: Fence requires position,AUTO,0,0,0,0
2026-07-07T02:41:48.093069+00:00,22.830782651901245,E20_mission_edit,mission_edit_observe,0,,,,,,,,,,,1,0,0.0,0.0,0.0,,,,,,FENCE_STATUS,PreArm: Fence requires position,AUTO,0,0,0,0
2026-07-07T02:41:48.291015+00:00,23.0287504196167,E20_mission_edit,mission_edit_observe,0,,,,,,,,,,,1,0,0.0,0.0,0.0,,,,,,HEARTBEAT,PreArm: Fence requires position,AUTO,0,0,0,0
2026-07-07T02:41:48.291147+00:00,23.028865098953247,E20_mission_edit,mission_edit_observe,0,,,,,0.0,0.0,0.0,13173877.35106569,,,1,0,0.0,0.0,0.0,-0.02,0.02,0.0,,,GLOBAL_POSITION_INT,PreArm: Fence requires position,AUTO,0,0,0,0
2026-07-07T02:41:48.291258+00:00,23.02897334098816,E20_mission_edit,mission_edit_observe,0,,,,,,,,,,,1,0,0.0,0.0,0.0,,,,,,MISSION_CURRENT,PreArm: Fence requires position,AUTO,0,0,0,0
2026-07-07T02:41:48.291449+00:00,23.029165744781494,E20_mission_edit,mission_edit_observe,0,,,,,,,,,,,1,0,0.0,0.0,0.0,,,,,,GPS_RAW_INT,PreArm: Fence requires position,AUTO,0,0,0,0
2026-07-07T02:41:48.291541+00:00,23.029261112213135,E20_mission_edit,mission_edit_observe,0,,,,,,,,,,,1,0,0.0,0.0,0.0,,,,,,FENCE_STATUS,PreArm: Fence requires position,AUTO,0,0,0,0
2026-07-07T02:41:48.489242+00:00,23.226980209350586,E20_mission_edit,mission_edit_observe,0,,,,,,,,,,,1,0,0.0,0.0,0.0,,,,,,HEARTBEAT,PreArm: Fence requires position,AUTO,0,0,0,0
2026-07-07T02:41:48.489380+00:00,23.227096557617188,E20_mission_edit,mission_edit_observe,0,,,,,0.0,0.0,0.0,13173877.35106569,,,1,0,0.0,0.0,0.0,-0.02,0.02,0.0,,,GLOBAL_POSITION_INT,PreArm: Fence requires position,AUTO,0,0,0,0
2026-07-07T02:41:48.489493+00:00,23.22720956802368,E20_mission_edit,mission_edit_observe,0,,,,,,,,,,,1,0,0.0,0.0,0.0,,,,,,MISSION_CURRENT,PreArm: Fence requires position,AUTO,0,0,0,0
2026-07-07T02:41:48.489687+00:00,23.227403163909912,E20_mission_edit,mission_edit_observe,0,,,,,,,,,,,1,0,0.0,0.0,0.0,,,,,,GPS_RAW_INT,PreArm: Fence requires position,AUTO,0,0,0,0
2026-07-07T02:41:48.489803+00:00,23.227522611618042,E20_mission_edit,mission_edit_observe,0,,,,,,,,,,,1,0,0.0,0.0,0.0,,,,,,FENCE_STATUS,PreArm: Fence requires position,AUTO,0,0,0,0
2026-07-07T02:41:48.693380+00:00,23.4311203956604,E20_mission_edit,mission_edit_observe,0,,,,,,,,,,,1,0,0.0,0.0,0.0,,,,,,HEARTBEAT,PreArm: Fence requires position,AUTO,0,0,0,0
2026-07-07T02:41:48.693523+00:00,23.431240797042847,E20_mission_edit,mission_edit_observe,0,,,,,0.0,0.0,0.0,13173877.35106569,,,1,0,0.0,0.0,0.0,-0.02,0.02,0.0,,,GLOBAL_POSITION_INT,PreArm: Fence requires position,AUTO,0,0,0,0
2026-07-07T02:41:48.693641+00:00,23.431356191635132,E20_mission_edit,mission_edit_observe,0,,,,,,,,,,,1,0,0.0,0.0,0.0,,,,,,MISSION_CURRENT,PreArm: Fence requires position,AUTO,0,0,0,0
2026-07-07T02:41:48.693837+00:00,23.431554079055786,E20_mission_edit,mission_edit_observe,0,,,,,,,,,,,1,0,0.0,0.0,0.0,,,,,,GPS_RAW_INT,PreArm: Fence requires position,AUTO,0,0,0,0
2026-07-07T02:41:48.693875+00:00,23.431589126586914,E20_mission_edit,mission_edit_observe,0,,,,,,,,,,,1,0,0.0,0.0,0.0,,,,,,FENCE_STATUS,PreArm: Fence requires position,AUTO,0,0,0,0
2026-07-07T02:41:48.891657+00:00,23.629396677017212,E20_mission_edit,mission_edit_observe,0,,,,,,,,,,,1,0,0.0,0.0,0.0,,,,,,HEARTBEAT,PreArm: Fence requires position,AUTO,0,0,0,0
2026-07-07T02:41:48.891804+00:00,23.62952184677124,E20_mission_edit,mission_edit_observe,0,,,,,0.0,0.0,0.0,13173877.35106569,,,1,0,0.0,0.0,0.0,-0.02,0.02,0.0,,,GLOBAL_POSITION_INT,PreArm: Fence requires position,AUTO,0,0,0,0
2026-07-07T02:41:48.891926+00:00,23.629642009735107,E20_mission_edit,mission_edit_observe,0,,,,,,,,,,,1,0,0.0,0.0,0.0,,,,,,MISSION_CURRENT,PreArm: Fence requires position,AUTO,0,0,0,0
2026-07-07T02:41:48.892130+00:00,23.629847764968872,E20_mission_edit,mission_edit_observe,0,,,,,,,,,,,1,0,0.0,0.0,0.0,,,,,,GPS_RAW_INT,PreArm: Fence requires position,AUTO,0,0,0,0
2026-07-07T02:41:48.892171+00:00,23.62988519668579,E20_mission_edit,mission_edit_observe,0,,,,,,,,,,,1,0,0.0,0.0,0.0,,,,,,FENCE_STATUS,PreArm: Fence requires position,AUTO,0,0,0,0
2026-07-07T02:41:49.089853+00:00,23.827590942382812,E20_mission_edit,mission_edit_observe,0,,,,,,,,,,,1,0,0.0,0.0,0.0,,,,,,HEARTBEAT,PreArm: Fence requires position,AUTO,0,0,0,0
2026-07-07T02:41:49.089993+00:00,23.827712059020996,E20_mission_edit,mission_edit_observe,0,,,,,0.0,0.0,0.0,13173877.35106569,,,1,0,0.0,0.0,0.0,-0.02,0.02,0.0,,,GLOBAL_POSITION_INT,PreArm: Fence requires position,AUTO,0,0,0,0
2026-07-07T02:41:49.090118+00:00,23.827835083007812,E20_mission_edit,mission_edit_observe,0,,,,,,,,,,,1,0,0.0,0.0,0.0,,,,,,MISSION_CURRENT,PreArm: Fence requires position,AUTO,0,0,0,0
2026-07-07T02:41:49.090317+00:00,23.828032732009888,E20_mission_edit,mission_edit_observe,0,,,,,,,,,,,1,0,0.0,0.0,0.0,,,,,,GPS_RAW_INT,PreArm: Fence requires position,AUTO,0,0,0,0
2026-07-07T02:41:49.090355+00:00,23.82806897163391,E20_mission_edit,mission_edit_observe,0,,,,,,,,,,,1,0,0.0,0.0,0.0,,,,,,FENCE_STATUS,PreArm: Fence requires position,AUTO,0,0,0,0
2026-07-07T02:41:49.293902+00:00,24.03163719177246,E20_mission_edit,mission_edit_observe,0,,,,,,,,,,,1,0,0.0,0.0,0.0,,,,,,HEARTBEAT,PreArm: Fence requires position,AUTO,0,0,0,0
2026-07-07T02:41:49.294027+00:00,24.031743049621582,E20_mission_edit,mission_edit_observe,0,,,,,0.0,0.0,0.0,13173877.35106569,,,1,0,0.0,0.0,0.0,-0.02,0.02,0.0,,,GLOBAL_POSITION_INT,PreArm: Fence requires position,AUTO,0,0,0,0
2026-07-07T02:41:49.294130+00:00,24.03184485435486,E20_mission_edit,mission_edit_observe,0,,,,,,,,,,,1,0,0.0,0.0,0.0,,,,,,MISSION_CURRENT,PreArm: Fence requires position,AUTO,0,0,0,0
2026-07-07T02:41:49.294312+00:00,24.03202795982361,E20_mission_edit,mission_edit_observe,0,,,,,,,,,,,1,0,0.0,0.0,0.0,,,,,,GPS_RAW_INT,PreArm: Fence requires position,AUTO,0,0,0,0
2026-07-07T02:41:49.294348+00:00,24.03206205368042,E20_mission_edit,mission_edit_observe,0,,,,,,,,,,,1,0,0.0,0.0,0.0,,,,,,FENCE_STATUS,PreArm: Fence requires position,AUTO,0,0,0,0
2026-07-07T02:41:49.492231+00:00,24.229969024658203,E20_mission_edit,mission_edit_observe,0,,,,,,,,,,,1,0,0.0,0.0,0.0,,,,,,HEARTBEAT,PreArm: Fence requires position,AUTO,0,0,0,0
2026-07-07T02:41:49.492417+00:00,24.230141162872314,E20_mission_edit,mission_edit_observe,0,,,,,0.0,0.0,0.0,13173877.35106569,,,1,0,0.0,0.0,0.0,-0.02,0.02,0.0,,,GLOBAL_POSITION_INT,PreArm: Fence requires position,AUTO,0,0,0,0
2026-07-07T02:41:49.492545+00:00,24.230262994766235,E20_mission_edit,mission_edit_observe,0,,,,,,,,,,,1,0,0.0,0.0,0.0,,,,,,MISSION_CURRENT,PreArm: Fence requires position,AUTO,0,0,0,0
2026-07-07T02:41:49.492742+00:00,24.23045778274536,E20_mission_edit,mission_edit_observe,0,,,,,,,,,,,1,0,0.0,0.0,0.0,,,,,,GPS_RAW_INT,PreArm: Fence requires position,AUTO,0,0,0,0
2026-07-07T02:41:49.492781+00:00,24.23049569129944,E20_mission_edit,mission_edit_observe,0,,,,,,,,,,,1,0,0.0,0.0,0.0,,,,,,FENCE_STATUS,PreArm: Fence requires position,AUTO,0,0,0,0
2026-07-07T02:41:49.690533+00:00,24.42827033996582,E20_mission_edit,mission_edit_observe,0,,,,,,,,,,,1,0,0.0,0.0,0.0,,,,,,HEARTBEAT,PreArm: Fence requires position,AUTO,0,0,0,0
2026-07-07T02:41:49.690674+00:00,24.428391456604004,E20_mission_edit,mission_edit_observe,0,,,,,0.0,0.0,0.0,13173877.35106569,,,1,0,0.0,0.0,0.0,-0.02,0.02,0.0,,,GLOBAL_POSITION_INT,PreArm: Fence requires position,AUTO,0,0,0,0
2026-07-07T02:41:49.690790+00:00,24.42850661277771,E20_mission_edit,mission_edit_observe,0,,,,,,,,,,,1,0,0.0,0.0,0.0,,,,,,MISSION_CURRENT,PreArm: Fence requires position,AUTO,0,0,0,0
2026-07-07T02:41:49.690992+00:00,24.42870807647705,E20_mission_edit,mission_edit_observe,0,,,,,,,,,,,1,0,0.0,0.0,0.0,,,,,,GPS_RAW_INT,PreArm: Fence requires position,AUTO,0,0,0,0
2026-07-07T02:41:49.691030+00:00,24.428744554519653,E20_mission_edit,mission_edit_observe,0,,,,,,,,,,,1,0,0.0,0.0,0.0,,,,,,FENCE_STATUS,PreArm: Fence requires position,AUTO,0,0,0,0
2026-07-07T02:41:49.894419+00:00,24.63215708732605,E20_mission_edit,mission_edit_observe,0,,,,,,,,,,,1,0,0.0,0.0,0.0,,,,,,HEARTBEAT,PreArm: Fence requires position,AUTO,0,0,0,0
2026-07-07T02:41:49.894560+00:00,24.632277250289917,E20_mission_edit,mission_edit_observe,0,,,,,0.0,0.0,0.0,13173877.35106569,,,1,0,0.0,0.0,0.0,-0.02,0.02,0.0,,,GLOBAL_POSITION_INT,PreArm: Fence requires position,AUTO,0,0,0,0
2026-07-07T02:41:49.894675+00:00,24.632390022277832,E20_mission_edit,mission_edit_observe,0,,,,,,,,,,,1,0,0.0,0.0,0.0,,,,,,MISSION_CURRENT,PreArm: Fence requires position,AUTO,0,0,0,0
2026-07-07T02:41:49.894862+00:00,24.63257884979248,E20_mission_edit,mission_edit_observe,0,,,,,,,,,,,1,0,0.0,0.0,0.0,,,,,,GPS_RAW_INT,PreArm: Fence requires position,AUTO,0,0,0,0
2026-07-07T02:41:49.894901+00:00,24.632615089416504,E20_mission_edit,mission_edit_observe,0,,,,,,,,,,,1,0,0.0,0.0,0.0,,,,,,FENCE_STATUS,PreArm: Fence requires position,AUTO,0,0,0,0
2026-07-07T02:41:50.092913+00:00,24.83065152168274,E20_mission_edit,mission_edit_observe,0,,,,,,,,,,,1,0,0.0,0.0,0.0,,,,,,HEARTBEAT,PreArm: Fence requires position,AUTO,0,0,0,0
2026-07-07T02:41:50.093073+00:00,24.83079195022583,E20_mission_edit,mission_edit_observe,0,,,,,0.0,0.0,0.0,13173877.35106569,,,1,0,0.0,0.0,0.0,-0.02,0.02,0.0,,,GLOBAL_POSITION_INT,PreArm: Fence requires position,AUTO,0,0,0,0
2026-07-07T02:41:50.093191+00:00,24.8309063911438,E20_mission_edit,mission_edit_observe,0,,,,,,,,,,,1,0,0.0,0.0,0.0,,,,,,MISSION_CURRENT,PreArm: Fence requires position,AUTO,0,0,0,0
2026-07-07T02:41:50.093388+00:00,24.831104278564453,E20_mission_edit,mission_edit_observe,0,,,,,,,,,,,1,0,0.0,0.0,0.0,,,,,,GPS_RAW_INT,PreArm: Fence requires position,AUTO,0,0,0,0
2026-07-07T02:41:50.093427+00:00,24.831141233444214,E20_mission_edit,mission_edit_observe,0,,,,,,,,,,,1,0,0.0,0.0,0.0,,,,,,FENCE_STATUS,PreArm: Fence requires position,AUTO,0,0,0,0
2026-07-07T02:41:50.291196+00:00,25.02893376350403,E20_mission_edit,mission_edit_observe,0,,,,,,,,,,,1,0,0.0,0.0,0.0,,,,,,HEARTBEAT,PreArm: Fence requires position,AUTO,0,0,0,0
2026-07-07T02:41:50.291335+00:00,25.029051780700684,E20_mission_edit,mission_edit_observe,0,,,,,0.0,0.0,0.0,13173877.35106569,,,1,0,0.0,0.0,0.0,-0.02,0.02,0.0,,,GLOBAL_POSITION_INT,PreArm: Fence requires position,AUTO,0,0,0,0
2026-07-07T02:41:50.291450+00:00,25.02916646003723,E20_mission_edit,mission_edit_observe,0,,,,,,,,,,,1,0,0.0,0.0,0.0,,,,,,MISSION_CURRENT,PreArm: Fence requires position,AUTO,0,0,0,0
2026-07-07T02:41:50.291727+00:00,25.029447555541992,E20_mission_edit,mission_edit_observe,0,,,,,,,,,,,1,0,0.0,0.0,0.0,,,,,,GPS_RAW_INT,PreArm: Fence requires position,AUTO,0,0,0,0
2026-07-07T02:41:50.291771+00:00,25.029485940933228,E20_mission_edit,mission_edit_observe,0,,,,,,,,,,,1,0,0.0,0.0,0.0,,,,,,FENCE_STATUS,PreArm: Fence requires position,AUTO,0,0,0,0
2026-07-07T02:41:50.489570+00:00,25.227323055267334,E20_mission_edit,mission_edit_observe,0,,,,,,,,,,,1,0,0.0,0.0,0.0,,,,,,HEARTBEAT,PreArm: Fence requires position,AUTO,0,0,0,0
2026-07-07T02:41:50.489752+00:00,25.22747230529785,E20_mission_edit,mission_edit_observe,0,,,,,0.0,0.0,0.0,13173877.35106569,,,1,0,0.0,0.0,0.0,-0.02,0.02,0.0,,,GLOBAL_POSITION_INT,PreArm: Fence requires position,AUTO,0,0,0,0
2026-07-07T02:41:50.489875+00:00,25.227591037750244,E20_mission_edit,mission_edit_observe,0,,,,,,,,,,,1,0,0.0,0.0,0.0,,,,,,MISSION_CURRENT,PreArm: Fence requires position,AUTO,0,0,0,0
2026-07-07T02:41:50.490070+00:00,25.22778606414795,E20_mission_edit,mission_edit_observe,0,,,,,,,,,,,1,0,0.0,0.0,0.0,,,,,,GPS_RAW_INT,PreArm: Fence requires position,AUTO,0,0,0,0
2026-07-07T02:41:50.490107+00:00,25.227821111679077,E20_mission_edit,mission_edit_observe,0,,,,,,,,,,,1,0,0.0,0.0,0.0,,,,,,FENCE_STATUS,PreArm: Fence requires position,AUTO,0,0,0,0
2026-07-07T02:41:50.691902+00:00,25.429641485214233,E20_mission_edit,mission_edit_observe,0,,,,,,,,,,,1,0,0.0,0.0,0.0,,,,,,HEARTBEAT,PreArm: Fence requires position,AUTO,0,0,0,0
2026-07-07T02:41:50.692071+00:00,25.42979621887207,E20_mission_edit,mission_edit_observe,0,,,,,0.0,0.0,0.0,13173877.35106569,,,1,0,0.0,0.0,0.0,-0.02,0.02,0.0,,,GLOBAL_POSITION_INT,PreArm: Fence requires position,AUTO,0,0,0,0
2026-07-07T02:41:50.692263+00:00,25.429986476898193,E20_mission_edit,mission_edit_observe,0,,,,,,,,,,,1,0,0.0,0.0,0.0,,,,,,MISSION_CURRENT,PreArm: Fence requires position,AUTO,0,0,0,0
2026-07-07T02:41:50.692501+00:00,25.43022084236145,E20_mission_edit,mission_edit_observe,0,,,,,,,,,,,1,0,0.0,0.0,0.0,,,,,,GPS_RAW_INT,PreArm: Fence requires position,AUTO,0,0,0,0
2026-07-07T02:41:50.692544+00:00,25.43025851249695,E20_mission_edit,mission_edit_observe,0,,,,,,,,,,,1,0,0.0,0.0,0.0,,,,,,FENCE_STATUS,PreArm: Fence requires position,AUTO,0,0,0,0
2026-07-07T02:41:50.890227+00:00,25.627965211868286,E20_mission_edit,mission_edit_observe,0,,,,,,,,,,,1,0,0.0,0.0,0.0,,,,,,HEARTBEAT,PreArm: Fence requires position,AUTO,0,0,0,0
2026-07-07T02:41:50.890388+00:00,25.62810778617859,E20_mission_edit,mission_edit_observe,0,,,,,0.0,0.0,0.0,13173877.35106569,,,1,0,0.0,0.0,0.0,-0.02,0.02,0.0,,,GLOBAL_POSITION_INT,PreArm: Fence requires position,AUTO,0,0,0,0
2026-07-07T02:41:50.890508+00:00,25.628223657608032,E20_mission_edit,mission_edit_observe,0,,,,,,,,,,,1,0,0.0,0.0,0.0,,,,,,MISSION_CURRENT,PreArm: Fence requires position,AUTO,0,0,0,0
2026-07-07T02:41:50.890702+00:00,25.62841773033142,E20_mission_edit,mission_edit_observe,0,,,,,,,,,,,1,0,0.0,0.0,0.0,,,,,,GPS_RAW_INT,PreArm: Fence requires position,AUTO,0,0,0,0
2026-07-07T02:41:50.890738+00:00,25.62845253944397,E20_mission_edit,mission_edit_observe,0,,,,,,,,,,,1,0,0.0,0.0,0.0,,,,,,FENCE_STATUS,PreArm: Fence requires position,AUTO,0,0,0,0
2026-07-07T02:41:51.094228+00:00,25.831963062286377,E20_mission_edit,mission_edit_observe,0,,,,,,,,,,,1,0,0.0,0.0,0.0,,,,,,HEARTBEAT,PreArm: Fence requires position,AUTO,0,0,0,0
2026-07-07T02:41:51.094367+00:00,25.83208465576172,E20_mission_edit,mission_edit_observe,0,,,,,0.0,0.0,0.0,13173877.35106569,,,1,0,0.0,0.0,0.0,-0.02,0.02,0.0,,,GLOBAL_POSITION_INT,PreArm: Fence requires position,AUTO,0,0,0,0
2026-07-07T02:41:51.094484+00:00,25.832200288772583,E20_mission_edit,mission_edit_observe,0,,,,,,,,,,,1,0,0.0,0.0,0.0,,,,,,MISSION_CURRENT,PreArm: Fence requires position,AUTO,0,0,0,0
2026-07-07T02:41:51.094677+00:00,25.832392930984497,E20_mission_edit,mission_edit_observe,0,,,,,,,,,,,1,0,0.0,0.0,0.0,,,,,,GPS_RAW_INT,PreArm: Fence requires position,AUTO,0,0,0,0
2026-07-07T02:41:51.094715+00:00,25.83242917060852,E20_mission_edit,mission_edit_observe,0,,,,,,,,,,,1,0,0.0,0.0,0.0,,,,,,FENCE_STATUS,PreArm: Fence requires position,AUTO,0,0,0,0
2026-07-07T02:41:51.292594+00:00,26.0303316116333,E20_mission_edit,mission_edit_observe,0,,,,,,,,,,,1,0,0.0,0.0,0.0,,,,,,HEARTBEAT,PreArm: Fence requires position,AUTO,0,0,0,0
2026-07-07T02:41:51.292732+00:00,26.030447959899902,E20_mission_edit,mission_edit_observe,0,,,,,0.0,0.0,0.0,13173877.35106569,,,1,0,0.0,0.0,0.0,-0.02,0.02,0.0,,,GLOBAL_POSITION_INT,PreArm: Fence requires position,AUTO,0,0,0,0
2026-07-07T02:41:51.292843+00:00,26.030557870864868,E20_mission_edit,mission_edit_observe,0,,,,,,,,,,,1,0,0.0,0.0,0.0,,,,,,MISSION_CURRENT,PreArm: Fence requires position,AUTO,0,0,0,0
2026-07-07T02:41:51.293037+00:00,26.030754804611206,E20_mission_edit,mission_edit_observe,0,,,,,,,,,,,1,0,0.0,0.0,0.0,,,,,,GPS_RAW_INT,PreArm: Fence requires position,AUTO,0,0,0,0
2026-07-07T02:41:51.293077+00:00,26.03079104423523,E20_mission_edit,mission_edit_observe,0,,,,,,,,,,,1,0,0.0,0.0,0.0,,,,,,FENCE_STATUS,PreArm: Fence requires position,AUTO,0,0,0,0
2026-07-07T02:41:51.490891+00:00,26.228628635406494,E20_mission_edit,mission_edit_observe,0,,,,,,,,,,,1,0,0.0,0.0,0.0,,,,,,HEARTBEAT,PreArm: Fence requires position,AUTO,0,0,0,0
2026-07-07T02:41:51.491032+00:00,26.22874927520752,E20_mission_edit,mission_edit_observe,0,,,,,0.0,0.0,0.0,13173877.35106569,,,1,0,0.0,0.0,0.0,-0.02,0.02,0.0,,,GLOBAL_POSITION_INT,PreArm: Fence requires position,AUTO,0,0,0,0
2026-07-07T02:41:51.491150+00:00,26.228866577148438,E20_mission_edit,mission_edit_observe,0,,,,,,,,,,,1,0,0.0,0.0,0.0,,,,,,MISSION_CURRENT,PreArm: Fence requires position,AUTO,0,0,0,0
2026-07-07T02:41:51.491357+00:00,26.22907781600952,E20_mission_edit,mission_edit_observe,0,,,,,,,,,,,1,0,0.0,0.0,0.0,,,,,,GPS_RAW_INT,PreArm: Fence requires position,AUTO,0,0,0,0
2026-07-07T02:41:51.491426+00:00,26.229141235351562,E20_mission_edit,mission_edit_observe,0,,,,,,,,,,,1,0,0.0,0.0,0.0,,,,,,FENCE_STATUS,PreArm: Fence requires position,AUTO,0,0,0,0
2026-07-07T02:41:51.694775+00:00,26.432512521743774,E20_mission_edit,mission_edit_observe,0,,,,,,,,,,,1,0,0.0,0.0,0.0,,,,,,HEARTBEAT,PreArm: Fence requires position,AUTO,0,0,0,0
2026-07-07T02:41:51.694918+00:00,26.432634830474854,E20_mission_edit,mission_edit_observe,0,,,,,0.0,0.0,0.0,13173877.35106569,,,1,0,0.0,0.0,0.0,-0.02,0.02,0.0,,,GLOBAL_POSITION_INT,PreArm: Fence requires position,AUTO,0,0,0,0
2026-07-07T02:41:51.695060+00:00,26.432780742645264,E20_mission_edit,mission_edit_observe,0,,,,,,,,,,,1,0,0.0,0.0,0.0,,,,,,MISSION_CURRENT,PreArm: Fence requires position,AUTO,0,0,0,0
2026-07-07T02:41:51.695267+00:00,26.4329833984375,E20_mission_edit,mission_edit_observe,0,,,,,,,,,,,1,0,0.0,0.0,0.0,,,,,,GPS_RAW_INT,PreArm: Fence requires position,AUTO,0,0,0,0
2026-07-07T02:41:51.695306+00:00,26.43302083015442,E20_mission_edit,mission_edit_observe,0,,,,,,,,,,,1,0,0.0,0.0,0.0,,,,,,FENCE_STATUS,PreArm: Fence requires position,AUTO,0,0,0,0
2026-07-07T02:41:51.893224+00:00,26.630961656570435,E20_mission_edit,mission_edit_observe,0,,,,,,,,,,,1,0,0.0,0.0,0.0,,,,,,HEARTBEAT,PreArm: Fence requires position,AUTO,0,0,0,0
2026-07-07T02:41:51.893367+00:00,26.631083965301514,E20_mission_edit,mission_edit_observe,0,,,,,0.0,0.0,0.0,13173877.35106569,,,1,0,0.0,0.0,0.0,-0.02,0.03,0.0,,,GLOBAL_POSITION_INT,PreArm: Fence requires position,AUTO,0,0,0,0
2026-07-07T02:41:51.893510+00:00,26.63123083114624,E20_mission_edit,mission_edit_observe,0,,,,,,,,,,,1,0,0.0,0.0,0.0,,,,,,MISSION_CURRENT,PreArm: Fence requires position,AUTO,0,0,0,0
2026-07-07T02:41:51.893757+00:00,26.631476640701294,E20_mission_edit,mission_edit_observe,0,,,,,,,,,,,1,0,0.0,0.0,0.0,,,,,,GPS_RAW_INT,PreArm: Fence requires position,AUTO,0,0,0,0
2026-07-07T02:41:51.893802+00:00,26.63151741027832,E20_mission_edit,mission_edit_observe,0,,,,,,,,,,,1,0,0.0,0.0,0.0,,,,,,FENCE_STATUS,PreArm: Fence requires position,AUTO,0,0,0,0
2026-07-07T02:41:52.091651+00:00,26.82938861846924,E20_mission_edit,mission_edit_observe,0,,,,,,,,,,,1,0,0.0,0.0,0.0,,,,,,HEARTBEAT,PreArm: Fence requires position,AUTO,0,0,0,0
2026-07-07T02:41:52.091795+00:00,26.829512357711792,E20_mission_edit,mission_edit_observe,0,,,,,0.0,0.0,0.0,13173877.35106569,,,1,0,0.0,0.0,0.0,-0.02,0.03,0.0,,,GLOBAL_POSITION_INT,PreArm: Fence requires position,AUTO,0,0,0,0
2026-07-07T02:41:52.091914+00:00,26.82962942123413,E20_mission_edit,mission_edit_observe,0,,,,,,,,,,,1,0,0.0,0.0,0.0,,,,,,MISSION_CURRENT,PreArm: Fence requires position,AUTO,0,0,0,0
2026-07-07T02:41:52.092109+00:00,26.829825401306152,E20_mission_edit,mission_edit_observe,0,,,,,,,,,,,1,0,0.0,0.0,0.0,,,,,,GPS_RAW_INT,PreArm: Fence requires position,AUTO,0,0,0,0
2026-07-07T02:41:52.092171+00:00,26.82988977432251,E20_mission_edit,mission_edit_observe,0,,,,,,,,,,,1,0,0.0,0.0,0.0,,,,,,FENCE_STATUS,PreArm: Fence requires position,AUTO,0,0,0,0
2026-07-07T02:41:52.289757+00:00,27.027494192123413,E20_mission_edit,mission_edit_observe,0,,,,,,,,,,,1,0,0.0,0.0,0.0,,,,,,HEARTBEAT,PreArm: Fence requires position,AUTO,0,0,0,0
2026-07-07T02:41:52.289893+00:00,27.027610778808594,E20_mission_edit,mission_edit_observe,0,,,,,0.0,0.0,0.0,13173877.35106569,,,1,0,0.0,0.0,0.0,-0.02,0.03,0.0,,,GLOBAL_POSITION_INT,PreArm: Fence requires position,AUTO,0,0,0,0
2026-07-07T02:41:52.290004+00:00,27.027719497680664,E20_mission_edit,mission_edit_observe,0,,,,,,,,,,,1,0,0.0,0.0,0.0,,,,,,MISSION_CURRENT,PreArm: Fence requires position,AUTO,0,0,0,0
2026-07-07T02:41:52.290192+00:00,27.027910470962524,E20_mission_edit,mission_edit_observe,0,,,,,,,,,,,1,0,0.0,0.0,0.0,,,,,,GPS_RAW_INT,PreArm: Fence requires position,AUTO,0,0,0,0
2026-07-07T02:41:52.290247+00:00,27.027966022491455,E20_mission_edit,mission_edit_observe,0,,,,,,,,,,,1,0,0.0,0.0,0.0,,,,,,FENCE_STATUS,PreArm: Fence requires position,AUTO,0,0,0,0
2026-07-07T02:41:52.493814+00:00,27.23155117034912,E20_mission_edit,mission_edit_observe,0,,,,,,,,,,,1,0,0.0,0.0,0.0,,,,,,HEARTBEAT,PreArm: Fence requires position,AUTO,0,0,0,0
2026-07-07T02:41:52.493947+00:00,27.231663465499878,E20_mission_edit,mission_edit_observe,0,,,,,0.0,0.0,0.0,13173877.35106569,,,1,0,0.0,0.0,0.0,-0.02,0.03,0.0,,,GLOBAL_POSITION_INT,PreArm: Fence requires position,AUTO,0,0,0,0
2026-07-07T02:41:52.494059+00:00,27.231775522232056,E20_mission_edit,mission_edit_observe,0,,,,,,,,,,,1,0,0.0,0.0,0.0,,,,,,MISSION_CURRENT,PreArm: Fence requires position,AUTO,0,0,0,0
2026-07-07T02:41:52.494381+00:00,27.23210310935974,E20_mission_edit,mission_edit_observe,0,,,,,,,,,,,1,0,0.0,0.0,0.0,,,,,,GPS_RAW_INT,PreArm: Fence requires position,AUTO,0,0,0,0
