timestamp,elapsed_s,experiment,phase,sample_index,target_lat,target_lon,target_alt,target_drift_m,obs_lat,obs_lon,obs_alt,official_drift_m,target_error_m,reflected,gps_fix_type,gps_satellites,gps_raw_lat,gps_raw_lon,gps_raw_alt,vn,ve,vd,commanded_speed_mps,commanded_accel_mps2,message_type,status_text,mode,fence_breach_status,fence_breach_count,fence_breach_type
2026-07-06T16:39:58.687045+00:00,0.026159048080444336,E4_linear_gps_input,warmup,0,37.5665,126.978,20.0,0.0,,,,,,,,,,,,,,,0.0,0.0,STATUSTEXT,GPS 1: detected MAV,,,,
2026-07-06T16:39:58.787456+00:00,0.12656879425048828,E4_linear_gps_input,warmup,0,37.5665,126.978,20.0,0.0,,,,,,,,,,,,,,,0.0,0.0,HEARTBEAT,GPS 1: detected MAV,STABILIZE,,,
2026-07-06T16:39:58.787709+00:00,0.12680602073669434,E4_linear_gps_input,warmup,0,37.5665,126.978,20.0,0.0,37.5665,126.978,0.0,0.0,0.0,0,,,,,,0.0,0.0,0.0,0.0,0.0,GLOBAL_POSITION_INT,GPS 1: detected MAV,STABILIZE,,,
2026-07-06T16:39:58.788024+00:00,0.12711215019226074,E4_linear_gps_input,warmup,0,37.5665,126.978,20.0,0.0,,,,,,,3,12,37.5665,126.978,20.0,,,,0.0,0.0,GPS_RAW_INT,GPS 1: detected MAV,STABILIZE,,,
2026-07-06T16:39:58.976318+00:00,0.315427303314209,E4_linear_gps_input,warmup,0,37.5665,126.978,20.0,0.0,,,,,,,3,12,37.5665,126.978,20.0,,,,0.0,0.0,HEARTBEAT,GPS 1: detected MAV,STABILIZE,,,
2026-07-06T16:39:58.976512+00:00,0.31560301780700684,E4_linear_gps_input,warmup,0,37.5665,126.978,20.0,0.0,37.5665,126.978,0.0,0.0,0.0,0,3,12,37.5665,126.978,20.0,0.0,0.0,0.0,0.0,0.0,GLOBAL_POSITION_INT,GPS 1: detected MAV,STABILIZE,,,
2026-07-06T16:39:58.978971+00:00,0.3180701732635498,E4_linear_gps_input,warmup,0,37.5665,126.978,20.0,0.0,,,,,,,3,12,37.5665,126.978,20.0,,,,0.0,0.0,GPS_RAW_INT,GPS 1: detected MAV,STABILIZE,,,
2026-07-06T16:39:59.181247+00:00,0.5203611850738525,E4_linear_gps_input,warmup,0,37.5665,126.978,20.0,0.0,,,,,,,3,12,37.5665,126.978,20.0,,,,0.0,0.0,HEARTBEAT,GPS 1: detected MAV,STABILIZE,,,
2026-07-06T16:39:59.181427+00:00,0.5205192565917969,E4_linear_gps_input,warmup,0,37.5665,126.978,20.0,0.0,37.5665,126.978,0.0,0.0,0.0,0,3,12,37.5665,126.978,20.0,0.0,0.0,0.0,0.0,0.0,GLOBAL_POSITION_INT,GPS 1: detected MAV,STABILIZE,,,
2026-07-06T16:39:59.181814+00:00,0.5209085941314697,E4_linear_gps_input,warmup,0,37.5665,126.978,20.0,0.0,,,,,,,3,12,37.5665,126.978,20.0,,,,0.0,0.0,GPS_RAW_INT,GPS 1: detected MAV,STABILIZE,,,
2026-07-06T16:39:59.289464+00:00,0.6285779476165771,E4_linear_gps_input,warmup,0,37.5665,126.978,20.0,0.0,,,,,,,3,12,37.5665,126.978,20.0,,,,0.0,0.0,STATUSTEXT,EKF3 IMU0 initialised,STABILIZE,,,
2026-07-06T16:39:59.289540+00:00,0.6286306381225586,E4_linear_gps_input,warmup,0,37.5665,126.978,20.0,0.0,,,,,,,3,12,37.5665,126.978,20.0,,,,0.0,0.0,STATUSTEXT,EKF3 IMU1 initialised,STABILIZE,,,
2026-07-06T16:39:59.289571+00:00,0.628659725189209,E4_linear_gps_input,warmup,0,37.5665,126.978,20.0,0.0,,,,,,,3,12,37.5665,126.978,20.0,,,,0.0,0.0,STATUSTEXT,AHRS: EKF3 active,STABILIZE,,,
2026-07-06T16:39:59.388703+00:00,0.7278146743774414,E4_linear_gps_input,warmup,0,37.5665,126.978,20.0,0.0,,,,,,,3,12,37.5665,126.978,20.0,,,,0.0,0.0,HEARTBEAT,AHRS: EKF3 active,STABILIZE,,,
2026-07-06T16:39:59.388862+00:00,0.7279517650604248,E4_linear_gps_input,warmup,0,37.5665,126.978,20.0,0.0,37.5665,126.978,20.0,0.0,0.0,0,3,12,37.5665,126.978,20.0,0.0,0.0,0.02,0.0,0.0,GLOBAL_POSITION_INT,AHRS: EKF3 active,STABILIZE,,,
2026-07-06T16:39:59.389226+00:00,0.7283167839050293,E4_linear_gps_input,warmup,0,37.5665,126.978,20.0,0.0,,,,,,,3,12,37.5665,126.978,20.0,,,,0.0,0.0,GPS_RAW_INT,AHRS: EKF3 active,STABILIZE,,,
2026-07-06T16:39:59.581086+00:00,0.9202010631561279,E4_linear_gps_input,warmup,0,37.5665,126.978,20.0,0.0,,,,,,,3,12,37.5665,126.978,20.0,,,,0.0,0.0,HEARTBEAT,AHRS: EKF3 active,STABILIZE,,,
2026-07-06T16:39:59.581254+00:00,0.9203445911407471,E4_linear_gps_input,warmup,0,37.5665,126.978,20.0,0.0,37.5665,126.978,20.0,0.0,0.0,0,3,12,37.5665,126.978,20.0,0.0,0.0,0.1,0.0,0.0,GLOBAL_POSITION_INT,AHRS: EKF3 active,STABILIZE,,,
2026-07-06T16:39:59.581614+00:00,0.9207043647766113,E4_linear_gps_input,warmup,0,37.5665,126.978,20.0,0.0,,,,,,,3,12,37.5665,126.978,20.0,,,,0.0,0.0,GPS_RAW_INT,AHRS: EKF3 active,STABILIZE,,,
2026-07-06T16:39:59.786298+00:00,1.1254103183746338,E4_linear_gps_input,warmup,0,37.5665,126.978,20.0,0.0,,,,,,,3,12,37.5665,126.978,20.0,,,,0.0,0.0,HEARTBEAT,AHRS: EKF3 active,STABILIZE,,,
2026-07-06T16:39:59.786459+00:00,1.1255481243133545,E4_linear_gps_input,warmup,0,37.5665,126.978,20.0,0.0,37.5665,126.978,20.0,0.0,0.0,0,3,12,37.5665,126.978,20.0,0.0,0.0,0.15,0.0,0.0,GLOBAL_POSITION_INT,AHRS: EKF3 active,STABILIZE,,,
2026-07-06T16:39:59.786821+00:00,1.125913381576538,E4_linear_gps_input,warmup,0,37.5665,126.978,20.0,0.0,,,,,,,3,12,37.5665,126.978,20.0,,,,0.0,0.0,GPS_RAW_INT,AHRS: EKF3 active,STABILIZE,,,
2026-07-06T16:39:59.987506+00:00,1.3266215324401855,E4_linear_gps_input,warmup,0,37.5665,126.978,20.0,0.0,,,,,,,3,12,37.5665,126.978,20.0,,,,0.0,0.0,HEARTBEAT,AHRS: EKF3 active,STABILIZE,,,
2026-07-06T16:39:59.987695+00:00,1.326786756515503,E4_linear_gps_input,warmup,0,37.5665,126.978,20.0,0.0,37.5665,126.978,20.0,0.0,0.0,0,3,12,37.5665,126.978,20.0,0.0,0.0,0.17,0.0,0.0,GLOBAL_POSITION_INT,AHRS: EKF3 active,STABILIZE,,,
2026-07-06T16:39:59.988062+00:00,1.3271541595458984,E4_linear_gps_input,warmup,0,37.5665,126.978,20.0,0.0,,,,,,,3,12,37.5665,126.978,20.0,,,,0.0,0.0,GPS_RAW_INT,AHRS: EKF3 active,STABILIZE,,,
2026-07-06T16:40:00.179441+00:00,1.5185565948486328,E4_linear_gps_input,warmup,0,37.5665,126.978,20.0,0.0,,,,,,,3,12,37.5665,126.978,20.0,,,,0.0,0.0,HEARTBEAT,AHRS: EKF3 active,STABILIZE,,,
2026-07-06T16:40:00.179608+00:00,1.5186982154846191,E4_linear_gps_input,warmup,0,37.5665,126.978,20.0,0.0,37.5665,126.978,20.0,0.0,0.0,0,3,12,37.5665,126.978,20.0,0.0,0.0,0.18,0.0,0.0,GLOBAL_POSITION_INT,AHRS: EKF3 active,STABILIZE,,,
2026-07-06T16:40:00.179953+00:00,1.519042730331421,E4_linear_gps_input,warmup,0,37.5665,126.978,20.0,0.0,,,,,,,3,12,37.5665,126.978,20.0,,,,0.0,0.0,GPS_RAW_INT,AHRS: EKF3 active,STABILIZE,,,
2026-07-06T16:40:00.378049+00:00,1.7171621322631836,E4_linear_gps_input,warmup,0,37.5665,126.978,20.0,0.0,,,,,,,3,12,37.5665,126.978,20.0,,,,0.0,0.0,HEARTBEAT,AHRS: EKF3 active,STABILIZE,,,
2026-07-06T16:40:00.378200+00:00,1.7172913551330566,E4_linear_gps_input,warmup,0,37.5665,126.978,20.0,0.0,37.5665,126.978,20.0,0.0,0.0,0,3,12,37.5665,126.978,20.0,0.0,0.0,0.18,0.0,0.0,GLOBAL_POSITION_INT,AHRS: EKF3 active,STABILIZE,,,
2026-07-06T16:40:00.378965+00:00,1.7180628776550293,E4_linear_gps_input,warmup,0,37.5665,126.978,20.0,0.0,,,,,,,3,12,37.5665,126.978,20.0,,,,0.0,0.0,GPS_RAW_INT,AHRS: EKF3 active,STABILIZE,,,
2026-07-06T16:40:00.582660+00:00,1.9217913150787354,E4_linear_gps_input,warmup,0,37.5665,126.978,20.0,0.0,,,,,,,3,12,37.5665,126.978,20.0,,,,0.0,0.0,HEARTBEAT,AHRS: EKF3 active,STABILIZE,,,
2026-07-06T16:40:00.582872+00:00,1.9219684600830078,E4_linear_gps_input,warmup,0,37.5665,126.978,20.0,0.0,37.5665,126.978,20.0,0.0,0.0,0,3,12,37.5665,126.978,20.0,0.0,0.0,0.17,0.0,0.0,GLOBAL_POSITION_INT,AHRS: EKF3 active,STABILIZE,,,
2026-07-06T16:40:00.583230+00:00,1.92232346534729,E4_linear_gps_input,warmup,0,37.5665,126.978,20.0,0.0,,,,,,,3,12,37.5665,126.978,20.0,,,,0.0,0.0,GPS_RAW_INT,AHRS: EKF3 active,STABILIZE,,,
2026-07-06T16:40:00.793602+00:00,2.1327173709869385,E4_linear_gps_input,warmup,0,37.5665,126.978,20.0,0.0,,,,,,,3,12,37.5665,126.978,20.0,,,,0.0,0.0,HEARTBEAT,AHRS: EKF3 active,STABILIZE,,,
2026-07-06T16:40:00.793767+00:00,2.1328582763671875,E4_linear_gps_input,warmup,0,37.5665,126.978,20.0,0.0,37.5665,126.978,20.0,0.0,0.0,0,3,12,37.5665,126.978,20.0,0.0,0.0,0.16,0.0,0.0,GLOBAL_POSITION_INT,AHRS: EKF3 active,STABILIZE,,,
2026-07-06T16:40:00.794098+00:00,2.133190155029297,E4_linear_gps_input,warmup,0,37.5665,126.978,20.0,0.0,,,,,,,3,12,37.5665,126.978,20.0,,,,0.0,0.0,GPS_RAW_INT,AHRS: EKF3 active,STABILIZE,,,
2026-07-06T16:40:01.009390+00:00,2.3485045433044434,E4_linear_gps_input,warmup,0,37.5665,126.978,20.0,0.0,,,,,,,3,12,37.5665,126.978,20.0,,,,0.0,0.0,HEARTBEAT,AHRS: EKF3 active,STABILIZE,,,
2026-07-06T16:40:01.009559+00:00,2.348649740219116,E4_linear_gps_input,warmup,0,37.5665,126.978,20.0,0.0,37.5665,126.978,20.0,0.0,0.0,0,3,12,37.5665,126.978,20.0,0.0,0.0,0.15,0.0,0.0,GLOBAL_POSITION_INT,AHRS: EKF3 active,STABILIZE,,,
2026-07-06T16:40:01.009927+00:00,2.349022388458252,E4_linear_gps_input,warmup,0,37.5665,126.978,20.0,0.0,,,,,,,3,12,37.5665,126.978,20.0,,,,0.0,0.0,GPS_RAW_INT,AHRS: EKF3 active,STABILIZE,,,
2026-07-06T16:40:01.010891+00:00,2.3499934673309326,E4_linear_gps_input,warmup,0,37.5665,126.978,20.0,0.0,,,,,,,3,12,37.5665,126.978,20.0,,,,0.0,0.0,STATUSTEXT,EKF3 IMU0 tilt alignment complete,STABILIZE,,,
2026-07-06T16:40:01.019145+00:00,2.358255624771118,E4_linear_gps_input,warmup,0,37.5665,126.978,20.0,0.0,,,,,,,3,12,37.5665,126.978,20.0,,,,0.0,0.0,STATUSTEXT,EKF3 IMU1 tilt alignment complete,STABILIZE,,,
2026-07-06T16:40:01.106679+00:00,2.4457857608795166,E4_linear_gps_input,warmup,0,37.5665,126.978,20.0,0.0,,,,,,,3,12,37.5665,126.978,20.0,,,,0.0,0.0,STATUSTEXT,EKF3 IMU1 MAG0 initial yaw alignment complete,STABILIZE,,,
2026-07-06T16:40:01.117034+00:00,2.4561431407928467,E4_linear_gps_input,warmup,0,37.5665,126.978,20.0,0.0,,,,,,,3,12,37.5665,126.978,20.0,,,,0.0,0.0,STATUSTEXT,EKF3 IMU0 MAG0 initial yaw alignment complete,STABILIZE,,,
2026-07-06T16:40:01.201394+00:00,2.5405430793762207,E4_linear_gps_input,warmup,0,37.5665,126.978,20.0,0.0,,,,,,,3,12,37.5665,126.978,20.0,,,,0.0,0.0,HEARTBEAT,EKF3 IMU0 MAG0 initial yaw alignment complete,STABILIZE,,,
2026-07-06T16:40:01.201953+00:00,2.541053295135498,E4_linear_gps_input,warmup,0,37.5665,126.978,20.0,0.0,37.5665,126.978,20.0,0.0,0.0,0,3,12,37.5665,126.978,20.0,0.0,0.0,0.14,0.0,0.0,GLOBAL_POSITION_INT,EKF3 IMU0 MAG0 initial yaw alignment complete,STABILIZE,,,
2026-07-06T16:40:01.202318+00:00,2.541412830352783,E4_linear_gps_input,warmup,0,37.5665,126.978,20.0,0.0,,,,,,,3,12,37.5665,126.978,20.0,,,,0.0,0.0,GPS_RAW_INT,EKF3 IMU0 MAG0 initial yaw alignment complete,STABILIZE,,,
2026-07-06T16:40:01.385106+00:00,2.724217653274536,E4_linear_gps_input,warmup,0,37.5665,126.978,20.0,0.0,,,,,,,3,12,37.5665,126.978,20.0,,,,0.0,0.0,HEARTBEAT,EKF3 IMU0 MAG0 initial yaw alignment complete,STABILIZE,,,
2026-07-06T16:40:01.385271+00:00,2.724363088607788,E4_linear_gps_input,warmup,0,37.5665,126.978,20.0,0.0,37.5665,126.978,20.0,0.0,0.0,0,3,12,37.5665,126.978,20.0,0.0,0.0,0.12,0.0,0.0,GLOBAL_POSITION_INT,EKF3 IMU0 MAG0 initial yaw alignment complete,STABILIZE,,,
2026-07-06T16:40:01.385840+00:00,2.7249364852905273,E4_linear_gps_input,warmup,0,37.5665,126.978,20.0,0.0,,,,,,,3,12,37.5665,126.978,20.0,,,,0.0,0.0,GPS_RAW_INT,EKF3 IMU0 MAG0 initial yaw alignment complete,STABILIZE,,,
2026-07-06T16:40:01.585563+00:00,2.924694538116455,E4_linear_gps_input,warmup,0,37.5665,126.978,20.0,0.0,,,,,,,3,12,37.5665,126.978,20.0,,,,0.0,0.0,HEARTBEAT,EKF3 IMU0 MAG0 initial yaw alignment complete,STABILIZE,,,
2026-07-06T16:40:01.585783+00:00,2.9248790740966797,E4_linear_gps_input,warmup,0,37.5665,126.978,20.0,0.0,37.5665,126.978,20.0,0.0,0.0,0,3,12,37.5665,126.978,20.0,0.0,0.0,0.09,0.0,0.0,GLOBAL_POSITION_INT,EKF3 IMU0 MAG0 initial yaw alignment complete,STABILIZE,,,
2026-07-06T16:40:01.586277+00:00,2.92537522315979,E4_linear_gps_input,warmup,0,37.5665,126.978,20.0,0.0,,,,,,,3,12,37.5665,126.978,20.0,,,,0.0,0.0,GPS_RAW_INT,EKF3 IMU0 MAG0 initial yaw alignment complete,STABILIZE,,,
2026-07-06T16:40:01.789764+00:00,3.128875494003296,E4_linear_gps_input,warmup,0,37.5665,126.978,20.0,0.0,,,,,,,3,12,37.5665,126.978,20.0,,,,0.0,0.0,HEARTBEAT,EKF3 IMU0 MAG0 initial yaw alignment complete,STABILIZE,,,
2026-07-06T16:40:01.789939+00:00,3.129039764404297,E4_linear_gps_input,warmup,0,37.5665,126.978,20.0,0.0,37.5665,126.978,20.0,0.0,0.0,0,3,12,37.5665,126.978,20.0,0.0,0.0,0.08,0.0,0.0,GLOBAL_POSITION_INT,EKF3 IMU0 MAG0 initial yaw alignment complete,STABILIZE,,,
2026-07-06T16:40:01.790515+00:00,3.129610776901245,E4_linear_gps_input,warmup,0,37.5665,126.978,20.0,0.0,,,,,,,3,12,37.5665,126.978,20.0,,,,0.0,0.0,GPS_RAW_INT,EKF3 IMU0 MAG0 initial yaw alignment complete,STABILIZE,,,
2026-07-06T16:40:01.989494+00:00,3.3286068439483643,E4_linear_gps_input,warmup,0,37.5665,126.978,20.0,0.0,,,,,,,3,12,37.5665,126.978,20.0,,,,0.0,0.0,HEARTBEAT,EKF3 IMU0 MAG0 initial yaw alignment complete,STABILIZE,,,
2026-07-06T16:40:01.989675+00:00,3.3287670612335205,E4_linear_gps_input,warmup,0,37.5665,126.978,20.0,0.0,37.5665,126.978,20.0,0.0,0.0,0,3,12,37.5665,126.978,20.0,0.0,0.0,0.06,0.0,0.0,GLOBAL_POSITION_INT,EKF3 IMU0 MAG0 initial yaw alignment complete,STABILIZE,,,
2026-07-06T16:40:01.990023+00:00,3.3291139602661133,E4_linear_gps_input,warmup,0,37.5665,126.978,20.0,0.0,,,,,,,3,12,37.5665,126.978,20.0,,,,0.0,0.0,GPS_RAW_INT,EKF3 IMU0 MAG0 initial yaw alignment complete,STABILIZE,,,
2026-07-06T16:40:02.181030+00:00,3.520139455795288,E4_linear_gps_input,warmup,0,37.5665,126.978,20.0,0.0,,,,,,,3,12,37.5665,126.978,20.0,,,,0.0,0.0,HEARTBEAT,EKF3 IMU0 MAG0 initial yaw alignment complete,STABILIZE,,,
2026-07-06T16:40:02.181272+00:00,3.5203676223754883,E4_linear_gps_input,warmup,0,37.5665,126.978,20.0,0.0,37.5665,126.978,20.0,0.0,0.0,0,3,12,37.5665,126.978,20.0,0.0,0.0,0.04,0.0,0.0,GLOBAL_POSITION_INT,EKF3 IMU0 MAG0 initial yaw alignment complete,STABILIZE,,,
2026-07-06T16:40:02.181618+00:00,3.520709753036499,E4_linear_gps_input,warmup,0,37.5665,126.978,20.0,0.0,,,,,,,3,12,37.5665,126.978,20.0,,,,0.0,0.0,GPS_RAW_INT,EKF3 IMU0 MAG0 initial yaw alignment complete,STABILIZE,,,
2026-07-06T16:40:02.382109+00:00,3.721222162246704,E4_linear_gps_input,warmup,0,37.5665,126.978,20.0,0.0,,,,,,,3,12,37.5665,126.978,20.0,,,,0.0,0.0,HEARTBEAT,EKF3 IMU0 MAG0 initial yaw alignment complete,STABILIZE,,,
2026-07-06T16:40:02.382280+00:00,3.7213711738586426,E4_linear_gps_input,warmup,0,37.5665,126.978,20.0,0.0,37.5665,126.978,20.0,0.0,0.0,0,3,12,37.5665,126.978,20.0,0.0,0.0,0.03,0.0,0.0,GLOBAL_POSITION_INT,EKF3 IMU0 MAG0 initial yaw alignment complete,STABILIZE,,,
2026-07-06T16:40:02.384531+00:00,3.7236361503601074,E4_linear_gps_input,warmup,0,37.5665,126.978,20.0,0.0,,,,,,,3,12,37.5665,126.978,20.0,,,,0.0,0.0,GPS_RAW_INT,EKF3 IMU0 MAG0 initial yaw alignment complete,STABILIZE,,,
2026-07-06T16:40:02.600886+00:00,3.9399969577789307,E4_linear_gps_input,warmup,0,37.5665,126.978,20.0,0.0,,,,,,,3,12,37.5665,126.978,20.0,,,,0.0,0.0,HEARTBEAT,EKF3 IMU0 MAG0 initial yaw alignment complete,STABILIZE,,,
2026-07-06T16:40:02.601047+00:00,3.9413630962371826,E4_linear_gps_input,warmup,0,37.5665,126.978,20.0,0.0,37.5665,126.978,20.0,0.0,0.0,0,3,12,37.5665,126.978,20.0,0.0,0.0,0.02,0.0,0.0,GLOBAL_POSITION_INT,EKF3 IMU0 MAG0 initial yaw alignment complete,STABILIZE,,,
2026-07-06T16:40:02.605133+00:00,3.944237470626831,E4_linear_gps_input,warmup,0,37.5665,126.978,20.0,0.0,,,,,,,3,12,37.5665,126.978,20.0,,,,0.0,0.0,GPS_RAW_INT,EKF3 IMU0 MAG0 initial yaw alignment complete,STABILIZE,,,
2026-07-06T16:40:02.792002+00:00,4.131113290786743,E4_linear_gps_input,warmup,0,37.5665,126.978,20.0,0.0,,,,,,,3,12,37.5665,126.978,20.0,,,,0.0,0.0,HEARTBEAT,EKF3 IMU0 MAG0 initial yaw alignment complete,STABILIZE,,,
2026-07-06T16:40:02.792163+00:00,4.1312549114227295,E4_linear_gps_input,warmup,0,37.5665,126.978,20.0,0.0,37.5665,126.978,20.0,0.0,0.0,0,3,12,37.5665,126.978,20.0,0.0,0.0,0.01,0.0,0.0,GLOBAL_POSITION_INT,EKF3 IMU0 MAG0 initial yaw alignment complete,STABILIZE,,,
2026-07-06T16:40:02.792501+00:00,4.1315953731536865,E4_linear_gps_input,warmup,0,37.5665,126.978,20.0,0.0,,,,,,,3,12,37.5665,126.978,20.0,,,,0.0,0.0,GPS_RAW_INT,EKF3 IMU0 MAG0 initial yaw alignment complete,STABILIZE,,,
2026-07-06T16:40:02.989437+00:00,4.328552961349487,E4_linear_gps_input,warmup,0,37.5665,126.978,20.0,0.0,,,,,,,3,12,37.5665,126.978,20.0,,,,0.0,0.0,HEARTBEAT,EKF3 IMU0 MAG0 initial yaw alignment complete,STABILIZE,,,
2026-07-06T16:40:02.989613+00:00,4.328702926635742,E4_linear_gps_input,warmup,0,37.5665,126.978,20.0,0.0,37.5665,126.978,20.0,0.0,0.0,0,3,12,37.5665,126.978,20.0,0.0,0.0,0.0,0.0,0.0,GLOBAL_POSITION_INT,EKF3 IMU0 MAG0 initial yaw alignment complete,STABILIZE,,,
2026-07-06T16:40:02.991271+00:00,4.330371141433716,E4_linear_gps_input,warmup,0,37.5665,126.978,20.0,0.0,,,,,,,3,12,37.5665,126.978,20.0,,,,0.0,0.0,GPS_RAW_INT,EKF3 IMU0 MAG0 initial yaw alignment complete,STABILIZE,,,
2026-07-06T16:40:03.190940+00:00,4.530054092407227,E4_linear_gps_input,warmup,0,37.5665,126.978,20.0,0.0,,,,,,,3,12,37.5665,126.978,20.0,,,,0.0,0.0,HEARTBEAT,EKF3 IMU0 MAG0 initial yaw alignment complete,STABILIZE,,,
2026-07-06T16:40:03.191107+00:00,4.53019642829895,E4_linear_gps_input,warmup,0,37.5665,126.978,20.0,0.0,37.5665,126.978,20.0,0.0,0.0,0,3,12,37.5665,126.978,20.0,0.0,0.0,0.0,0.0,0.0,GLOBAL_POSITION_INT,EKF3 IMU0 MAG0 initial yaw alignment complete,STABILIZE,,,
2026-07-06T16:40:03.191459+00:00,4.530552387237549,E4_linear_gps_input,warmup,0,37.5665,126.978,20.0,0.0,,,,,,,3,12,37.5665,126.978,20.0,,,,0.0,0.0,GPS_RAW_INT,EKF3 IMU0 MAG0 initial yaw alignment complete,STABILIZE,,,
2026-07-06T16:40:03.395179+00:00,4.7342939376831055,E4_linear_gps_input,warmup,0,37.5665,126.978,20.0,0.0,,,,,,,3,12,37.5665,126.978,20.0,,,,0.0,0.0,HEARTBEAT,EKF3 IMU0 MAG0 initial yaw alignment complete,STABILIZE,,,
2026-07-06T16:40:03.395346+00:00,4.734437465667725,E4_linear_gps_input,warmup,0,37.5665,126.978,20.0,0.0,37.5665,126.978,20.0,0.0,0.0,0,3,12,37.5665,126.978,20.0,0.0,0.0,-0.01,0.0,0.0,GLOBAL_POSITION_INT,EKF3 IMU0 MAG0 initial yaw alignment complete,STABILIZE,,,
2026-07-06T16:40:03.395709+00:00,4.734800577163696,E4_linear_gps_input,warmup,0,37.5665,126.978,20.0,0.0,,,,,,,3,12,37.5665,126.978,20.0,,,,0.0,0.0,GPS_RAW_INT,EKF3 IMU0 MAG0 initial yaw alignment complete,STABILIZE,,,
2026-07-06T16:40:03.584471+00:00,4.9235804080963135,E4_linear_gps_input,warmup,0,37.5665,126.978,20.0,0.0,,,,,,,3,12,37.5665,126.978,20.0,,,,0.0,0.0,HEARTBEAT,EKF3 IMU0 MAG0 initial yaw alignment complete,STABILIZE,,,
2026-07-06T16:40:03.584626+00:00,4.923716306686401,E4_linear_gps_input,warmup,0,37.5665,126.978,20.0,0.0,37.5665,126.978,20.0,0.0,0.0,0,3,12,37.5665,126.978,20.0,0.0,0.0,-0.02,0.0,0.0,GLOBAL_POSITION_INT,EKF3 IMU0 MAG0 initial yaw alignment complete,STABILIZE,,,
2026-07-06T16:40:03.585007+00:00,4.924102306365967,E4_linear_gps_input,warmup,0,37.5665,126.978,20.0,0.0,,,,,,,3,12,37.5665,126.978,20.0,,,,0.0,0.0,GPS_RAW_INT,EKF3 IMU0 MAG0 initial yaw alignment complete,STABILIZE,,,
2026-07-06T16:40:03.796007+00:00,5.1351141929626465,E4_linear_gps_input,warmup,0,37.5665,126.978,20.0,0.0,,,,,,,3,12,37.5665,126.978,20.0,,,,0.0,0.0,HEARTBEAT,EKF3 IMU0 MAG0 initial yaw alignment complete,STABILIZE,,,
2026-07-06T16:40:03.796144+00:00,5.1352338790893555,E4_linear_gps_input,warmup,0,37.5665,126.978,20.0,0.0,37.5665,126.978,20.0,0.0,0.0,0,3,12,37.5665,126.978,20.0,0.0,0.0,-0.02,0.0,0.0,GLOBAL_POSITION_INT,EKF3 IMU0 MAG0 initial yaw alignment complete,STABILIZE,,,
2026-07-06T16:40:03.796519+00:00,5.135614633560181,E4_linear_gps_input,warmup,0,37.5665,126.978,20.0,0.0,,,,,,,3,12,37.5665,126.978,20.0,,,,0.0,0.0,GPS_RAW_INT,EKF3 IMU0 MAG0 initial yaw alignment complete,STABILIZE,,,
2026-07-06T16:40:03.981981+00:00,5.321088790893555,E4_linear_gps_input,warmup,0,37.5665,126.978,20.0,0.0,,,,,,,3,12,37.5665,126.978,20.0,,,,0.0,0.0,HEARTBEAT,EKF3 IMU0 MAG0 initial yaw alignment complete,STABILIZE,,,
2026-07-06T16:40:03.982131+00:00,5.321278810501099,E4_linear_gps_input,warmup,0,37.5665,126.978,20.0,0.0,37.5665,126.978,20.0,0.0,0.0,0,3,12,37.5665,126.978,20.0,0.0,0.0,-0.03,0.0,0.0,GLOBAL_POSITION_INT,EKF3 IMU0 MAG0 initial yaw alignment complete,STABILIZE,,,
2026-07-06T16:40:03.982552+00:00,5.32164454460144,E4_linear_gps_input,warmup,0,37.5665,126.978,20.0,0.0,,,,,,,3,12,37.5665,126.978,20.0,,,,0.0,0.0,GPS_RAW_INT,EKF3 IMU0 MAG0 initial yaw alignment complete,STABILIZE,,,
2026-07-06T16:40:04.183784+00:00,5.5228962898254395,E4_linear_gps_input,warmup,0,37.5665,126.978,20.0,0.0,,,,,,,3,12,37.5665,126.978,20.0,,,,0.0,0.0,HEARTBEAT,EKF3 IMU0 MAG0 initial yaw alignment complete,STABILIZE,,,
2026-07-06T16:40:04.183944+00:00,5.523035049438477,E4_linear_gps_input,warmup,0,37.5665,126.978,20.0,0.0,37.5665,126.978,20.0,0.0,0.0,0,3,12,37.5665,126.978,20.0,0.0,0.0,-0.03,0.0,0.0,GLOBAL_POSITION_INT,EKF3 IMU0 MAG0 initial yaw alignment complete,STABILIZE,,,
2026-07-06T16:40:04.184338+00:00,5.523436069488525,E4_linear_gps_input,warmup,0,37.5665,126.978,20.0,0.0,,,,,,,3,12,37.5665,126.978,20.0,,,,0.0,0.0,GPS_RAW_INT,EKF3 IMU0 MAG0 initial yaw alignment complete,STABILIZE,,,
2026-07-06T16:40:04.388206+00:00,5.727308750152588,E4_linear_gps_input,injection,1,37.56650635201923,126.97800801368734,20.0,0.9988764305990786,,,,,,,3,12,37.5665,126.978,20.0,,,,2.0,4.0,HEARTBEAT,EKF3 IMU0 MAG0 initial yaw alignment complete,STABILIZE,,,
2026-07-06T16:40:04.388342+00:00,5.727431297302246,E4_linear_gps_input,injection,1,37.56650635201923,126.97800801368734,20.0,0.9988764305990786,37.5665063,126.978008,20.0,0.9939385639803775,0.005908737696590499,1,3,12,37.5665,126.978,20.0,0.0,0.0,-0.03,2.0,4.0,GLOBAL_POSITION_INT,EKF3 IMU0 MAG0 initial yaw alignment complete,STABILIZE,,,
2026-07-06T16:40:04.388684+00:00,5.727774381637573,E4_linear_gps_input,injection,1,37.56650635201923,126.97800801368734,20.0,0.9988764305990786,,,,,,,3,12,37.5665063,126.978008,20.0,,,,2.0,4.0,GPS_RAW_INT,EKF3 IMU0 MAG0 initial yaw alignment complete,STABILIZE,,,
2026-07-06T16:40:04.584410+00:00,5.923525333404541,E4_linear_gps_input,injection,1,37.56650635201923,126.97800801368734,20.0,0.9988764305990786,,,,,,,3,12,37.5665063,126.978008,20.0,,,,2.0,4.0,HEARTBEAT,EKF3 IMU0 MAG0 initial yaw alignment complete,STABILIZE,,,
2026-07-06T16:40:04.584595+00:00,5.923689126968384,E4_linear_gps_input,injection,1,37.56650635201923,126.97800801368734,20.0,0.9988764305990786,37.5665063,126.978008,20.0,0.9939385639803775,0.005908737696590499,1,3,12,37.5665063,126.978008,20.0,0.0,0.0,-0.04,2.0,4.0,GLOBAL_POSITION_INT,EKF3 IMU0 MAG0 initial yaw alignment complete,STABILIZE,,,
2026-07-06T16:40:04.584950+00:00,5.9240405559539795,E4_linear_gps_input,injection,1,37.56650635201923,126.97800801368734,20.0,0.9988764305990786,,,,,,,3,12,37.5665063,126.978008,20.0,,,,2.0,4.0,GPS_RAW_INT,EKF3 IMU0 MAG0 initial yaw alignment complete,STABILIZE,,,
2026-07-06T16:40:04.790276+00:00,6.129389524459839,E4_linear_gps_input,injection,1,37.56650635201923,126.97800801368734,20.0,0.9988764305990786,,,,,,,3,12,37.5665063,126.978008,20.0,,,,2.0,4.0,HEARTBEAT,EKF3 IMU0 MAG0 initial yaw alignment complete,STABILIZE,,,
2026-07-06T16:40:04.790504+00:00,6.129601240158081,E4_linear_gps_input,injection,1,37.56650635201923,126.97800801368734,20.0,0.9988764305990786,37.5665063,126.978008,20.0,0.9939385639803775,0.005908737696590499,1,3,12,37.5665063,126.978008,20.0,0.0,0.0,-0.04,2.0,4.0,GLOBAL_POSITION_INT,EKF3 IMU0 MAG0 initial yaw alignment complete,STABILIZE,,,
2026-07-06T16:40:04.790879+00:00,6.129970073699951,E4_linear_gps_input,injection,1,37.56650635201923,126.97800801368734,20.0,0.9988764305990786,,,,,,,3,12,37.5665063,126.978008,20.0,,,,2.0,4.0,GPS_RAW_INT,EKF3 IMU0 MAG0 initial yaw alignment complete,STABILIZE,,,
2026-07-06T16:40:04.983651+00:00,6.3227620124816895,E4_linear_gps_input,injection,2,37.566512704038466,126.9780160273747,20.0,1.997752818609409,,,,,,,3,12,37.5665063,126.978008,20.0,,,,2.0,0.0,HEARTBEAT,EKF3 IMU0 MAG0 initial yaw alignment complete,STABILIZE,,,
2026-07-06T16:40:04.983809+00:00,6.3228981494903564,E4_linear_gps_input,injection,2,37.566512704038466,126.9780160273747,20.0,1.997752818609409,37.5665127,126.978016,20.0,1.9957296931827684,0.00245419022910509,1,3,12,37.5665063,126.978008,20.0,0.0,0.0,-0.04,2.0,0.0,GLOBAL_POSITION_INT,EKF3 IMU0 MAG0 initial yaw alignment complete,STABILIZE,,,
2026-07-06T16:40:04.984205+00:00,6.323303699493408,E4_linear_gps_input,injection,2,37.566512704038466,126.9780160273747,20.0,1.997752818609409,,,,,,,3,12,37.5665127,126.978016,20.0,,,,2.0,0.0,GPS_RAW_INT,EKF3 IMU0 MAG0 initial yaw alignment complete,STABILIZE,,,
2026-07-06T16:40:05.184073+00:00,6.5231850147247314,E4_linear_gps_input,injection,2,37.566512704038466,126.9780160273747,20.0,1.997752818609409,,,,,,,3,12,37.5665127,126.978016,20.0,,,,2.0,0.0,HEARTBEAT,EKF3 IMU0 MAG0 initial yaw alignment complete,STABILIZE,,,
2026-07-06T16:40:05.184238+00:00,6.523328065872192,E4_linear_gps_input,injection,2,37.566512704038466,126.9780160273747,20.0,1.997752818609409,37.5665127,126.978016,20.0,1.9957296931827684,0.00245419022910509,1,3,12,37.5665127,126.978016,20.0,0.0,0.0,-0.04,2.0,0.0,GLOBAL_POSITION_INT,EKF3 IMU0 MAG0 initial yaw alignment complete,STABILIZE,,,
2026-07-06T16:40:05.186165+00:00,6.525263547897339,E4_linear_gps_input,injection,2,37.566512704038466,126.9780160273747,20.0,1.997752818609409,,,,,,,3,12,37.5665127,126.978016,20.0,,,,2.0,0.0,GPS_RAW_INT,EKF3 IMU0 MAG0 initial yaw alignment complete,STABILIZE,,,
2026-07-06T16:40:05.396221+00:00,6.73533821105957,E4_linear_gps_input,injection,2,37.566512704038466,126.9780160273747,20.0,1.997752818609409,,,,,,,3,12,37.5665127,126.978016,20.0,,,,2.0,0.0,HEARTBEAT,EKF3 IMU0 MAG0 initial yaw alignment complete,STABILIZE,,,
2026-07-06T16:40:05.396439+00:00,6.735537528991699,E4_linear_gps_input,injection,2,37.566512704038466,126.9780160273747,20.0,1.997752818609409,37.5665127,126.978016,20.0,1.9957296931827684,0.00245419022910509,1,3,12,37.5665127,126.978016,20.0,0.0,0.0,-0.04,2.0,0.0,GLOBAL_POSITION_INT,EKF3 IMU0 MAG0 initial yaw alignment complete,STABILIZE,,,
2026-07-06T16:40:05.396892+00:00,6.735989332199097,E4_linear_gps_input,injection,2,37.566512704038466,126.9780160273747,20.0,1.997752818609409,,,,,,,3,12,37.5665127,126.978016,20.0,,,,2.0,0.0,GPS_RAW_INT,EKF3 IMU0 MAG0 initial yaw alignment complete,STABILIZE,,,
2026-07-06T16:40:05.581187+00:00,6.920308828353882,E4_linear_gps_input,injection,3,37.5665190560577,126.97802404106206,20.0,2.9966291649166483,,,,,,,3,12,37.5665127,126.978016,20.0,,,,2.0,4.440892098500626e-16,HEARTBEAT,EKF3 IMU0 MAG0 initial yaw alignment complete,STABILIZE,,,
2026-07-06T16:40:05.581374+00:00,6.920466184616089,E4_linear_gps_input,injection,3,37.5665190560577,126.97802404106206,20.0,2.9966291649166483,37.566519,126.978024,20.0,2.989662989559788,0.007207813323002627,1,3,12,37.5665127,126.978016,20.0,0.0,0.0,-0.04,2.0,4.440892098500626e-16,GLOBAL_POSITION_INT,EKF3 IMU0 MAG0 initial yaw alignment complete,STABILIZE,,,
2026-07-06T16:40:05.583869+00:00,6.922971487045288,E4_linear_gps_input,injection,3,37.5665190560577,126.97802404106206,20.0,2.9966291649166483,,,,,,,3,12,37.566519,126.978024,20.0,,,,2.0,4.440892098500626e-16,GPS_RAW_INT,EKF3 IMU0 MAG0 initial yaw alignment complete,STABILIZE,,,
2026-07-06T16:40:05.790226+00:00,7.129333734512329,E4_linear_gps_input,injection,3,37.5665190560577,126.97802404106206,20.0,2.9966291649166483,,,,,,,3,12,37.566519,126.978024,20.0,,,,2.0,4.440892098500626e-16,HEARTBEAT,EKF3 IMU0 MAG0 initial yaw alignment complete,STABILIZE,,,
2026-07-06T16:40:05.790398+00:00,7.129488706588745,E4_linear_gps_input,injection,3,37.5665190560577,126.97802404106206,20.0,2.9966291649166483,37.566519,126.978024,20.0,2.989662989559788,0.007207813323002627,1,3,12,37.566519,126.978024,20.0,0.0,0.0,-0.04,2.0,4.440892098500626e-16,GLOBAL_POSITION_INT,EKF3 IMU0 MAG0 initial yaw alignment complete,STABILIZE,,,
2026-07-06T16:40:05.790789+00:00,7.12988543510437,E4_linear_gps_input,injection,3,37.5665190560577,126.97802404106206,20.0,2.9966291649166483,,,,,,,3,12,37.566519,126.978024,20.0,,,,2.0,4.440892098500626e-16,GPS_RAW_INT,EKF3 IMU0 MAG0 initial yaw alignment complete,STABILIZE,,,
2026-07-06T16:40:05.992011+00:00,7.331122159957886,E4_linear_gps_input,injection,4,37.566525408076934,126.9780320547494,20.0,3.9955054677494575,,,,,,,3,12,37.566519,126.978024,20.0,,,,1.9999999999999998,8.881784197001252e-16,HEARTBEAT,EKF3 IMU0 MAG0 initial yaw alignment complete,STABILIZE,,,
2026-07-06T16:40:05.992177+00:00,7.3312695026397705,E4_linear_gps_input,injection,4,37.566525408076934,126.9780320547494,20.0,3.9955054677494575,37.5665254,126.978032,20.0,3.9914592170329293,0.00490838073606408,1,3,12,37.566519,126.978024,20.0,0.0,0.0,-0.04,1.9999999999999998,8.881784197001252e-16,GLOBAL_POSITION_INT,EKF3 IMU0 MAG0 initial yaw alignment complete,STABILIZE,,,
2026-07-06T16:40:05.992505+00:00,7.331601142883301,E4_linear_gps_input,injection,4,37.566525408076934,126.9780320547494,20.0,3.9955054677494575,,,,,,,3,12,37.5665254,126.978032,20.0,,,,1.9999999999999998,8.881784197001252e-16,GPS_RAW_INT,EKF3 IMU0 MAG0 initial yaw alignment complete,STABILIZE,,,
2026-07-06T16:40:06.189441+00:00,7.52855658531189,E4_linear_gps_input,injection,4,37.566525408076934,126.9780320547494,20.0,3.9955054677494575,,,,,,,3,12,37.5665254,126.978032,20.0,,,,1.9999999999999998,8.881784197001252e-16,HEARTBEAT,EKF3 IMU0 MAG0 initial yaw alignment complete,STABILIZE,,,
2026-07-06T16:40:06.189613+00:00,7.528704881668091,E4_linear_gps_input,injection,4,37.566525408076934,126.9780320547494,20.0,3.9955054677494575,37.5665254,126.978032,20.0,3.9914592170329293,0.00490838073606408,1,3,12,37.5665254,126.978032,20.0,0.0,0.0,-0.04,1.9999999999999998,8.881784197001252e-16,GLOBAL_POSITION_INT,EKF3 IMU0 MAG0 initial yaw alignment complete,STABILIZE,,,
2026-07-06T16:40:06.190161+00:00,7.529260158538818,E4_linear_gps_input,injection,4,37.566525408076934,126.9780320547494,20.0,3.9955054677494575,,,,,,,3,12,37.5665254,126.978032,20.0,,,,1.9999999999999998,8.881784197001252e-16,GPS_RAW_INT,EKF3 IMU0 MAG0 initial yaw alignment complete,STABILIZE,,,
2026-07-06T16:40:06.384965+00:00,7.724077463150024,E4_linear_gps_input,injection,4,37.566525408076934,126.9780320547494,20.0,3.9955054677494575,,,,,,,3,12,37.5665254,126.978032,20.0,,,,1.9999999999999998,8.881784197001252e-16,HEARTBEAT,EKF3 IMU0 MAG0 initial yaw alignment complete,STABILIZE,,,
2026-07-06T16:40:06.385139+00:00,7.724231243133545,E4_linear_gps_input,injection,4,37.566525408076934,126.9780320547494,20.0,3.9955054677494575,37.5665254,126.978032,20.0,3.9914592170329293,0.00490838073606408,1,3,12,37.5665254,126.978032,20.0,0.0,0.0,-0.03,1.9999999999999998,8.881784197001252e-16,GLOBAL_POSITION_INT,EKF3 IMU0 MAG0 initial yaw alignment complete,STABILIZE,,,
2026-07-06T16:40:06.385528+00:00,7.724623441696167,E4_linear_gps_input,injection,4,37.566525408076934,126.9780320547494,20.0,3.9955054677494575,,,,,,,3,12,37.5665254,126.978032,20.0,,,,1.9999999999999998,8.881784197001252e-16,GPS_RAW_INT,EKF3 IMU0 MAG0 initial yaw alignment complete,STABILIZE,,,
2026-07-06T16:40:06.592082+00:00,7.931192874908447,E4_linear_gps_input,injection,5,37.56653176009617,126.97804006843675,20.0,4.994381727993494,,,,,,,3,12,37.5665254,126.978032,20.0,,,,1.9999999999999998,0.0,HEARTBEAT,EKF3 IMU0 MAG0 initial yaw alignment complete,STABILIZE,,,
2026-07-06T16:40:06.592251+00:00,7.931341886520386,E4_linear_gps_input,injection,5,37.56653176009617,126.97804006843675,20.0,4.994381727993494,37.5665317,126.97804,20.0,4.985391393888302,0.009002114317831598,1,3,12,37.5665254,126.978032,20.0,0.0,0.0,-0.03,1.9999999999999998,0.0,GLOBAL_POSITION_INT,EKF3 IMU0 MAG0 initial yaw alignment complete,STABILIZE,,,
2026-07-06T16:40:06.592605+00:00,7.931696653366089,E4_linear_gps_input,injection,5,37.56653176009617,126.97804006843675,20.0,4.994381727993494,,,,,,,3,12,37.5665317,126.97804,20.0,,,,1.9999999999999998,0.0,GPS_RAW_INT,EKF3 IMU0 MAG0 initial yaw alignment complete,STABILIZE,,,
2026-07-06T16:40:06.787976+00:00,8.127082824707031,E4_linear_gps_input,injection,5,37.56653176009617,126.97804006843675,20.0,4.994381727993494,,,,,,,3,12,37.5665317,126.97804,20.0,,,,1.9999999999999998,0.0,HEARTBEAT,EKF3 IMU0 MAG0 initial yaw alignment complete,STABILIZE,,,
2026-07-06T16:40:06.788118+00:00,8.127206563949585,E4_linear_gps_input,injection,5,37.56653176009617,126.97804006843675,20.0,4.994381727993494,37.5665317,126.97804,20.0,4.985391393888302,0.009002114317831598,1,3,12,37.5665317,126.97804,20.0,0.0,0.0,-0.03,1.9999999999999998,0.0,GLOBAL_POSITION_INT,EKF3 IMU0 MAG0 initial yaw alignment complete,STABILIZE,,,
2026-07-06T16:40:06.788406+00:00,8.12749433517456,E4_linear_gps_input,injection,5,37.56653176009617,126.97804006843675,20.0,4.994381727993494,,,,,,,3,12,37.5665317,126.97804,20.0,,,,1.9999999999999998,0.0,GPS_RAW_INT,EKF3 IMU0 MAG0 initial yaw alignment complete,STABILIZE,,,
2026-07-06T16:40:07.044158+00:00,8.383272886276245,E4_linear_gps_input,injection,6,37.5665381121154,126.9780480821241,20.0,5.993257945648749,,,,,,,3,12,37.5665317,126.97804,20.0,,,,2.0000000000000004,1.7763568394002505e-15,HEARTBEAT,EKF3 IMU0 MAG0 initial yaw alignment complete,STABILIZE,,,
2026-07-06T16:40:07.044332+00:00,8.383425235748291,E4_linear_gps_input,injection,6,37.5665381121154,126.9780480821241,20.0,5.993257945648749,37.5665381,126.978048,20.0,5.987188570432289,0.007362569347262746,1,3,12,37.5665317,126.97804,20.0,0.0,0.0,-0.03,2.0000000000000004,1.7763568394002505e-15,GLOBAL_POSITION_INT,EKF3 IMU0 MAG0 initial yaw alignment complete,STABILIZE,,,
2026-07-06T16:40:07.044790+00:00,8.383888959884644,E4_linear_gps_input,injection,6,37.5665381121154,126.9780480821241,20.0,5.993257945648749,,,,,,,3,12,37.5665381,126.978048,20.0,,,,2.0000000000000004,1.7763568394002505e-15,GPS_RAW_INT,EKF3 IMU0 MAG0 initial yaw alignment complete,STABILIZE,,,
2026-07-06T16:40:07.194709+00:00,8.533821105957031,E4_linear_gps_input,injection,6,37.5665381121154,126.9780480821241,20.0,5.993257945648749,,,,,,,3,12,37.5665381,126.978048,20.0,,,,2.0000000000000004,1.7763568394002505e-15,HEARTBEAT,EKF3 IMU0 MAG0 initial yaw alignment complete,STABILIZE,,,
2026-07-06T16:40:07.194872+00:00,8.533963441848755,E4_linear_gps_input,injection,6,37.5665381121154,126.9780480821241,20.0,5.993257945648749,37.5665381,126.978048,20.0,5.987188570432289,0.007362569347262746,1,3,12,37.5665381,126.978048,20.0,0.0,0.0,-0.03,2.0000000000000004,1.7763568394002505e-15,GLOBAL_POSITION_INT,EKF3 IMU0 MAG0 initial yaw alignment complete,STABILIZE,,,
2026-07-06T16:40:07.195241+00:00,8.53433632850647,E4_linear_gps_input,injection,6,37.5665381121154,126.9780480821241,20.0,5.993257945648749,,,,,,,3,12,37.5665381,126.978048,20.0,,,,2.0000000000000004,1.7763568394002505e-15,GPS_RAW_INT,EKF3 IMU0 MAG0 initial yaw alignment complete,STABILIZE,,,
2026-07-06T16:40:07.384131+00:00,8.72324013710022,E4_linear_gps_input,injection,6,37.5665381121154,126.9780480821241,20.0,5.993257945648749,,,,,,,3,12,37.5665381,126.978048,20.0,,,,2.0000000000000004,1.7763568394002505e-15,HEARTBEAT,EKF3 IMU0 MAG0 initial yaw alignment complete,STABILIZE,,,
2026-07-06T16:40:07.384315+00:00,8.723411798477173,E4_linear_gps_input,injection,6,37.5665381121154,126.9780480821241,20.0,5.993257945648749,37.5665381,126.978048,20.0,5.987188570432289,0.007362569347262746,1,3,12,37.5665381,126.978048,20.0,0.0,0.0,-0.03,2.0000000000000004,1.7763568394002505e-15,GLOBAL_POSITION_INT,EKF3 IMU0 MAG0 initial yaw alignment complete,STABILIZE,,,
2026-07-06T16:40:07.384686+00:00,8.723779678344727,E4_linear_gps_input,injection,6,37.5665381121154,126.9780480821241,20.0,5.993257945648749,,,,,,,3,12,37.5665381,126.978048,20.0,,,,2.0000000000000004,1.7763568394002505e-15,GPS_RAW_INT,EKF3 IMU0 MAG0 initial yaw alignment complete,STABILIZE,,,
2026-07-06T16:40:07.601746+00:00,8.940879821777344,E4_linear_gps_input,injection,7,37.56654446413464,126.97805609581145,20.0,6.992134120715214,,,,,,,3,12,37.5665381,126.978048,20.0,,,,1.9999999999999984,3.972054645195637e-15,HEARTBEAT,EKF3 IMU0 MAG0 initial yaw alignment complete,STABILIZE,,,
2026-07-06T16:40:07.601956+00:00,8.94105052947998,E4_linear_gps_input,injection,7,37.56654446413464,126.97805609581145,20.0,6.992134120715214,37.5665381,126.978048,20.0,5.987188570432289,1.0049556310787493,1,3,12,37.5665381,126.978048,20.0,0.0,0.0,-0.03,1.9999999999999984,3.972054645195637e-15,GLOBAL_POSITION_INT,EKF3 IMU0 MAG0 initial yaw alignment complete,STABILIZE,,,
2026-07-06T16:40:07.602320+00:00,8.941415786743164,E4_linear_gps_input,injection,7,37.56654446413464,126.97805609581145,20.0,6.992134120715214,,,,,,,3,12,37.5665381,126.978048,20.0,,,,1.9999999999999984,3.972054645195637e-15,GPS_RAW_INT,EKF3 IMU0 MAG0 initial yaw alignment complete,STABILIZE,,,
2026-07-06T16:40:07.785278+00:00,9.124388694763184,E4_linear_gps_input,injection,7,37.56654446413464,126.97805609581145,20.0,6.992134120715214,,,,,,,3,12,37.5665381,126.978048,20.0,,,,1.9999999999999984,3.972054645195637e-15,HEARTBEAT,EKF3 IMU0 MAG0 initial yaw alignment complete,STABILIZE,,,
2026-07-06T16:40:07.785435+00:00,9.124523878097534,E4_linear_gps_input,injection,7,37.56654446413464,126.97805609581145,20.0,6.992134120715214,37.5665444,126.978056,20.0,6.981120219999487,0.011053036504831852,1,3,12,37.5665381,126.978048,20.0,0.0,0.0,-0.02,1.9999999999999984,3.972054645195637e-15,GLOBAL_POSITION_INT,EKF3 IMU0 MAG0 initial yaw alignment complete,STABILIZE,,,
2026-07-06T16:40:07.785777+00:00,9.124869346618652,E4_linear_gps_input,injection,7,37.56654446413464,126.97805609581145,20.0,6.992134120715214,,,,,,,3,12,37.5665444,126.978056,20.0,,,,1.9999999999999984,3.972054645195637e-15,GPS_RAW_INT,EKF3 IMU0 MAG0 initial yaw alignment complete,STABILIZE,,,
2026-07-06T16:40:08.005490+00:00,9.34459900856018,E4_linear_gps_input,injection,7,37.56654446413464,126.97805609581145,20.0,6.992134120715214,,,,,,,3,12,37.5665444,126.978056,20.0,,,,1.9999999999999984,3.972054645195637e-15,HEARTBEAT,EKF3 IMU0 MAG0 initial yaw alignment complete,STABILIZE,,,
2026-07-06T16:40:08.005637+00:00,9.344725847244263,E4_linear_gps_input,injection,7,37.56654446413464,126.97805609581145,20.0,6.992134120715214,37.5665444,126.978056,20.0,6.981120219999487,0.011053036504831852,1,3,12,37.5665444,126.978056,20.0,0.0,0.0,-0.02,1.9999999999999984,3.972054645195637e-15,GLOBAL_POSITION_INT,EKF3 IMU0 MAG0 initial yaw alignment complete,STABILIZE,,,
2026-07-06T16:40:08.005985+00:00,9.345075130462646,E4_linear_gps_input,injection,7,37.56654446413464,126.97805609581145,20.0,6.992134120715214,,,,,,,3,12,37.5665444,126.978056,20.0,,,,1.9999999999999984,3.972054645195637e-15,GPS_RAW_INT,EKF3 IMU0 MAG0 initial yaw alignment complete,STABILIZE,,,
2026-07-06T16:40:08.190149+00:00,9.529265403747559,E4_linear_gps_input,injection,8,37.56655081615387,126.9780641094988,20.0,7.991010253192881,,,,,,,3,12,37.5665444,126.978056,20.0,,,,2.000000000000001,5.0242958677880805e-15,HEARTBEAT,EKF3 IMU0 MAG0 initial yaw alignment complete,STABILIZE,,,
2026-07-06T16:40:08.190326+00:00,9.529415369033813,E4_linear_gps_input,injection,8,37.56655081615387,126.9780641094988,20.0,7.991010253192881,37.5665508,126.9780641,20.0,7.989148161816393,0.001981754890039203,1,3,12,37.5665444,126.978056,20.0,0.0,0.0,-0.02,2.000000000000001,5.0242958677880805e-15,GLOBAL_POSITION_INT,EKF3 IMU0 MAG0 initial yaw alignment complete,STABILIZE,,,
2026-07-06T16:40:08.190739+00:00,9.529837369918823,E4_linear_gps_input,injection,8,37.56655081615387,126.9780641094988,20.0,7.991010253192881,,,,,,,3,12,37.5665508,126.9780641,20.0,,,,2.000000000000001,5.0242958677880805e-15,GPS_RAW_INT,EKF3 IMU0 MAG0 initial yaw alignment complete,STABILIZE,,,
2026-07-06T16:40:08.389847+00:00,9.728957414627075,E4_linear_gps_input,injection,8,37.56655081615387,126.9780641094988,20.0,7.991010253192881,,,,,,,3,12,37.5665508,126.9780641,20.0,,,,2.000000000000001,5.0242958677880805e-15,HEARTBEAT,EKF3 IMU0 MAG0 initial yaw alignment complete,STABILIZE,,,
2026-07-06T16:40:08.390020+00:00,9.729114532470703,E4_linear_gps_input,injection,8,37.56655081615387,126.9780641094988,20.0,7.991010253192881,37.5665508,126.9780641,20.0,7.989148161816393,0.001981754890039203,1,3,12,37.5665508,126.9780641,20.0,0.0,0.0,-0.02,2.000000000000001,5.0242958677880805e-15,GLOBAL_POSITION_INT,EKF3 IMU0 MAG0 initial yaw alignment complete,STABILIZE,,,
2026-07-06T16:40:08.390374+00:00,9.729464054107666,E4_linear_gps_input,injection,8,37.56655081615387,126.9780641094988,20.0,7.991010253192881,,,,,,,3,12,37.5665508,126.9780641,20.0,,,,2.000000000000001,5.0242958677880805e-15,GPS_RAW_INT,EKF3 IMU0 MAG0 initial yaw alignment complete,STABILIZE,,,
2026-07-06T16:40:08.593440+00:00,9.932551383972168,E4_linear_gps_input,injection,8,37.56655081615387,126.9780641094988,20.0,7.991010253192881,,,,,,,3,12,37.5665508,126.9780641,20.0,,,,2.000000000000001,5.0242958677880805e-15,HEARTBEAT,EKF3 IMU0 MAG0 initial yaw alignment complete,STABILIZE,,,
2026-07-06T16:40:08.593598+00:00,9.932686567306519,E4_linear_gps_input,injection,8,37.56655081615387,126.9780641094988,20.0,7.991010253192881,37.5665508,126.9780641,20.0,7.989148161816393,0.001981754890039203,1,3,12,37.5665508,126.9780641,20.0,0.0,0.0,-0.02,2.000000000000001,5.0242958677880805e-15,GLOBAL_POSITION_INT,EKF3 IMU0 MAG0 initial yaw alignment complete,STABILIZE,,,
2026-07-06T16:40:08.594002+00:00,9.933097839355469,E4_linear_gps_input,injection,8,37.56655081615387,126.9780641094988,20.0,7.991010253192881,,,,,,,3,12,37.5665508,126.9780641,20.0,,,,2.000000000000001,5.0242958677880805e-15,GPS_RAW_INT,EKF3 IMU0 MAG0 initial yaw alignment complete,STABILIZE,,,
2026-07-06T16:40:08.787966+00:00,10.12708067893982,E4_linear_gps_input,injection,9,37.566557168173105,126.97807212318617,20.0,8.989886343967408,,,,,,,3,12,37.5665508,126.9780641,20.0,,,,2.000000000000001,0.0,HEARTBEAT,EKF3 IMU0 MAG0 initial yaw alignment complete,STABILIZE,,,
2026-07-06T16:40:08.788168+00:00,10.127264976501465,E4_linear_gps_input,injection,9,37.566557168173105,126.97807212318617,20.0,8.989886343967408,37.5665571,126.9780721,20.0,8.983081938897369,0.007851132416971527,1,3,12,37.5665508,126.9780641,20.0,0.0,0.0,-0.02,2.000000000000001,0.0,GLOBAL_POSITION_INT,EKF3 IMU0 MAG0 initial yaw alignment complete,STABILIZE,,,
2026-07-06T16:40:08.788506+00:00,10.12759780883789,E4_linear_gps_input,injection,9,37.566557168173105,126.97807212318617,20.0,8.989886343967408,,,,,,,3,12,37.5665571,126.9780721,20.0,,,,2.000000000000001,0.0,GPS_RAW_INT,EKF3 IMU0 MAG0 initial yaw alignment complete,STABILIZE,,,
2026-07-06T16:40:08.986111+00:00,10.325234651565552,E4_linear_gps_input,injection,9,37.566557168173105,126.97807212318617,20.0,8.989886343967408,,,,,,,3,12,37.5665571,126.9780721,20.0,,,,2.000000000000001,0.0,HEARTBEAT,EKF3 IMU0 MAG0 initial yaw alignment complete,STABILIZE,,,
2026-07-06T16:40:08.986301+00:00,10.3253915309906,E4_linear_gps_input,injection,9,37.566557168173105,126.97807212318617,20.0,8.989886343967408,37.5665571,126.9780721,20.0,8.983081938897369,0.007851132416971527,1,3,12,37.5665571,126.9780721,20.0,0.0,0.0,-0.02,2.000000000000001,0.0,GLOBAL_POSITION_INT,EKF3 IMU0 MAG0 initial yaw alignment complete,STABILIZE,,,
2026-07-06T16:40:08.986903+00:00,10.325998306274414,E4_linear_gps_input,injection,9,37.566557168173105,126.97807212318617,20.0,8.989886343967408,,,,,,,3,12,37.5665571,126.9780721,20.0,,,,2.000000000000001,0.0,GPS_RAW_INT,EKF3 IMU0 MAG0 initial yaw alignment complete,STABILIZE,,,
2026-07-06T16:40:09.194031+00:00,10.533133029937744,E4_linear_gps_input,injection,10,37.56656352019235,126.97808013687352,20.0,9.988762391826127,,,,,,,3,12,37.5665571,126.9780721,20.0,,,,1.9999999999999984,5.0242958677880805e-15,HEARTBEAT,EKF3 IMU0 MAG0 initial yaw alignment complete,STABILIZE,,,
2026-07-06T16:40:09.194178+00:00,10.533268451690674,E4_linear_gps_input,injection,10,37.56656352019235,126.97808013687352,20.0,9.988762391826127,37.5665571,126.9780721,20.0,8.983081938897369,1.0056889296629559,1,3,12,37.5665571,126.9780721,20.0,0.0,0.0,-0.02,1.9999999999999984,5.0242958677880805e-15,GLOBAL_POSITION_INT,EKF3 IMU0 MAG0 initial yaw alignment complete,STABILIZE,,,
2026-07-06T16:40:09.194530+00:00,10.533622026443481,E4_linear_gps_input,injection,10,37.56656352019235,126.97808013687352,20.0,9.988762391826127,,,,,,,3,12,37.5665571,126.9780721,20.0,,,,1.9999999999999984,5.0242958677880805e-15,GPS_RAW_INT,EKF3 IMU0 MAG0 initial yaw alignment complete,STABILIZE,,,
2026-07-06T16:40:09.387064+00:00,10.726176500320435,E4_linear_gps_input,injection,10,37.56656352019235,126.97808013687352,20.0,9.988762391826127,,,,,,,3,12,37.5665571,126.9780721,20.0,,,,1.9999999999999984,5.0242958677880805e-15,HEARTBEAT,EKF3 IMU0 MAG0 initial yaw alignment complete,STABILIZE,,,
2026-07-06T16:40:09.387233+00:00,10.72632360458374,E4_linear_gps_input,injection,10,37.56656352019235,126.97808013687352,20.0,9.988762391826127,37.5665635,126.9780801,20.0,9.984876688081394,0.003950136384100554,1,3,12,37.5665571,126.9780721,20.0,0.0,0.0,-0.02,1.9999999999999984,5.0242958677880805e-15,GLOBAL_POSITION_INT,EKF3 IMU0 MAG0 initial yaw alignment complete,STABILIZE,,,
2026-07-06T16:40:09.387607+00:00,10.72669792175293,E4_linear_gps_input,injection,10,37.56656352019235,126.97808013687352,20.0,9.988762391826127,,,,,,,3,12,37.5665635,126.9780801,20.0,,,,1.9999999999999984,5.0242958677880805e-15,GPS_RAW_INT,EKF3 IMU0 MAG0 initial yaw alignment complete,STABILIZE,,,
2026-07-06T16:40:09.586517+00:00,10.9263277053833,E4_linear_gps_input,injection,10,37.56656352019235,126.97808013687352,20.0,9.988762391826127,,,,,,,3,12,37.5665635,126.9780801,20.0,,,,1.9999999999999984,5.0242958677880805e-15,HEARTBEAT,EKF3 IMU0 MAG0 initial yaw alignment complete,STABILIZE,,,
2026-07-06T16:40:09.587548+00:00,10.926648139953613,E4_linear_gps_input,injection,10,37.56656352019235,126.97808013687352,20.0,9.988762391826127,37.5665635,126.9780801,20.0,9.984876688081394,0.003950136384100554,1,3,12,37.5665635,126.9780801,20.0,0.0,0.0,-0.01,1.9999999999999984,5.0242958677880805e-15,GLOBAL_POSITION_INT,EKF3 IMU0 MAG0 initial yaw alignment complete,STABILIZE,,,
2026-07-06T16:40:09.588387+00:00,10.9275484085083,E4_linear_gps_input,injection,10,37.56656352019235,126.97808013687352,20.0,9.988762391826127,,,,,,,3,12,37.5665635,126.9780801,20.0,,,,1.9999999999999984,5.0242958677880805e-15,GPS_RAW_INT,EKF3 IMU0 MAG0 initial yaw alignment complete,STABILIZE,,,
2026-07-06T16:40:09.707910+00:00,11.047022104263306,E4_linear_gps_input,injection,11,37.56656987221158,126.97808815056086,20.0,10.987638396537346,,,,,,,3,12,37.5665635,126.9780801,20.0,,,,1.9999999999999998,3.552713678800501e-15,STATUSTEXT,EKF3 IMU1 origin set,STABILIZE,,,
2026-07-06T16:40:09.718749+00:00,11.057861566543579,E4_linear_gps_input,injection,11,37.56656987221158,126.97808815056086,20.0,10.987638396537346,,,,,,,3,12,37.5665635,126.9780801,20.0,,,,1.9999999999999998,3.552713678800501e-15,STATUSTEXT,EKF3 IMU0 origin set,STABILIZE,,,
2026-07-06T16:40:09.766713+00:00,11.105854034423828,E4_linear_gps_input,injection,11,37.56656987221158,126.97808815056086,20.0,10.987638396537346,,,,,,,3,12,37.5665635,126.9780801,20.0,,,,1.9999999999999998,3.552713678800501e-15,STATUSTEXT,Field Elevation Set: 20m,STABILIZE,,,
2026-07-06T16:40:09.793127+00:00,11.132254123687744,E4_linear_gps_input,injection,11,37.56656987221158,126.97808815056086,20.0,10.987638396537346,,,,,,,3,12,37.5665635,126.9780801,20.0,,,,1.9999999999999998,3.552713678800501e-15,HEARTBEAT,Field Elevation Set: 20m,STABILIZE,,,
2026-07-06T16:40:09.793348+00:00,11.13244080543518,E4_linear_gps_input,injection,11,37.56656987221158,126.97808815056086,20.0,10.987638396537346,37.5665698,126.9780881,20.0,10.978809821102969,0.00918329108405013,1,3,12,37.5665635,126.9780801,20.0,0.0,0.0,0.0,1.9999999999999998,3.552713678800501e-15,GLOBAL_POSITION_INT,Field Elevation Set: 20m,STABILIZE,,,
2026-07-06T16:40:09.793888+00:00,11.132983207702637,E4_linear_gps_input,injection,11,37.56656987221158,126.97808815056086,20.0,10.987638396537346,,,,,,,3,12,37.5665698,126.9780881,20.0,,,,1.9999999999999998,3.552713678800501e-15,GPS_RAW_INT,Field Elevation Set: 20m,STABILIZE,,,
2026-07-06T16:40:09.986821+00:00,11.32594108581543,E4_linear_gps_input,injection,11,37.56656987221158,126.97808815056086,20.0,10.987638396537346,,,,,,,3,12,37.5665698,126.9780881,20.0,,,,1.9999999999999998,3.552713678800501e-15,HEARTBEAT,Field Elevation Set: 20m,STABILIZE,,,
2026-07-06T16:40:09.987033+00:00,11.326127529144287,E4_linear_gps_input,injection,11,37.56656987221158,126.97808815056086,20.0,10.987638396537346,37.5665698,126.9780881,20.0,10.978809821102969,0.00918329108405013,1,3,12,37.5665698,126.9780881,20.0,0.0,0.0,0.0,1.9999999999999998,3.552713678800501e-15,GLOBAL_POSITION_INT,Field Elevation Set: 20m,STABILIZE,,,
2026-07-06T16:40:09.987515+00:00,11.326608419418335,E4_linear_gps_input,injection,11,37.56656987221158,126.97808815056086,20.0,10.987638396537346,,,,,,,3,12,37.5665698,126.9780881,20.0,,,,1.9999999999999998,3.552713678800501e-15,GPS_RAW_INT,Field Elevation Set: 20m,STABILIZE,,,
2026-07-06T16:40:10.197392+00:00,11.536505937576294,E4_linear_gps_input,injection,11,37.56656987221158,126.97808815056086,20.0,10.987638396537346,,,,,,,3,12,37.5665698,126.9780881,20.0,,,,1.9999999999999998,3.552713678800501e-15,HEARTBEAT,Field Elevation Set: 20m,STABILIZE,,,
2026-07-06T16:40:10.198393+00:00,11.537503004074097,E4_linear_gps_input,injection,11,37.56656987221158,126.97808815056086,20.0,10.987638396537346,37.5665698,126.9780881,20.0,10.978809821102969,0.00918329108405013,1,3,12,37.5665698,126.9780881,20.0,0.0,0.0,0.0,1.9999999999999998,3.552713678800501e-15,GLOBAL_POSITION_INT,Field Elevation Set: 20m,STABILIZE,,,
2026-07-06T16:40:10.198986+00:00,11.538083553314209,E4_linear_gps_input,injection,11,37.56656987221158,126.97808815056086,20.0,10.987638396537346,,,,,,,3,12,37.5665698,126.9780881,20.0,,,,1.9999999999999998,3.552713678800501e-15,GPS_RAW_INT,Field Elevation Set: 20m,STABILIZE,,,
2026-07-06T16:40:10.398927+00:00,11.738039016723633,E4_linear_gps_input,injection,12,37.566576224230815,126.97809616424821,20.0,11.986514358659738,,,,,,,3,12,37.5665698,126.9780881,20.0,,,,2.000000000000001,3.552713678800501e-15,HEARTBEAT,Field Elevation Set: 20m,STABILIZE,,,
2026-07-06T16:40:10.399087+00:00,11.738175392150879,E4_linear_gps_input,injection,12,37.566576224230815,126.97809616424821,20.0,11.986514358659738,37.5665762,126.9780961,20.0,11.980605206554753,0.006271034229535233,1,3,12,37.5665698,126.9780881,20.0,0.0,0.0,0.0,2.000000000000001,3.552713678800501e-15,GLOBAL_POSITION_INT,Field Elevation Set: 20m,STABILIZE,,,
2026-07-06T16:40:10.399393+00:00,11.738481521606445,E4_linear_gps_input,injection,12,37.566576224230815,126.97809616424821,20.0,11.986514358659738,,,,,,,3,12,37.5665762,126.9780961,20.0,,,,2.000000000000001,3.552713678800501e-15,GPS_RAW_INT,Field Elevation Set: 20m,STABILIZE,,,
2026-07-06T16:40:10.601969+00:00,11.941083431243896,E4_linear_gps_input,injection,12,37.566576224230815,126.97809616424821,20.0,11.986514358659738,,,,,,,3,12,37.5665762,126.9780961,20.0,,,,2.000000000000001,3.552713678800501e-15,HEARTBEAT,Field Elevation Set: 20m,STABILIZE,,,
2026-07-06T16:40:10.602199+00:00,11.941298007965088,E4_linear_gps_input,injection,12,37.566576224230815,126.97809616424821,20.0,11.986514358659738,37.5665762,126.9780961,20.0,11.980605206554753,0.006271034229535233,1,3,12,37.5665762,126.9780961,20.0,0.0,0.0,0.0,2.000000000000001,3.552713678800501e-15,GLOBAL_POSITION_INT,Field Elevation Set: 20m,STABILIZE,,,
2026-07-06T16:40:10.602829+00:00,11.94192624092102,E4_linear_gps_input,injection,12,37.566576224230815,126.97809616424821,20.0,11.986514358659738,,,,,,,3,12,37.5665762,126.9780961,20.0,,,,2.000000000000001,3.552713678800501e-15,GPS_RAW_INT,Field Elevation Set: 20m,STABILIZE,,,
2026-07-06T16:40:10.806517+00:00,12.145632028579712,E4_linear_gps_input,injection,13,37.56658257625005,126.97810417793556,20.0,12.985390278193282,,,,,,,3,12,37.5665762,126.9780961,20.0,,,,2.000000000000001,0.0,HEARTBEAT,Field Elevation Set: 20m,STABILIZE,,,
2026-07-06T16:40:10.806699+00:00,12.145789861679077,E4_linear_gps_input,injection,13,37.56658257625005,126.97810417793556,20.0,12.985390278193282,37.5665762,126.9780961,20.0,11.980605206554753,1.0047874460845725,1,3,12,37.5665762,126.9780961,20.0,0.0,0.0,0.0,2.000000000000001,0.0,GLOBAL_POSITION_INT,Field Elevation Set: 20m,STABILIZE,,,
2026-07-06T16:40:10.807100+00:00,12.146195411682129,E4_linear_gps_input,injection,13,37.56658257625005,126.97810417793556,20.0,12.985390278193282,,,,,,,3,12,37.5665825,126.9781041,20.0,,,,2.000000000000001,0.0,GPS_RAW_INT,Field Elevation Set: 20m,STABILIZE,,,
2026-07-06T16:40:11.007905+00:00,12.347018003463745,E4_linear_gps_input,injection,13,37.56658257625005,126.97810417793556,20.0,12.985390278193282,,,,,,,3,12,37.5665825,126.9781041,20.0,,,,2.000000000000001,0.0,HEARTBEAT,Field Elevation Set: 20m,STABILIZE,,,
2026-07-06T16:40:11.008077+00:00,12.347170114517212,E4_linear_gps_input,injection,13,37.56658257625005,126.97810417793556,20.0,12.985390278193282,37.5665825,126.9781041,20.0,12.974537855381545,0.010911986608970164,1,3,12,37.5665825,126.9781041,20.0,0.0,0.0,0.0,2.000000000000001,0.0,GLOBAL_POSITION_INT,Field Elevation Set: 20m,STABILIZE,,,
2026-07-06T16:40:11.008771+00:00,12.347869157791138,E4_linear_gps_input,injection,13,37.56658257625005,126.97810417793556,20.0,12.985390278193282,,,,,,,3,12,37.5665825,126.9781041,20.0,,,,2.000000000000001,0.0,GPS_RAW_INT,Field Elevation Set: 20m,STABILIZE,,,
2026-07-06T16:40:11.194580+00:00,12.533695459365845,E4_linear_gps_input,injection,13,37.56658257625005,126.97810417793556,20.0,12.985390278193282,,,,,,,3,12,37.5665825,126.9781041,20.0,,,,2.000000000000001,0.0,HEARTBEAT,Field Elevation Set: 20m,STABILIZE,,,
2026-07-06T16:40:11.194750+00:00,12.533839225769043,E4_linear_gps_input,injection,13,37.56658257625005,126.97810417793556,20.0,12.985390278193282,37.5665825,126.9781041,20.0,12.974537855381545,0.010911986608970164,1,3,12,37.5665825,126.9781041,20.0,0.0,0.0,0.0,2.000000000000001,0.0,GLOBAL_POSITION_INT,Field Elevation Set: 20m,STABILIZE,,,
2026-07-06T16:40:11.195164+00:00,12.534261226654053,E4_linear_gps_input,injection,13,37.56658257625005,126.97810417793556,20.0,12.985390278193282,,,,,,,3,12,37.5665825,126.9781041,20.0,,,,2.000000000000001,0.0,GPS_RAW_INT,Field Elevation Set: 20m,STABILIZE,,,
2026-07-06T16:40:11.387412+00:00,12.726524591445923,E4_linear_gps_input,injection,14,37.56658892826928,126.97811219162291,20.0,13.984266155137986,,,,,,,3,12,37.5665825,126.9781041,20.0,,,,1.999999999999996,1.0048591735576161e-14,HEARTBEAT,Field Elevation Set: 20m,STABILIZE,,,
2026-07-06T16:40:11.387577+00:00,12.726667642593384,E4_linear_gps_input,injection,14,37.56658892826928,126.97811219162291,20.0,13.984266155137986,37.5665889,126.9781121,20.0,13.976333647795823,0.008665692357385955,1,3,12,37.5665825,126.9781041,20.0,0.0,0.0,0.0,1.999999999999996,1.0048591735576161e-14,GLOBAL_POSITION_INT,Field Elevation Set: 20m,STABILIZE,,,
2026-07-06T16:40:11.387938+00:00,12.727028131484985,E4_linear_gps_input,injection,14,37.56658892826928,126.97811219162291,20.0,13.984266155137986,,,,,,,3,12,37.5665889,126.9781121,20.0,,,,1.999999999999996,1.0048591735576161e-14,GPS_RAW_INT,Field Elevation Set: 20m,STABILIZE,,,
2026-07-06T16:40:11.592170+00:00,12.931282758712769,E4_linear_gps_input,injection,14,37.56658892826928,126.97811219162291,20.0,13.984266155137986,,,,,,,3,12,37.5665889,126.9781121,20.0,,,,1.999999999999996,1.0048591735576161e-14,HEARTBEAT,Field Elevation Set: 20m,STABILIZE,,,
2026-07-06T16:40:11.593365+00:00,12.932472944259644,E4_linear_gps_input,injection,14,37.56658892826928,126.97811219162291,20.0,13.984266155137986,37.5665889,126.9781121,20.0,13.976333647795823,0.008665692357385955,1,3,12,37.5665889,126.9781121,20.0,0.0,0.0,0.0,1.999999999999996,1.0048591735576161e-14,GLOBAL_POSITION_INT,Field Elevation Set: 20m,STABILIZE,,,
2026-07-06T16:40:11.593775+00:00,12.932866096496582,E4_linear_gps_input,injection,14,37.56658892826928,126.97811219162291,20.0,13.984266155137986,,,,,,,3,12,37.5665889,126.9781121,20.0,,,,1.999999999999996,1.0048591735576161e-14,GPS_RAW_INT,Field Elevation Set: 20m,STABILIZE,,,
2026-07-06T16:40:11.788140+00:00,13.127253770828247,E4_linear_gps_input,injection,14,37.56658892826928,126.97811219162291,20.0,13.984266155137986,,,,,,,3,12,37.5665889,126.9781121,20.0,,,,1.999999999999996,1.0048591735576161e-14,HEARTBEAT,Field Elevation Set: 20m,STABILIZE,,,
2026-07-06T16:40:11.788544+00:00,13.12764573097229,E4_linear_gps_input,injection,14,37.56658892826928,126.97811219162291,20.0,13.984266155137986,37.5665889,126.9781121,20.0,13.976333647795823,0.008665692357385955,1,3,12,37.5665889,126.9781121,20.0,0.0,0.0,0.0,1.999999999999996,1.0048591735576161e-14,GLOBAL_POSITION_INT,Field Elevation Set: 20m,STABILIZE,,,
2026-07-06T16:40:11.788911+00:00,13.128003597259521,E4_linear_gps_input,injection,14,37.56658892826928,126.97811219162291,20.0,13.984266155137986,,,,,,,3,12,37.5665889,126.9781121,20.0,,,,1.999999999999996,1.0048591735576161e-14,GPS_RAW_INT,Field Elevation Set: 20m,STABILIZE,,,
2026-07-06T16:40:12.010839+00:00,13.349952697753906,E4_linear_gps_input,injection,15,37.56659528028852,126.97812020531028,20.0,14.983141990379494,,,,,,,3,12,37.5665889,126.9781121,20.0,,,,2.000000000000001,1.0048591735576161e-14,HEARTBEAT,Field Elevation Set: 20m,STABILIZE,,,
2026-07-06T16:40:12.011447+00:00,13.350549221038818,E4_linear_gps_input,injection,15,37.56659528028852,126.97812020531028,20.0,14.983141990379494,37.5665952,126.9781202,20.0,14.976499414685911,0.008939935687301058,1,3,12,37.5665889,126.9781121,20.0,0.0,0.0,0.0,2.000000000000001,1.0048591735576161e-14,GLOBAL_POSITION_INT,Field Elevation Set: 20m,STABILIZE,,,
2026-07-06T16:40:12.011818+00:00,13.35090970993042,E4_linear_gps_input,injection,15,37.56659528028852,126.97812020531028,20.0,14.983141990379494,,,,,,,3,12,37.5665952,126.9781202,20.0,,,,2.000000000000001,1.0048591735576161e-14,GPS_RAW_INT,Field Elevation Set: 20m,STABILIZE,,,
2026-07-06T16:40:12.224325+00:00,13.56343936920166,E4_linear_gps_input,injection,15,37.56659528028852,126.97812020531028,20.0,14.983141990379494,,,,,,,3,12,37.5665952,126.9781202,20.0,,,,2.000000000000001,1.0048591735576161e-14,HEARTBEAT,Field Elevation Set: 20m,STABILIZE,,,
2026-07-06T16:40:12.224519+00:00,13.563609600067139,E4_linear_gps_input,injection,15,37.56659528028852,126.97812020531028,20.0,14.983141990379494,37.5665952,126.9781202,20.0,14.976499414685911,0.008939935687301058,1,3,12,37.5665952,126.9781202,20.0,0.0,0.0,0.0,2.000000000000001,1.0048591735576161e-14,GLOBAL_POSITION_INT,Field Elevation Set: 20m,STABILIZE,,,
2026-07-06T16:40:12.226401+00:00,13.565506935119629,E4_linear_gps_input,injection,15,37.56659528028852,126.97812020531028,20.0,14.983141990379494,,,,,,,3,12,37.5665952,126.9781202,20.0,,,,2.000000000000001,1.0048591735576161e-14,GPS_RAW_INT,Field Elevation Set: 20m,STABILIZE,,,
2026-07-06T16:40:12.389428+00:00,13.728540420532227,E4_linear_gps_input,injection,15,37.56659528028852,126.97812020531028,20.0,14.983141990379494,,,,,,,3,12,37.5665952,126.9781202,20.0,,,,2.000000000000001,1.0048591735576161e-14,HEARTBEAT,Field Elevation Set: 20m,STABILIZE,,,
2026-07-06T16:40:12.389776+00:00,13.72888445854187,E4_linear_gps_input,injection,16,37.56660163230775,126.97812821899763,20.0,15.982017782146468,37.5665952,126.9781202,20.0,14.976499414685911,1.0055373611880492,1,3,12,37.5665952,126.9781202,20.0,0.0,0.0,0.0,2.000000000000001,0.0,GLOBAL_POSITION_INT,Field Elevation Set: 20m,STABILIZE,,,
2026-07-06T16:40:12.390195+00:00,13.729289770126343,E4_linear_gps_input,injection,16,37.56660163230775,126.97812821899763,20.0,15.982017782146468,,,,,,,3,12,37.5665952,126.9781202,20.0,,,,2.000000000000001,0.0,GPS_RAW_INT,Field Elevation Set: 20m,STABILIZE,,,
2026-07-06T16:40:12.593061+00:00,13.932188987731934,E4_linear_gps_input,injection,16,37.56660163230775,126.97812821899763,20.0,15.982017782146468,,,,,,,3,12,37.5665952,126.9781202,20.0,,,,2.000000000000001,0.0,HEARTBEAT,Field Elevation Set: 20m,STABILIZE,,,
2026-07-06T16:40:12.593238+00:00,13.932328701019287,E4_linear_gps_input,injection,16,37.56660163230775,126.97812821899763,20.0,15.982017782146468,37.5666016,126.9781282,20.0,15.978293598429472,0.003963511258975327,1,3,12,37.5665952,126.9781202,20.0,0.0,0.0,0.0,2.000000000000001,0.0,GLOBAL_POSITION_INT,Field Elevation Set: 20m,STABILIZE,,,
