timestamp,elapsed_s,experiment,phase,sample_index,target_lat,target_lon,target_alt,target_drift_m,obs_lat,obs_lon,obs_alt,official_drift_m,target_error_m,reflected,gps_fix_type,gps_satellites,gps_raw_lat,gps_raw_lon,gps_raw_alt,vn,ve,vd,commanded_speed_mps,commanded_accel_mps2,message_type,status_text,mode,mission_seq,fence_breach_status,fence_breach_count,fence_breach_type
2026-07-06T22:40:00.319784+00:00,0.023581743240356445,E9_auto_waypoint_reach,baseline_warmup,0,37.5665,126.978,20.0,0.0,,,,,,,,,,,,,,,0.0,0.0,STATUSTEXT,GPS 1: detected MAV,,,,,
2026-07-06T22:40:00.488760+00:00,0.1925525665283203,E9_auto_waypoint_reach,baseline_warmup,0,37.5665,126.978,20.0,0.0,,,,,,,,,,,,,,,0.0,0.0,HEARTBEAT,GPS 1: detected MAV,AUTO,,,,
2026-07-06T22:40:00.488887+00:00,0.1926591396331787,E9_auto_waypoint_reach,baseline_warmup,0,37.5665,126.978,20.0,0.0,37.5665,126.978,20.0,0.0,0.0,0,,,,,,0.0,0.0,0.0,0.0,0.0,GLOBAL_POSITION_INT,GPS 1: detected MAV,AUTO,,,,
2026-07-06T22:40:00.488978+00:00,0.1927497386932373,E9_auto_waypoint_reach,baseline_warmup,0,37.5665,126.978,20.0,0.0,,,,,,,,,,,,,,,0.0,0.0,MISSION_CURRENT,GPS 1: detected MAV,AUTO,0,,,
2026-07-06T22:40:00.489184+00:00,0.1929636001586914,E9_auto_waypoint_reach,baseline_warmup,0,37.5665,126.978,20.0,0.0,,,,,,,3,12,37.5665,126.978,20.0,,,,0.0,0.0,GPS_RAW_INT,GPS 1: detected MAV,AUTO,0,,,
2026-07-06T22:40:00.489223+00:00,0.1929948329925537,E9_auto_waypoint_reach,baseline_warmup,0,37.5665,126.978,20.0,0.0,,,,,,,3,12,37.5665,126.978,20.0,,,,0.0,0.0,FENCE_STATUS,GPS 1: detected MAV,AUTO,0,0,0,0
2026-07-06T22:40:00.692696+00:00,0.39648914337158203,E9_auto_waypoint_reach,baseline_warmup,0,37.5665,126.978,20.0,0.0,,,,,,,3,12,37.5665,126.978,20.0,,,,0.0,0.0,HEARTBEAT,GPS 1: detected MAV,AUTO,0,0,0,0
2026-07-06T22:40:00.692835+00:00,0.3966085910797119,E9_auto_waypoint_reach,baseline_warmup,0,37.5665,126.978,20.0,0.0,37.5665,126.978,20.0,0.0,0.0,0,3,12,37.5665,126.978,20.0,0.0,0.0,0.0,0.0,0.0,GLOBAL_POSITION_INT,GPS 1: detected MAV,AUTO,0,0,0,0
2026-07-06T22:40:00.692924+00:00,0.3966958522796631,E9_auto_waypoint_reach,baseline_warmup,0,37.5665,126.978,20.0,0.0,,,,,,,3,12,37.5665,126.978,20.0,,,,0.0,0.0,MISSION_CURRENT,GPS 1: detected MAV,AUTO,0,0,0,0
2026-07-06T22:40:00.693072+00:00,0.39684343338012695,E9_auto_waypoint_reach,baseline_warmup,0,37.5665,126.978,20.0,0.0,,,,,,,3,12,37.5665,126.978,20.0,,,,0.0,0.0,GPS_RAW_INT,GPS 1: detected MAV,AUTO,0,0,0,0
2026-07-06T22:40:00.693099+00:00,0.39687085151672363,E9_auto_waypoint_reach,baseline_warmup,0,37.5665,126.978,20.0,0.0,,,,,,,3,12,37.5665,126.978,20.0,,,,0.0,0.0,FENCE_STATUS,GPS 1: detected MAV,AUTO,0,0,0,0
2026-07-06T22:40:00.890966+00:00,0.5947647094726562,E9_auto_waypoint_reach,baseline_warmup,0,37.5665,126.978,20.0,0.0,,,,,,,3,12,37.5665,126.978,20.0,,,,0.0,0.0,HEARTBEAT,GPS 1: detected MAV,AUTO,0,0,0,0
2026-07-06T22:40:00.891122+00:00,0.5948936939239502,E9_auto_waypoint_reach,baseline_warmup,0,37.5665,126.978,20.0,0.0,37.5665,126.978,20.0,0.0,0.0,0,3,12,37.5665,126.978,20.0,0.0,0.0,0.0,0.0,0.0,GLOBAL_POSITION_INT,GPS 1: detected MAV,AUTO,0,0,0,0
2026-07-06T22:40:00.891210+00:00,0.5949814319610596,E9_auto_waypoint_reach,baseline_warmup,0,37.5665,126.978,20.0,0.0,,,,,,,3,12,37.5665,126.978,20.0,,,,0.0,0.0,MISSION_CURRENT,GPS 1: detected MAV,AUTO,0,0,0,0
2026-07-06T22:40:00.891358+00:00,0.5951294898986816,E9_auto_waypoint_reach,baseline_warmup,0,37.5665,126.978,20.0,0.0,,,,,,,3,12,37.5665,126.978,20.0,,,,0.0,0.0,GPS_RAW_INT,GPS 1: detected MAV,AUTO,0,0,0,0
2026-07-06T22:40:00.891384+00:00,0.5951545238494873,E9_auto_waypoint_reach,baseline_warmup,0,37.5665,126.978,20.0,0.0,,,,,,,3,12,37.5665,126.978,20.0,,,,0.0,0.0,FENCE_STATUS,GPS 1: detected MAV,AUTO,0,0,0,0
2026-07-06T22:40:01.089098+00:00,0.7928941249847412,E9_auto_waypoint_reach,baseline_warmup,0,37.5665,126.978,20.0,0.0,,,,,,,3,12,37.5665,126.978,20.0,,,,0.0,0.0,HEARTBEAT,GPS 1: detected MAV,AUTO,0,0,0,0
2026-07-06T22:40:01.089249+00:00,0.7930247783660889,E9_auto_waypoint_reach,baseline_warmup,0,37.5665,126.978,20.0,0.0,37.5665,126.978,20.0,0.0,0.0,0,3,12,37.5665,126.978,20.0,0.0,0.0,0.0,0.0,0.0,GLOBAL_POSITION_INT,GPS 1: detected MAV,AUTO,0,0,0,0
2026-07-06T22:40:01.089472+00:00,0.7932522296905518,E9_auto_waypoint_reach,baseline_warmup,0,37.5665,126.978,20.0,0.0,,,,,,,3,12,37.5665,126.978,20.0,,,,0.0,0.0,MISSION_CURRENT,GPS 1: detected MAV,AUTO,0,0,0,0
2026-07-06T22:40:01.089717+00:00,0.7934956550598145,E9_auto_waypoint_reach,baseline_warmup,0,37.5665,126.978,20.0,0.0,,,,,,,3,12,37.5665,126.978,20.0,,,,0.0,0.0,GPS_RAW_INT,GPS 1: detected MAV,AUTO,0,0,0,0
2026-07-06T22:40:01.089777+00:00,0.7935490608215332,E9_auto_waypoint_reach,baseline_warmup,0,37.5665,126.978,20.0,0.0,,,,,,,3,12,37.5665,126.978,20.0,,,,0.0,0.0,FENCE_STATUS,GPS 1: detected MAV,AUTO,0,0,0,0
2026-07-06T22:40:01.293507+00:00,0.9972994327545166,E9_auto_waypoint_reach,baseline_warmup,0,37.5665,126.978,20.0,0.0,,,,,,,3,12,37.5665,126.978,20.0,,,,0.0,0.0,HEARTBEAT,GPS 1: detected MAV,AUTO,0,0,0,0
2026-07-06T22:40:01.293638+00:00,0.9974100589752197,E9_auto_waypoint_reach,baseline_warmup,0,37.5665,126.978,20.0,0.0,37.5665,126.978,20.0,0.0,0.0,0,3,12,37.5665,126.978,20.0,0.0,0.0,0.0,0.0,0.0,GLOBAL_POSITION_INT,GPS 1: detected MAV,AUTO,0,0,0,0
2026-07-06T22:40:01.293724+00:00,0.997495174407959,E9_auto_waypoint_reach,baseline_warmup,0,37.5665,126.978,20.0,0.0,,,,,,,3,12,37.5665,126.978,20.0,,,,0.0,0.0,MISSION_CURRENT,GPS 1: detected MAV,AUTO,0,0,0,0
2026-07-06T22:40:01.293871+00:00,0.9976420402526855,E9_auto_waypoint_reach,baseline_warmup,0,37.5665,126.978,20.0,0.0,,,,,,,3,12,37.5665,126.978,20.0,,,,0.0,0.0,GPS_RAW_INT,GPS 1: detected MAV,AUTO,0,0,0,0
2026-07-06T22:40:01.293899+00:00,0.9976706504821777,E9_auto_waypoint_reach,baseline_warmup,0,37.5665,126.978,20.0,0.0,,,,,,,3,12,37.5665,126.978,20.0,,,,0.0,0.0,FENCE_STATUS,GPS 1: detected MAV,AUTO,0,0,0,0
2026-07-06T22:40:01.491737+00:00,1.1955294609069824,E9_auto_waypoint_reach,baseline_warmup,0,37.5665,126.978,20.0,0.0,,,,,,,3,12,37.5665,126.978,20.0,,,,0.0,0.0,HEARTBEAT,GPS 1: detected MAV,AUTO,0,0,0,0
2026-07-06T22:40:01.491859+00:00,1.1956312656402588,E9_auto_waypoint_reach,baseline_warmup,0,37.5665,126.978,20.0,0.0,37.5665,126.978,20.0,0.0,0.0,0,3,12,37.5665,126.978,20.0,0.0,0.0,0.0,0.0,0.0,GLOBAL_POSITION_INT,GPS 1: detected MAV,AUTO,0,0,0,0
2026-07-06T22:40:01.491948+00:00,1.1957192420959473,E9_auto_waypoint_reach,baseline_warmup,0,37.5665,126.978,20.0,0.0,,,,,,,3,12,37.5665,126.978,20.0,,,,0.0,0.0,MISSION_CURRENT,GPS 1: detected MAV,AUTO,0,0,0,0
2026-07-06T22:40:01.492145+00:00,1.1959245204925537,E9_auto_waypoint_reach,baseline_warmup,0,37.5665,126.978,20.0,0.0,,,,,,,3,12,37.5665,126.978,20.0,,,,0.0,0.0,GPS_RAW_INT,GPS 1: detected MAV,AUTO,0,0,0,0
2026-07-06T22:40:01.492221+00:00,1.1959939002990723,E9_auto_waypoint_reach,baseline_warmup,0,37.5665,126.978,20.0,0.0,,,,,,,3,12,37.5665,126.978,20.0,,,,0.0,0.0,FENCE_STATUS,GPS 1: detected MAV,AUTO,0,0,0,0
2026-07-06T22:40:01.690022+00:00,1.3938193321228027,E9_auto_waypoint_reach,baseline_warmup,0,37.5665,126.978,20.0,0.0,,,,,,,3,12,37.5665,126.978,20.0,,,,0.0,0.0,HEARTBEAT,GPS 1: detected MAV,AUTO,0,0,0,0
2026-07-06T22:40:01.690179+00:00,1.3939540386199951,E9_auto_waypoint_reach,baseline_warmup,0,37.5665,126.978,20.0,0.0,37.5665,126.978,20.0,0.0,0.0,0,3,12,37.5665,126.978,20.0,0.0,0.0,0.0,0.0,0.0,GLOBAL_POSITION_INT,GPS 1: detected MAV,AUTO,0,0,0,0
2026-07-06T22:40:01.690297+00:00,1.3940708637237549,E9_auto_waypoint_reach,baseline_warmup,0,37.5665,126.978,20.0,0.0,,,,,,,3,12,37.5665,126.978,20.0,,,,0.0,0.0,MISSION_CURRENT,GPS 1: detected MAV,AUTO,0,0,0,0
2026-07-06T22:40:01.690498+00:00,1.3942716121673584,E9_auto_waypoint_reach,baseline_warmup,0,37.5665,126.978,20.0,0.0,,,,,,,3,12,37.5665,126.978,20.0,,,,0.0,0.0,GPS_RAW_INT,GPS 1: detected MAV,AUTO,0,0,0,0
2026-07-06T22:40:01.690535+00:00,1.3943071365356445,E9_auto_waypoint_reach,baseline_warmup,0,37.5665,126.978,20.0,0.0,,,,,,,3,12,37.5665,126.978,20.0,,,,0.0,0.0,FENCE_STATUS,GPS 1: detected MAV,AUTO,0,0,0,0
2026-07-06T22:40:01.894043+00:00,1.5978353023529053,E9_auto_waypoint_reach,baseline_warmup,0,37.5665,126.978,20.0,0.0,,,,,,,3,12,37.5665,126.978,20.0,,,,0.0,0.0,HEARTBEAT,GPS 1: detected MAV,AUTO,0,0,0,0
2026-07-06T22:40:01.894163+00:00,1.5979347229003906,E9_auto_waypoint_reach,baseline_warmup,0,37.5665,126.978,20.0,0.0,37.5665,126.978,20.0,0.0,0.0,0,3,12,37.5665,126.978,20.0,0.0,0.0,0.0,0.0,0.0,GLOBAL_POSITION_INT,GPS 1: detected MAV,AUTO,0,0,0,0
2026-07-06T22:40:01.894252+00:00,1.5980234146118164,E9_auto_waypoint_reach,baseline_warmup,0,37.5665,126.978,20.0,0.0,,,,,,,3,12,37.5665,126.978,20.0,,,,0.0,0.0,MISSION_CURRENT,GPS 1: detected MAV,AUTO,0,0,0,0
2026-07-06T22:40:01.894401+00:00,1.598172903060913,E9_auto_waypoint_reach,baseline_warmup,0,37.5665,126.978,20.0,0.0,,,,,,,3,12,37.5665,126.978,20.0,,,,0.0,0.0,GPS_RAW_INT,GPS 1: detected MAV,AUTO,0,0,0,0
2026-07-06T22:40:01.894429+00:00,1.5981998443603516,E9_auto_waypoint_reach,baseline_warmup,0,37.5665,126.978,20.0,0.0,,,,,,,3,12,37.5665,126.978,20.0,,,,0.0,0.0,FENCE_STATUS,GPS 1: detected MAV,AUTO,0,0,0,0
2026-07-06T22:40:02.092380+00:00,1.7961781024932861,E9_auto_waypoint_reach,baseline_warmup,0,37.5665,126.978,20.0,0.0,,,,,,,3,12,37.5665,126.978,20.0,,,,0.0,0.0,HEARTBEAT,GPS 1: detected MAV,AUTO,0,0,0,0
2026-07-06T22:40:02.092556+00:00,1.7963290214538574,E9_auto_waypoint_reach,baseline_warmup,0,37.5665,126.978,20.0,0.0,37.5665,126.978,20.0,0.0,0.0,0,3,12,37.5665,126.978,20.0,0.0,0.0,0.0,0.0,0.0,GLOBAL_POSITION_INT,GPS 1: detected MAV,AUTO,0,0,0,0
2026-07-06T22:40:02.092702+00:00,1.7964754104614258,E9_auto_waypoint_reach,baseline_warmup,0,37.5665,126.978,20.0,0.0,,,,,,,3,12,37.5665,126.978,20.0,,,,0.0,0.0,MISSION_CURRENT,GPS 1: detected MAV,AUTO,0,0,0,0
2026-07-06T22:40:02.092913+00:00,1.796684980392456,E9_auto_waypoint_reach,baseline_warmup,0,37.5665,126.978,20.0,0.0,,,,,,,3,12,37.5665,126.978,20.0,,,,0.0,0.0,GPS_RAW_INT,GPS 1: detected MAV,AUTO,0,0,0,0
2026-07-06T22:40:02.092940+00:00,1.7967112064361572,E9_auto_waypoint_reach,baseline_warmup,0,37.5665,126.978,20.0,0.0,,,,,,,3,12,37.5665,126.978,20.0,,,,0.0,0.0,FENCE_STATUS,GPS 1: detected MAV,AUTO,0,0,0,0
2026-07-06T22:40:02.290618+00:00,1.9944112300872803,E9_auto_waypoint_reach,baseline_warmup,0,37.5665,126.978,20.0,0.0,,,,,,,3,12,37.5665,126.978,20.0,,,,0.0,0.0,HEARTBEAT,GPS 1: detected MAV,AUTO,0,0,0,0
2026-07-06T22:40:02.290736+00:00,1.9945080280303955,E9_auto_waypoint_reach,baseline_warmup,0,37.5665,126.978,20.0,0.0,37.5665,126.978,20.0,0.0,0.0,0,3,12,37.5665,126.978,20.0,0.0,0.0,0.0,0.0,0.0,GLOBAL_POSITION_INT,GPS 1: detected MAV,AUTO,0,0,0,0
2026-07-06T22:40:02.290820+00:00,1.994591236114502,E9_auto_waypoint_reach,baseline_warmup,0,37.5665,126.978,20.0,0.0,,,,,,,3,12,37.5665,126.978,20.0,,,,0.0,0.0,MISSION_CURRENT,GPS 1: detected MAV,AUTO,0,0,0,0
2026-07-06T22:40:02.290969+00:00,1.9947407245635986,E9_auto_waypoint_reach,baseline_warmup,0,37.5665,126.978,20.0,0.0,,,,,,,3,12,37.5665,126.978,20.0,,,,0.0,0.0,GPS_RAW_INT,GPS 1: detected MAV,AUTO,0,0,0,0
2026-07-06T22:40:02.290997+00:00,1.9947683811187744,E9_auto_waypoint_reach,baseline_warmup,0,37.5665,126.978,20.0,0.0,,,,,,,3,12,37.5665,126.978,20.0,,,,0.0,0.0,FENCE_STATUS,GPS 1: detected MAV,AUTO,0,0,0,0
2026-07-06T22:40:02.488863+00:00,2.1926560401916504,E9_auto_waypoint_reach,baseline_warmup,0,37.5665,126.978,20.0,0.0,,,,,,,3,12,37.5665,126.978,20.0,,,,0.0,0.0,HEARTBEAT,GPS 1: detected MAV,AUTO,0,0,0,0
2026-07-06T22:40:02.488986+00:00,2.192758560180664,E9_auto_waypoint_reach,baseline_warmup,0,37.5665,126.978,20.0,0.0,37.5665,126.978,20.0,0.0,0.0,0,3,12,37.5665,126.978,20.0,0.0,0.0,0.0,0.0,0.0,GLOBAL_POSITION_INT,GPS 1: detected MAV,AUTO,0,0,0,0
2026-07-06T22:40:02.489073+00:00,2.192844867706299,E9_auto_waypoint_reach,baseline_warmup,0,37.5665,126.978,20.0,0.0,,,,,,,3,12,37.5665,126.978,20.0,,,,0.0,0.0,MISSION_CURRENT,GPS 1: detected MAV,AUTO,0,0,0,0
2026-07-06T22:40:02.489221+00:00,2.192992925643921,E9_auto_waypoint_reach,baseline_warmup,0,37.5665,126.978,20.0,0.0,,,,,,,3,12,37.5665,126.978,20.0,,,,0.0,0.0,GPS_RAW_INT,GPS 1: detected MAV,AUTO,0,0,0,0
2026-07-06T22:40:02.489247+00:00,2.193018674850464,E9_auto_waypoint_reach,baseline_warmup,0,37.5665,126.978,20.0,0.0,,,,,,,3,12,37.5665,126.978,20.0,,,,0.0,0.0,FENCE_STATUS,GPS 1: detected MAV,AUTO,0,0,0,0
2026-07-06T22:40:02.692850+00:00,2.3966422080993652,E9_auto_waypoint_reach,baseline_warmup,0,37.5665,126.978,20.0,0.0,,,,,,,3,12,37.5665,126.978,20.0,,,,0.0,0.0,HEARTBEAT,GPS 1: detected MAV,AUTO,0,0,0,0
2026-07-06T22:40:02.692979+00:00,2.396751880645752,E9_auto_waypoint_reach,baseline_warmup,0,37.5665,126.978,20.0,0.0,37.5665,126.978,20.0,0.0,0.0,0,3,12,37.5665,126.978,20.0,-0.01,0.0,0.0,0.0,0.0,GLOBAL_POSITION_INT,GPS 1: detected MAV,AUTO,0,0,0,0
2026-07-06T22:40:02.693083+00:00,2.3968563079833984,E9_auto_waypoint_reach,baseline_warmup,0,37.5665,126.978,20.0,0.0,,,,,,,3,12,37.5665,126.978,20.0,,,,0.0,0.0,MISSION_CURRENT,GPS 1: detected MAV,AUTO,0,0,0,0
2026-07-06T22:40:02.693319+00:00,2.397097587585449,E9_auto_waypoint_reach,baseline_warmup,0,37.5665,126.978,20.0,0.0,,,,,,,3,12,37.5665,126.978,20.0,,,,0.0,0.0,GPS_RAW_INT,GPS 1: detected MAV,AUTO,0,0,0,0
2026-07-06T22:40:02.693368+00:00,2.397141695022583,E9_auto_waypoint_reach,baseline_warmup,0,37.5665,126.978,20.0,0.0,,,,,,,3,12,37.5665,126.978,20.0,,,,0.0,0.0,FENCE_STATUS,GPS 1: detected MAV,AUTO,0,0,0,0
2026-07-06T22:40:02.891194+00:00,2.5949902534484863,E9_auto_waypoint_reach,baseline_warmup,0,37.5665,126.978,20.0,0.0,,,,,,,3,12,37.5665,126.978,20.0,,,,0.0,0.0,HEARTBEAT,GPS 1: detected MAV,AUTO,0,0,0,0
2026-07-06T22:40:02.891345+00:00,2.5951192378997803,E9_auto_waypoint_reach,baseline_warmup,0,37.5665,126.978,20.0,0.0,37.5665,126.978,20.0,0.0,0.0,0,3,12,37.5665,126.978,20.0,-0.01,0.0,0.0,0.0,0.0,GLOBAL_POSITION_INT,GPS 1: detected MAV,AUTO,0,0,0,0
2026-07-06T22:40:02.891484+00:00,2.5952625274658203,E9_auto_waypoint_reach,baseline_warmup,0,37.5665,126.978,20.0,0.0,,,,,,,3,12,37.5665,126.978,20.0,,,,0.0,0.0,MISSION_CURRENT,GPS 1: detected MAV,AUTO,0,0,0,0
2026-07-06T22:40:02.891730+00:00,2.5955076217651367,E9_auto_waypoint_reach,baseline_warmup,0,37.5665,126.978,20.0,0.0,,,,,,,3,12,37.5665,126.978,20.0,,,,0.0,0.0,GPS_RAW_INT,GPS 1: detected MAV,AUTO,0,0,0,0
2026-07-06T22:40:02.891775+00:00,2.5955469608306885,E9_auto_waypoint_reach,baseline_warmup,0,37.5665,126.978,20.0,0.0,,,,,,,3,12,37.5665,126.978,20.0,,,,0.0,0.0,FENCE_STATUS,GPS 1: detected MAV,AUTO,0,0,0,0
2026-07-06T22:40:03.089514+00:00,2.793307304382324,E9_auto_waypoint_reach,baseline_warmup,0,37.5665,126.978,20.0,0.0,,,,,,,3,12,37.5665,126.978,20.0,,,,0.0,0.0,HEARTBEAT,GPS 1: detected MAV,AUTO,0,0,0,0
2026-07-06T22:40:03.089719+00:00,2.7934913635253906,E9_auto_waypoint_reach,baseline_warmup,0,37.5665,126.978,20.0,0.0,37.5665,126.978,20.0,0.0,0.0,0,3,12,37.5665,126.978,20.0,-0.01,0.0,0.0,0.0,0.0,GLOBAL_POSITION_INT,GPS 1: detected MAV,AUTO,0,0,0,0
2026-07-06T22:40:03.089804+00:00,2.7935757637023926,E9_auto_waypoint_reach,baseline_warmup,0,37.5665,126.978,20.0,0.0,,,,,,,3,12,37.5665,126.978,20.0,,,,0.0,0.0,MISSION_CURRENT,GPS 1: detected MAV,AUTO,0,0,0,0
2026-07-06T22:40:03.089988+00:00,2.7937638759613037,E9_auto_waypoint_reach,baseline_warmup,0,37.5665,126.978,20.0,0.0,,,,,,,3,12,37.5665,126.978,20.0,,,,0.0,0.0,GPS_RAW_INT,GPS 1: detected MAV,AUTO,0,0,0,0
2026-07-06T22:40:03.090022+00:00,2.7937934398651123,E9_auto_waypoint_reach,baseline_warmup,0,37.5665,126.978,20.0,0.0,,,,,,,3,12,37.5665,126.978,20.0,,,,0.0,0.0,FENCE_STATUS,GPS 1: detected MAV,AUTO,0,0,0,0
2026-07-06T22:40:03.287703+00:00,2.9914956092834473,E9_auto_waypoint_reach,baseline_warmup,0,37.5665,126.978,20.0,0.0,,,,,,,3,12,37.5665,126.978,20.0,,,,0.0,0.0,HEARTBEAT,GPS 1: detected MAV,AUTO,0,0,0,0
2026-07-06T22:40:03.287821+00:00,2.9915931224823,E9_auto_waypoint_reach,baseline_warmup,0,37.5665,126.978,20.0,0.0,37.5665,126.978,20.0,0.0,0.0,0,3,12,37.5665,126.978,20.0,-0.01,0.0,0.0,0.0,0.0,GLOBAL_POSITION_INT,GPS 1: detected MAV,AUTO,0,0,0,0
2026-07-06T22:40:03.287909+00:00,2.991680145263672,E9_auto_waypoint_reach,baseline_warmup,0,37.5665,126.978,20.0,0.0,,,,,,,3,12,37.5665,126.978,20.0,,,,0.0,0.0,MISSION_CURRENT,GPS 1: detected MAV,AUTO,0,0,0,0
2026-07-06T22:40:03.288054+00:00,2.991825819015503,E9_auto_waypoint_reach,baseline_warmup,0,37.5665,126.978,20.0,0.0,,,,,,,3,12,37.5665,126.978,20.0,,,,0.0,0.0,GPS_RAW_INT,GPS 1: detected MAV,AUTO,0,0,0,0
2026-07-06T22:40:03.288080+00:00,2.991852045059204,E9_auto_waypoint_reach,baseline_warmup,0,37.5665,126.978,20.0,0.0,,,,,,,3,12,37.5665,126.978,20.0,,,,0.0,0.0,FENCE_STATUS,GPS 1: detected MAV,AUTO,0,0,0,0
2026-07-06T22:40:03.491720+00:00,3.1955130100250244,E9_auto_waypoint_reach,baseline_warmup,0,37.5665,126.978,20.0,0.0,,,,,,,3,12,37.5665,126.978,20.0,,,,0.0,0.0,HEARTBEAT,GPS 1: detected MAV,AUTO,0,0,0,0
2026-07-06T22:40:03.491838+00:00,3.1956100463867188,E9_auto_waypoint_reach,baseline_warmup,0,37.5665,126.978,20.0,0.0,37.5665,126.978,20.0,0.0,0.0,0,3,12,37.5665,126.978,20.0,-0.01,0.0,0.0,0.0,0.0,GLOBAL_POSITION_INT,GPS 1: detected MAV,AUTO,0,0,0,0
2026-07-06T22:40:03.491924+00:00,3.195694923400879,E9_auto_waypoint_reach,baseline_warmup,0,37.5665,126.978,20.0,0.0,,,,,,,3,12,37.5665,126.978,20.0,,,,0.0,0.0,MISSION_CURRENT,GPS 1: detected MAV,AUTO,0,0,0,0
2026-07-06T22:40:03.492071+00:00,3.1958425045013428,E9_auto_waypoint_reach,baseline_warmup,0,37.5665,126.978,20.0,0.0,,,,,,,3,12,37.5665,126.978,20.0,,,,0.0,0.0,GPS_RAW_INT,GPS 1: detected MAV,AUTO,0,0,0,0
2026-07-06T22:40:03.492131+00:00,3.195906639099121,E9_auto_waypoint_reach,baseline_warmup,0,37.5665,126.978,20.0,0.0,,,,,,,3,12,37.5665,126.978,20.0,,,,0.0,0.0,FENCE_STATUS,GPS 1: detected MAV,AUTO,0,0,0,0
2026-07-06T22:40:03.690119+00:00,3.3939120769500732,E9_auto_waypoint_reach,baseline_warmup,0,37.5665,126.978,20.0,0.0,,,,,,,3,12,37.5665,126.978,20.0,,,,0.0,0.0,HEARTBEAT,GPS 1: detected MAV,AUTO,0,0,0,0
2026-07-06T22:40:03.690238+00:00,3.394010305404663,E9_auto_waypoint_reach,baseline_warmup,0,37.5665,126.978,20.0,0.0,37.5665,126.978,20.0,0.0,0.0,0,3,12,37.5665,126.978,20.0,-0.01,0.0,0.0,0.0,0.0,GLOBAL_POSITION_INT,GPS 1: detected MAV,AUTO,0,0,0,0
2026-07-06T22:40:03.690327+00:00,3.3940980434417725,E9_auto_waypoint_reach,baseline_warmup,0,37.5665,126.978,20.0,0.0,,,,,,,3,12,37.5665,126.978,20.0,,,,0.0,0.0,MISSION_CURRENT,GPS 1: detected MAV,AUTO,0,0,0,0
2026-07-06T22:40:03.690477+00:00,3.3942487239837646,E9_auto_waypoint_reach,baseline_warmup,0,37.5665,126.978,20.0,0.0,,,,,,,3,12,37.5665,126.978,20.0,,,,0.0,0.0,GPS_RAW_INT,GPS 1: detected MAV,AUTO,0,0,0,0
2026-07-06T22:40:03.690503+00:00,3.3942747116088867,E9_auto_waypoint_reach,baseline_warmup,0,37.5665,126.978,20.0,0.0,,,,,,,3,12,37.5665,126.978,20.0,,,,0.0,0.0,FENCE_STATUS,GPS 1: detected MAV,AUTO,0,0,0,0
2026-07-06T22:40:03.894163+00:00,3.5979561805725098,E9_auto_waypoint_reach,baseline_warmup,0,37.5665,126.978,20.0,0.0,,,,,,,3,12,37.5665,126.978,20.0,,,,0.0,0.0,HEARTBEAT,GPS 1: detected MAV,AUTO,0,0,0,0
2026-07-06T22:40:03.894282+00:00,3.5980536937713623,E9_auto_waypoint_reach,baseline_warmup,0,37.5665,126.978,20.0,0.0,37.5665,126.978,20.0,0.0,0.0,0,3,12,37.5665,126.978,20.0,-0.01,0.0,0.0,0.0,0.0,GLOBAL_POSITION_INT,GPS 1: detected MAV,AUTO,0,0,0,0
2026-07-06T22:40:03.894365+00:00,3.5981369018554688,E9_auto_waypoint_reach,baseline_warmup,0,37.5665,126.978,20.0,0.0,,,,,,,3,12,37.5665,126.978,20.0,,,,0.0,0.0,MISSION_CURRENT,GPS 1: detected MAV,AUTO,0,0,0,0
2026-07-06T22:40:03.894528+00:00,3.598299503326416,E9_auto_waypoint_reach,baseline_warmup,0,37.5665,126.978,20.0,0.0,,,,,,,3,12,37.5665,126.978,20.0,,,,0.0,0.0,GPS_RAW_INT,GPS 1: detected MAV,AUTO,0,0,0,0
2026-07-06T22:40:03.894554+00:00,3.598325729370117,E9_auto_waypoint_reach,baseline_warmup,0,37.5665,126.978,20.0,0.0,,,,,,,3,12,37.5665,126.978,20.0,,,,0.0,0.0,FENCE_STATUS,GPS 1: detected MAV,AUTO,0,0,0,0
2026-07-06T22:40:04.092424+00:00,3.7962164878845215,E9_auto_waypoint_reach,baseline_warmup,0,37.5665,126.978,20.0,0.0,,,,,,,3,12,37.5665,126.978,20.0,,,,0.0,0.0,HEARTBEAT,GPS 1: detected MAV,AUTO,0,0,0,0
2026-07-06T22:40:04.092543+00:00,3.7963151931762695,E9_auto_waypoint_reach,baseline_warmup,0,37.5665,126.978,20.0,0.0,37.5665,126.978,20.0,0.0,0.0,0,3,12,37.5665,126.978,20.0,-0.01,0.0,0.0,0.0,0.0,GLOBAL_POSITION_INT,GPS 1: detected MAV,AUTO,0,0,0,0
2026-07-06T22:40:04.092630+00:00,3.796401262283325,E9_auto_waypoint_reach,baseline_warmup,0,37.5665,126.978,20.0,0.0,,,,,,,3,12,37.5665,126.978,20.0,,,,0.0,0.0,MISSION_CURRENT,GPS 1: detected MAV,AUTO,0,0,0,0
2026-07-06T22:40:04.092780+00:00,3.796550989151001,E9_auto_waypoint_reach,baseline_warmup,0,37.5665,126.978,20.0,0.0,,,,,,,3,12,37.5665,126.978,20.0,,,,0.0,0.0,GPS_RAW_INT,GPS 1: detected MAV,AUTO,0,0,0,0
2026-07-06T22:40:04.092806+00:00,3.796577215194702,E9_auto_waypoint_reach,baseline_warmup,0,37.5665,126.978,20.0,0.0,,,,,,,3,12,37.5665,126.978,20.0,,,,0.0,0.0,FENCE_STATUS,GPS 1: detected MAV,AUTO,0,0,0,0
2026-07-06T22:40:04.290840+00:00,3.9946320056915283,E9_auto_waypoint_reach,baseline_warmup,0,37.5665,126.978,20.0,0.0,,,,,,,3,12,37.5665,126.978,20.0,,,,0.0,0.0,HEARTBEAT,GPS 1: detected MAV,AUTO,0,0,0,0
2026-07-06T22:40:04.290955+00:00,3.99472713470459,E9_auto_waypoint_reach,baseline_warmup,0,37.5665,126.978,20.0,0.0,37.5665,126.978,20.0,0.0,0.0,0,3,12,37.5665,126.978,20.0,-0.01,0.0,0.0,0.0,0.0,GLOBAL_POSITION_INT,GPS 1: detected MAV,AUTO,0,0,0,0
2026-07-06T22:40:04.291039+00:00,3.9948103427886963,E9_auto_waypoint_reach,baseline_warmup,0,37.5665,126.978,20.0,0.0,,,,,,,3,12,37.5665,126.978,20.0,,,,0.0,0.0,MISSION_CURRENT,GPS 1: detected MAV,AUTO,0,0,0,0
2026-07-06T22:40:04.291184+00:00,3.994955539703369,E9_auto_waypoint_reach,baseline_warmup,0,37.5665,126.978,20.0,0.0,,,,,,,3,12,37.5665,126.978,20.0,,,,0.0,0.0,GPS_RAW_INT,GPS 1: detected MAV,AUTO,0,0,0,0
2026-07-06T22:40:04.291211+00:00,3.9949822425842285,E9_auto_waypoint_reach,baseline_warmup,0,37.5665,126.978,20.0,0.0,,,,,,,3,12,37.5665,126.978,20.0,,,,0.0,0.0,FENCE_STATUS,GPS 1: detected MAV,AUTO,0,0,0,0
2026-07-06T22:40:04.494740+00:00,4.198533296585083,E9_auto_waypoint_reach,baseline_warmup,0,37.5665,126.978,20.0,0.0,,,,,,,3,12,37.5665,126.978,20.0,,,,0.0,0.0,HEARTBEAT,GPS 1: detected MAV,AUTO,0,0,0,0
2026-07-06T22:40:04.494859+00:00,4.1986308097839355,E9_auto_waypoint_reach,baseline_warmup,0,37.5665,126.978,20.0,0.0,37.5665,126.978,20.0,0.0,0.0,0,3,12,37.5665,126.978,20.0,-0.01,0.01,0.0,0.0,0.0,GLOBAL_POSITION_INT,GPS 1: detected MAV,AUTO,0,0,0,0
2026-07-06T22:40:04.494942+00:00,4.198714017868042,E9_auto_waypoint_reach,baseline_warmup,0,37.5665,126.978,20.0,0.0,,,,,,,3,12,37.5665,126.978,20.0,,,,0.0,0.0,MISSION_CURRENT,GPS 1: detected MAV,AUTO,0,0,0,0
2026-07-06T22:40:04.495091+00:00,4.198862075805664,E9_auto_waypoint_reach,baseline_warmup,0,37.5665,126.978,20.0,0.0,,,,,,,3,12,37.5665,126.978,20.0,,,,0.0,0.0,GPS_RAW_INT,GPS 1: detected MAV,AUTO,0,0,0,0
2026-07-06T22:40:04.495116+00:00,4.198887825012207,E9_auto_waypoint_reach,baseline_warmup,0,37.5665,126.978,20.0,0.0,,,,,,,3,12,37.5665,126.978,20.0,,,,0.0,0.0,FENCE_STATUS,GPS 1: detected MAV,AUTO,0,0,0,0
2026-07-06T22:40:04.693027+00:00,4.396825313568115,E9_auto_waypoint_reach,baseline_warmup,0,37.5665,126.978,20.0,0.0,,,,,,,3,12,37.5665,126.978,20.0,,,,0.0,0.0,HEARTBEAT,GPS 1: detected MAV,AUTO,0,0,0,0
2026-07-06T22:40:04.693183+00:00,4.396962881088257,E9_auto_waypoint_reach,baseline_warmup,0,37.5665,126.978,20.0,0.0,37.5665,126.978,20.0,0.0,0.0,0,3,12,37.5665,126.978,20.0,-0.01,0.01,0.0,0.0,0.0,GLOBAL_POSITION_INT,GPS 1: detected MAV,AUTO,0,0,0,0
2026-07-06T22:40:04.693321+00:00,4.39709997177124,E9_auto_waypoint_reach,baseline_warmup,0,37.5665,126.978,20.0,0.0,,,,,,,3,12,37.5665,126.978,20.0,,,,0.0,0.0,MISSION_CURRENT,GPS 1: detected MAV,AUTO,0,0,0,0
2026-07-06T22:40:04.693589+00:00,4.397366523742676,E9_auto_waypoint_reach,baseline_warmup,0,37.5665,126.978,20.0,0.0,,,,,,,3,12,37.5665,126.978,20.0,,,,0.0,0.0,GPS_RAW_INT,GPS 1: detected MAV,AUTO,0,0,0,0
2026-07-06T22:40:04.693657+00:00,4.397432327270508,E9_auto_waypoint_reach,baseline_warmup,0,37.5665,126.978,20.0,0.0,,,,,,,3,12,37.5665,126.978,20.0,,,,0.0,0.0,FENCE_STATUS,GPS 1: detected MAV,AUTO,0,0,0,0
2026-07-06T22:40:03.532386+00:00,3.2361791133880615,E9_auto_waypoint_reach,baseline_warmup,0,37.5665,126.978,20.0,0.0,,,,,,,3,12,37.5665,126.978,20.0,,,,0.0,0.0,HEARTBEAT,GPS 1: detected MAV,AUTO,0,0,0,0
2026-07-06T22:40:03.532511+00:00,3.236283302307129,E9_auto_waypoint_reach,baseline_warmup,0,37.5665,126.978,20.0,0.0,37.5665,126.978,20.0,0.0,0.0,0,3,12,37.5665,126.978,20.0,-0.01,0.01,0.0,0.0,0.0,GLOBAL_POSITION_INT,GPS 1: detected MAV,AUTO,0,0,0,0
2026-07-06T22:40:03.532600+00:00,3.2363717555999756,E9_auto_waypoint_reach,baseline_warmup,0,37.5665,126.978,20.0,0.0,,,,,,,3,12,37.5665,126.978,20.0,,,,0.0,0.0,MISSION_CURRENT,GPS 1: detected MAV,AUTO,0,0,0,0
2026-07-06T22:40:03.532763+00:00,3.2365353107452393,E9_auto_waypoint_reach,baseline_warmup,0,37.5665,126.978,20.0,0.0,,,,,,,3,12,37.5665,126.978,20.0,,,,0.0,0.0,GPS_RAW_INT,GPS 1: detected MAV,AUTO,0,0,0,0
2026-07-06T22:40:03.532795+00:00,3.2365667819976807,E9_auto_waypoint_reach,baseline_warmup,0,37.5665,126.978,20.0,0.0,,,,,,,3,12,37.5665,126.978,20.0,,,,0.0,0.0,FENCE_STATUS,GPS 1: detected MAV,AUTO,0,0,0,0
2026-07-06T22:40:03.730391+00:00,3.4341819286346436,E9_auto_waypoint_reach,baseline_warmup,0,37.5665,126.978,20.0,0.0,,,,,,,3,12,37.5665,126.978,20.0,,,,0.0,0.0,HEARTBEAT,GPS 1: detected MAV,AUTO,0,0,0,0
2026-07-06T22:40:03.730510+00:00,3.434281587600708,E9_auto_waypoint_reach,baseline_warmup,0,37.5665,126.978,20.0,0.0,37.5665,126.978,20.0,0.0,0.0,0,3,12,37.5665,126.978,20.0,-0.01,0.01,0.0,0.0,0.0,GLOBAL_POSITION_INT,GPS 1: detected MAV,AUTO,0,0,0,0
2026-07-06T22:40:03.730595+00:00,3.434366464614868,E9_auto_waypoint_reach,baseline_warmup,0,37.5665,126.978,20.0,0.0,,,,,,,3,12,37.5665,126.978,20.0,,,,0.0,0.0,MISSION_CURRENT,GPS 1: detected MAV,AUTO,0,0,0,0
2026-07-06T22:40:03.730744+00:00,3.4345157146453857,E9_auto_waypoint_reach,baseline_warmup,0,37.5665,126.978,20.0,0.0,,,,,,,3,12,37.5665,126.978,20.0,,,,0.0,0.0,GPS_RAW_INT,GPS 1: detected MAV,AUTO,0,0,0,0
2026-07-06T22:40:03.730772+00:00,3.4345431327819824,E9_auto_waypoint_reach,baseline_warmup,0,37.5665,126.978,20.0,0.0,,,,,,,3,12,37.5665,126.978,20.0,,,,0.0,0.0,FENCE_STATUS,GPS 1: detected MAV,AUTO,0,0,0,0
2026-07-06T22:40:03.928781+00:00,3.6325721740722656,E9_auto_waypoint_reach,baseline_warmup,0,37.5665,126.978,20.0,0.0,,,,,,,3,12,37.5665,126.978,20.0,,,,0.0,0.0,HEARTBEAT,GPS 1: detected MAV,AUTO,0,0,0,0
2026-07-06T22:40:03.928898+00:00,3.6326704025268555,E9_auto_waypoint_reach,baseline_warmup,0,37.5665,126.978,20.0,0.0,37.5665,126.978,20.0,0.0,0.0,0,3,12,37.5665,126.978,20.0,-0.01,0.01,0.0,0.0,0.0,GLOBAL_POSITION_INT,GPS 1: detected MAV,AUTO,0,0,0,0
2026-07-06T22:40:03.928984+00:00,3.6327552795410156,E9_auto_waypoint_reach,baseline_warmup,0,37.5665,126.978,20.0,0.0,,,,,,,3,12,37.5665,126.978,20.0,,,,0.0,0.0,MISSION_CURRENT,GPS 1: detected MAV,AUTO,0,0,0,0
2026-07-06T22:40:03.929190+00:00,3.632967710494995,E9_auto_waypoint_reach,baseline_warmup,0,37.5665,126.978,20.0,0.0,,,,,,,3,12,37.5665,126.978,20.0,,,,0.0,0.0,GPS_RAW_INT,GPS 1: detected MAV,AUTO,0,0,0,0
2026-07-06T22:40:03.929300+00:00,3.6330771446228027,E9_auto_waypoint_reach,baseline_warmup,0,37.5665,126.978,20.0,0.0,,,,,,,3,12,37.5665,126.978,20.0,,,,0.0,0.0,FENCE_STATUS,GPS 1: detected MAV,AUTO,0,0,0,0
2026-07-06T22:40:04.133003+00:00,3.8368005752563477,E9_auto_waypoint_reach,baseline_warmup,0,37.5665,126.978,20.0,0.0,,,,,,,3,12,37.5665,126.978,20.0,,,,0.0,0.0,HEARTBEAT,GPS 1: detected MAV,AUTO,0,0,0,0
2026-07-06T22:40:04.133228+00:00,3.8370041847229004,E9_auto_waypoint_reach,baseline_warmup,0,37.5665,126.978,20.0,0.0,37.5665,126.978,20.0,0.0,0.0,0,3,12,37.5665,126.978,20.0,-0.01,0.01,0.0,0.0,0.0,GLOBAL_POSITION_INT,GPS 1: detected MAV,AUTO,0,0,0,0
2026-07-06T22:40:04.133319+00:00,3.837090015411377,E9_auto_waypoint_reach,baseline_warmup,0,37.5665,126.978,20.0,0.0,,,,,,,3,12,37.5665,126.978,20.0,,,,0.0,0.0,MISSION_CURRENT,GPS 1: detected MAV,AUTO,0,0,0,0
2026-07-06T22:40:04.133506+00:00,3.8372817039489746,E9_auto_waypoint_reach,baseline_warmup,0,37.5665,126.978,20.0,0.0,,,,,,,3,12,37.5665,126.978,20.0,,,,0.0,0.0,GPS_RAW_INT,GPS 1: detected MAV,AUTO,0,0,0,0
2026-07-06T22:40:04.133540+00:00,3.8373115062713623,E9_auto_waypoint_reach,baseline_warmup,0,37.5665,126.978,20.0,0.0,,,,,,,3,12,37.5665,126.978,20.0,,,,0.0,0.0,FENCE_STATUS,GPS 1: detected MAV,AUTO,0,0,0,0
2026-07-06T22:40:04.331250+00:00,4.03504753112793,E9_auto_waypoint_reach,baseline_warmup,0,37.5665,126.978,20.0,0.0,,,,,,,3,12,37.5665,126.978,20.0,,,,0.0,0.0,HEARTBEAT,GPS 1: detected MAV,AUTO,0,0,0,0
2026-07-06T22:40:04.331408+00:00,4.035187721252441,E9_auto_waypoint_reach,baseline_warmup,0,37.5665,126.978,20.0,0.0,37.5665,126.978,20.0,0.0,0.0,0,3,12,37.5665,126.978,20.0,-0.01,0.01,0.0,0.0,0.0,GLOBAL_POSITION_INT,GPS 1: detected MAV,AUTO,0,0,0,0
2026-07-06T22:40:04.331571+00:00,4.035347938537598,E9_auto_waypoint_reach,baseline_warmup,0,37.5665,126.978,20.0,0.0,,,,,,,3,12,37.5665,126.978,20.0,,,,0.0,0.0,MISSION_CURRENT,GPS 1: detected MAV,AUTO,0,0,0,0
2026-07-06T22:40:04.331734+00:00,4.035505771636963,E9_auto_waypoint_reach,baseline_warmup,0,37.5665,126.978,20.0,0.0,,,,,,,3,12,37.5665,126.978,20.0,,,,0.0,0.0,GPS_RAW_INT,GPS 1: detected MAV,AUTO,0,0,0,0
2026-07-06T22:40:04.331764+00:00,4.0355353355407715,E9_auto_waypoint_reach,baseline_warmup,0,37.5665,126.978,20.0,0.0,,,,,,,3,12,37.5665,126.978,20.0,,,,0.0,0.0,FENCE_STATUS,GPS 1: detected MAV,AUTO,0,0,0,0
2026-07-06T22:40:04.535335+00:00,4.239127159118652,E9_auto_waypoint_reach,baseline_warmup,0,37.5665,126.978,20.0,0.0,,,,,,,3,12,37.5665,126.978,20.0,,,,0.0,0.0,HEARTBEAT,GPS 1: detected MAV,AUTO,0,0,0,0
2026-07-06T22:40:04.535452+00:00,4.239224195480347,E9_auto_waypoint_reach,baseline_warmup,0,37.5665,126.978,20.0,0.0,37.5665,126.978,20.0,0.0,0.0,0,3,12,37.5665,126.978,20.0,-0.01,0.01,0.0,0.0,0.0,GLOBAL_POSITION_INT,GPS 1: detected MAV,AUTO,0,0,0,0
2026-07-06T22:40:04.535532+00:00,4.239303350448608,E9_auto_waypoint_reach,baseline_warmup,0,37.5665,126.978,20.0,0.0,,,,,,,3,12,37.5665,126.978,20.0,,,,0.0,0.0,MISSION_CURRENT,GPS 1: detected MAV,AUTO,0,0,0,0
2026-07-06T22:40:04.535687+00:00,4.239458799362183,E9_auto_waypoint_reach,baseline_warmup,0,37.5665,126.978,20.0,0.0,,,,,,,3,12,37.5665,126.978,20.0,,,,0.0,0.0,GPS_RAW_INT,GPS 1: detected MAV,AUTO,0,0,0,0
2026-07-06T22:40:04.535712+00:00,4.239483833312988,E9_auto_waypoint_reach,baseline_warmup,0,37.5665,126.978,20.0,0.0,,,,,,,3,12,37.5665,126.978,20.0,,,,0.0,0.0,FENCE_STATUS,GPS 1: detected MAV,AUTO,0,0,0,0
2026-07-06T22:40:04.733607+00:00,4.437399387359619,E9_auto_waypoint_reach,baseline_warmup,0,37.5665,126.978,20.0,0.0,,,,,,,3,12,37.5665,126.978,20.0,,,,0.0,0.0,HEARTBEAT,GPS 1: detected MAV,AUTO,0,0,0,0
2026-07-06T22:40:04.733728+00:00,4.4375,E9_auto_waypoint_reach,baseline_warmup,0,37.5665,126.978,20.0,0.0,37.5665,126.978,20.0,0.0,0.0,0,3,12,37.5665,126.978,20.0,-0.01,0.01,0.0,0.0,0.0,GLOBAL_POSITION_INT,GPS 1: detected MAV,AUTO,0,0,0,0
2026-07-06T22:40:04.733813+00:00,4.437584161758423,E9_auto_waypoint_reach,baseline_warmup,0,37.5665,126.978,20.0,0.0,,,,,,,3,12,37.5665,126.978,20.0,,,,0.0,0.0,MISSION_CURRENT,GPS 1: detected MAV,AUTO,0,0,0,0
2026-07-06T22:40:04.733961+00:00,4.437732696533203,E9_auto_waypoint_reach,baseline_warmup,0,37.5665,126.978,20.0,0.0,,,,,,,3,12,37.5665,126.978,20.0,,,,0.0,0.0,GPS_RAW_INT,GPS 1: detected MAV,AUTO,0,0,0,0
2026-07-06T22:40:04.733988+00:00,4.437758922576904,E9_auto_waypoint_reach,baseline_warmup,0,37.5665,126.978,20.0,0.0,,,,,,,3,12,37.5665,126.978,20.0,,,,0.0,0.0,FENCE_STATUS,GPS 1: detected MAV,AUTO,0,0,0,0
2026-07-06T22:40:04.931760+00:00,4.635554313659668,E9_auto_waypoint_reach,baseline_warmup,0,37.5665,126.978,20.0,0.0,,,,,,,3,12,37.5665,126.978,20.0,,,,0.0,0.0,HEARTBEAT,GPS 1: detected MAV,AUTO,0,0,0,0
2026-07-06T22:40:04.931884+00:00,4.635655403137207,E9_auto_waypoint_reach,baseline_warmup,0,37.5665,126.978,20.0,0.0,37.5665,126.978,20.0,0.0,0.0,0,3,12,37.5665,126.978,20.0,-0.01,0.01,0.0,0.0,0.0,GLOBAL_POSITION_INT,GPS 1: detected MAV,AUTO,0,0,0,0
2026-07-06T22:40:04.931968+00:00,4.63573956489563,E9_auto_waypoint_reach,baseline_warmup,0,37.5665,126.978,20.0,0.0,,,,,,,3,12,37.5665,126.978,20.0,,,,0.0,0.0,MISSION_CURRENT,GPS 1: detected MAV,AUTO,0,0,0,0
2026-07-06T22:40:04.932118+00:00,4.635889291763306,E9_auto_waypoint_reach,baseline_warmup,0,37.5665,126.978,20.0,0.0,,,,,,,3,12,37.5665,126.978,20.0,,,,0.0,0.0,GPS_RAW_INT,GPS 1: detected MAV,AUTO,0,0,0,0
2026-07-06T22:40:04.932145+00:00,4.635915517807007,E9_auto_waypoint_reach,baseline_warmup,0,37.5665,126.978,20.0,0.0,,,,,,,3,12,37.5665,126.978,20.0,,,,0.0,0.0,FENCE_STATUS,GPS 1: detected MAV,AUTO,0,0,0,0
2026-07-06T22:40:05.135876+00:00,4.839669227600098,E9_auto_waypoint_reach,baseline_warmup,0,37.5665,126.978,20.0,0.0,,,,,,,3,12,37.5665,126.978,20.0,,,,0.0,0.0,HEARTBEAT,GPS 1: detected MAV,AUTO,0,0,0,0
2026-07-06T22:40:05.135997+00:00,4.839768886566162,E9_auto_waypoint_reach,baseline_warmup,0,37.5665,126.978,20.0,0.0,37.5665,126.978,20.0,0.0,0.0,0,3,12,37.5665,126.978,20.0,-0.01,0.01,0.0,0.0,0.0,GLOBAL_POSITION_INT,GPS 1: detected MAV,AUTO,0,0,0,0
2026-07-06T22:40:05.136084+00:00,4.839855194091797,E9_auto_waypoint_reach,baseline_warmup,0,37.5665,126.978,20.0,0.0,,,,,,,3,12,37.5665,126.978,20.0,,,,0.0,0.0,MISSION_CURRENT,GPS 1: detected MAV,AUTO,0,0,0,0
2026-07-06T22:40:05.136235+00:00,4.840006113052368,E9_auto_waypoint_reach,baseline_warmup,0,37.5665,126.978,20.0,0.0,,,,,,,3,12,37.5665,126.978,20.0,,,,0.0,0.0,GPS_RAW_INT,GPS 1: detected MAV,AUTO,0,0,0,0
2026-07-06T22:40:05.136260+00:00,4.840031385421753,E9_auto_waypoint_reach,baseline_warmup,0,37.5665,126.978,20.0,0.0,,,,,,,3,12,37.5665,126.978,20.0,,,,0.0,0.0,FENCE_STATUS,GPS 1: detected MAV,AUTO,0,0,0,0
2026-07-06T22:40:05.333913+00:00,5.037705183029175,E9_auto_waypoint_reach,baseline_warmup,0,37.5665,126.978,20.0,0.0,,,,,,,3,12,37.5665,126.978,20.0,,,,0.0,0.0,HEARTBEAT,GPS 1: detected MAV,AUTO,0,0,0,0
2026-07-06T22:40:05.334035+00:00,5.037806987762451,E9_auto_waypoint_reach,baseline_warmup,0,37.5665,126.978,20.0,0.0,37.5665,126.978,20.0,0.0,0.0,0,3,12,37.5665,126.978,20.0,-0.01,0.01,0.0,0.0,0.0,GLOBAL_POSITION_INT,GPS 1: detected MAV,AUTO,0,0,0,0
2026-07-06T22:40:05.334120+00:00,5.037891387939453,E9_auto_waypoint_reach,baseline_warmup,0,37.5665,126.978,20.0,0.0,,,,,,,3,12,37.5665,126.978,20.0,,,,0.0,0.0,MISSION_CURRENT,GPS 1: detected MAV,AUTO,0,0,0,0
2026-07-06T22:40:05.334267+00:00,5.03803825378418,E9_auto_waypoint_reach,baseline_warmup,0,37.5665,126.978,20.0,0.0,,,,,,,3,12,37.5665,126.978,20.0,,,,0.0,0.0,GPS_RAW_INT,GPS 1: detected MAV,AUTO,0,0,0,0
2026-07-06T22:40:05.334293+00:00,5.038064479827881,E9_auto_waypoint_reach,baseline_warmup,0,37.5665,126.978,20.0,0.0,,,,,,,3,12,37.5665,126.978,20.0,,,,0.0,0.0,FENCE_STATUS,GPS 1: detected MAV,AUTO,0,0,0,0
2026-07-06T22:40:05.532598+00:00,5.236394882202148,E9_auto_waypoint_reach,baseline_warmup,0,37.5665,126.978,20.0,0.0,,,,,,,3,12,37.5665,126.978,20.0,,,,0.0,0.0,HEARTBEAT,GPS 1: detected MAV,AUTO,0,0,0,0
2026-07-06T22:40:05.532754+00:00,5.236528158187866,E9_auto_waypoint_reach,baseline_warmup,0,37.5665,126.978,20.0,0.0,37.5665,126.978,20.0,0.0,0.0,0,3,12,37.5665,126.978,20.0,-0.01,0.01,0.0,0.0,0.0,GLOBAL_POSITION_INT,GPS 1: detected MAV,AUTO,0,0,0,0
2026-07-06T22:40:05.532868+00:00,5.23664116859436,E9_auto_waypoint_reach,baseline_warmup,0,37.5665,126.978,20.0,0.0,,,,,,,3,12,37.5665,126.978,20.0,,,,0.0,0.0,MISSION_CURRENT,GPS 1: detected MAV,AUTO,0,0,0,0
2026-07-06T22:40:05.533073+00:00,5.236847639083862,E9_auto_waypoint_reach,baseline_warmup,0,37.5665,126.978,20.0,0.0,,,,,,,3,12,37.5665,126.978,20.0,,,,0.0,0.0,GPS_RAW_INT,GPS 1: detected MAV,AUTO,0,0,0,0
2026-07-06T22:40:05.533185+00:00,5.236962556838989,E9_auto_waypoint_reach,baseline_warmup,0,37.5665,126.978,20.0,0.0,,,,,,,3,12,37.5665,126.978,20.0,,,,0.0,0.0,FENCE_STATUS,GPS 1: detected MAV,AUTO,0,0,0,0
2026-07-06T22:40:05.730772+00:00,5.434568643569946,E9_auto_waypoint_reach,baseline_warmup,0,37.5665,126.978,20.0,0.0,,,,,,,3,12,37.5665,126.978,20.0,,,,0.0,0.0,HEARTBEAT,GPS 1: detected MAV,AUTO,0,0,0,0
2026-07-06T22:40:05.730926+00:00,5.434702396392822,E9_auto_waypoint_reach,baseline_warmup,0,37.5665,126.978,20.0,0.0,37.5665,126.978,20.0,0.0,0.0,0,3,12,37.5665,126.978,20.0,-0.01,0.01,0.0,0.0,0.0,GLOBAL_POSITION_INT,GPS 1: detected MAV,AUTO,0,0,0,0
2026-07-06T22:40:05.731018+00:00,5.434789657592773,E9_auto_waypoint_reach,baseline_warmup,0,37.5665,126.978,20.0,0.0,,,,,,,3,12,37.5665,126.978,20.0,,,,0.0,0.0,MISSION_CURRENT,GPS 1: detected MAV,AUTO,0,0,0,0
2026-07-06T22:40:05.731178+00:00,5.4349493980407715,E9_auto_waypoint_reach,baseline_warmup,0,37.5665,126.978,20.0,0.0,,,,,,,3,12,37.5665,126.978,20.0,,,,0.0,0.0,GPS_RAW_INT,GPS 1: detected MAV,AUTO,0,0,0,0
2026-07-06T22:40:05.731206+00:00,5.4349775314331055,E9_auto_waypoint_reach,baseline_warmup,0,37.5665,126.978,20.0,0.0,,,,,,,3,12,37.5665,126.978,20.0,,,,0.0,0.0,FENCE_STATUS,GPS 1: detected MAV,AUTO,0,0,0,0
2026-07-06T22:40:05.929095+00:00,5.632887363433838,E9_auto_waypoint_reach,baseline,0,37.5665,126.978,20.0,0.0,,,,,,,3,12,37.5665,126.978,20.0,,,,0.0,0.0,HEARTBEAT,GPS 1: detected MAV,AUTO,0,0,0,0
2026-07-06T22:40:05.929228+00:00,5.633000373840332,E9_auto_waypoint_reach,baseline,0,37.5665,126.978,20.0,0.0,37.5665,126.978,20.0,0.0,0.0,0,3,12,37.5665,126.978,20.0,-0.01,0.01,0.0,0.0,0.0,GLOBAL_POSITION_INT,GPS 1: detected MAV,AUTO,0,0,0,0
2026-07-06T22:40:05.929316+00:00,5.633087873458862,E9_auto_waypoint_reach,baseline,0,37.5665,126.978,20.0,0.0,,,,,,,3,12,37.5665,126.978,20.0,,,,0.0,0.0,MISSION_CURRENT,GPS 1: detected MAV,AUTO,0,0,0,0
2026-07-06T22:40:05.929462+00:00,5.6332337856292725,E9_auto_waypoint_reach,baseline,0,37.5665,126.978,20.0,0.0,,,,,,,3,12,37.5665,126.978,20.0,,,,0.0,0.0,GPS_RAW_INT,GPS 1: detected MAV,AUTO,0,0,0,0
2026-07-06T22:40:05.929489+00:00,5.633260488510132,E9_auto_waypoint_reach,baseline,0,37.5665,126.978,20.0,0.0,,,,,,,3,12,37.5665,126.978,20.0,,,,0.0,0.0,FENCE_STATUS,GPS 1: detected MAV,AUTO,0,0,0,0
2026-07-06T22:40:06.133175+00:00,5.836968183517456,E9_auto_waypoint_reach,baseline,0,37.5665,126.978,20.0,0.0,,,,,,,3,12,37.5665,126.978,20.0,,,,0.0,0.0,HEARTBEAT,GPS 1: detected MAV,AUTO,0,0,0,0
2026-07-06T22:40:06.133296+00:00,5.8370680809021,E9_auto_waypoint_reach,baseline,0,37.5665,126.978,20.0,0.0,37.5665,126.978,20.0,0.0,0.0,0,3,12,37.5665,126.978,20.0,-0.01,0.01,0.0,0.0,0.0,GLOBAL_POSITION_INT,GPS 1: detected MAV,AUTO,0,0,0,0
2026-07-06T22:40:06.133380+00:00,5.837151527404785,E9_auto_waypoint_reach,baseline,0,37.5665,126.978,20.0,0.0,,,,,,,3,12,37.5665,126.978,20.0,,,,0.0,0.0,MISSION_CURRENT,GPS 1: detected MAV,AUTO,0,0,0,0
2026-07-06T22:40:06.133526+00:00,5.837296962738037,E9_auto_waypoint_reach,baseline,0,37.5665,126.978,20.0,0.0,,,,,,,3,12,37.5665,126.978,20.0,,,,0.0,0.0,GPS_RAW_INT,GPS 1: detected MAV,AUTO,0,0,0,0
2026-07-06T22:40:06.133551+00:00,5.837322235107422,E9_auto_waypoint_reach,baseline,0,37.5665,126.978,20.0,0.0,,,,,,,3,12,37.5665,126.978,20.0,,,,0.0,0.0,FENCE_STATUS,GPS 1: detected MAV,AUTO,0,0,0,0
2026-07-06T22:40:06.331392+00:00,6.035185098648071,E9_auto_waypoint_reach,baseline,0,37.5665,126.978,20.0,0.0,,,,,,,3,12,37.5665,126.978,20.0,,,,0.0,0.0,HEARTBEAT,GPS 1: detected MAV,AUTO,0,0,0,0
2026-07-06T22:40:06.331544+00:00,6.035318613052368,E9_auto_waypoint_reach,baseline,0,37.5665,126.978,20.0,0.0,37.5665,126.978,20.0,0.0,0.0,0,3,12,37.5665,126.978,20.0,-0.01,0.01,0.0,0.0,0.0,GLOBAL_POSITION_INT,GPS 1: detected MAV,AUTO,0,0,0,0
2026-07-06T22:40:06.331639+00:00,6.0354108810424805,E9_auto_waypoint_reach,baseline,0,37.5665,126.978,20.0,0.0,,,,,,,3,12,37.5665,126.978,20.0,,,,0.0,0.0,MISSION_CURRENT,GPS 1: detected MAV,AUTO,0,0,0,0
2026-07-06T22:40:06.331790+00:00,6.035561561584473,E9_auto_waypoint_reach,baseline,0,37.5665,126.978,20.0,0.0,,,,,,,3,12,37.5665,126.978,20.0,,,,0.0,0.0,GPS_RAW_INT,GPS 1: detected MAV,AUTO,0,0,0,0
2026-07-06T22:40:06.331817+00:00,6.035587549209595,E9_auto_waypoint_reach,baseline,0,37.5665,126.978,20.0,0.0,,,,,,,3,12,37.5665,126.978,20.0,,,,0.0,0.0,FENCE_STATUS,GPS 1: detected MAV,AUTO,0,0,0,0
2026-07-06T22:40:06.535453+00:00,6.2392449378967285,E9_auto_waypoint_reach,baseline,0,37.5665,126.978,20.0,0.0,,,,,,,3,12,37.5665,126.978,20.0,,,,0.0,0.0,HEARTBEAT,GPS 1: detected MAV,AUTO,0,0,0,0
2026-07-06T22:40:06.535568+00:00,6.239340305328369,E9_auto_waypoint_reach,baseline,0,37.5665,126.978,20.0,0.0,37.5665,126.978,20.0,0.0,0.0,0,3,12,37.5665,126.978,20.0,-0.01,0.01,0.0,0.0,0.0,GLOBAL_POSITION_INT,GPS 1: detected MAV,AUTO,0,0,0,0
2026-07-06T22:40:06.535655+00:00,6.239426612854004,E9_auto_waypoint_reach,baseline,0,37.5665,126.978,20.0,0.0,,,,,,,3,12,37.5665,126.978,20.0,,,,0.0,0.0,MISSION_CURRENT,GPS 1: detected MAV,AUTO,0,0,0,0
2026-07-06T22:40:06.535814+00:00,6.239585876464844,E9_auto_waypoint_reach,baseline,0,37.5665,126.978,20.0,0.0,,,,,,,3,12,37.5665,126.978,20.0,,,,0.0,0.0,GPS_RAW_INT,GPS 1: detected MAV,AUTO,0,0,0,0
2026-07-06T22:40:06.535841+00:00,6.239611625671387,E9_auto_waypoint_reach,baseline,0,37.5665,126.978,20.0,0.0,,,,,,,3,12,37.5665,126.978,20.0,,,,0.0,0.0,FENCE_STATUS,GPS 1: detected MAV,AUTO,0,0,0,0
2026-07-06T22:40:06.733755+00:00,6.437549352645874,E9_auto_waypoint_reach,baseline,0,37.5665,126.978,20.0,0.0,,,,,,,3,12,37.5665,126.978,20.0,,,,0.0,0.0,HEARTBEAT,GPS 1: detected MAV,AUTO,0,0,0,0
2026-07-06T22:40:06.733908+00:00,6.437683582305908,E9_auto_waypoint_reach,baseline,0,37.5665,126.978,20.0,0.0,37.5665,126.978,20.0,0.0,0.0,0,3,12,37.5665,126.978,20.0,-0.01,0.01,0.0,0.0,0.0,GLOBAL_POSITION_INT,GPS 1: detected MAV,AUTO,0,0,0,0
2026-07-06T22:40:06.734070+00:00,6.437849283218384,E9_auto_waypoint_reach,baseline,0,37.5665,126.978,20.0,0.0,,,,,,,3,12,37.5665,126.978,20.0,,,,0.0,0.0,MISSION_CURRENT,GPS 1: detected MAV,AUTO,0,0,0,0
2026-07-06T22:40:06.734293+00:00,6.4380669593811035,E9_auto_waypoint_reach,baseline,0,37.5665,126.978,20.0,0.0,,,,,,,3,12,37.5665,126.978,20.0,,,,0.0,0.0,GPS_RAW_INT,GPS 1: detected MAV,AUTO,0,0,0,0
2026-07-06T22:40:06.734337+00:00,6.438108682632446,E9_auto_waypoint_reach,baseline,0,37.5665,126.978,20.0,0.0,,,,,,,3,12,37.5665,126.978,20.0,,,,0.0,0.0,FENCE_STATUS,GPS 1: detected MAV,AUTO,0,0,0,0
2026-07-06T22:40:06.932001+00:00,6.635794162750244,E9_auto_waypoint_reach,baseline,0,37.5665,126.978,20.0,0.0,,,,,,,3,12,37.5665,126.978,20.0,,,,0.0,0.0,HEARTBEAT,GPS 1: detected MAV,AUTO,0,0,0,0
2026-07-06T22:40:06.932121+00:00,6.63589334487915,E9_auto_waypoint_reach,baseline,0,37.5665,126.978,20.0,0.0,37.5665,126.978,20.0,0.0,0.0,0,3,12,37.5665,126.978,20.0,-0.01,0.01,0.0,0.0,0.0,GLOBAL_POSITION_INT,GPS 1: detected MAV,AUTO,0,0,0,0
2026-07-06T22:40:06.932214+00:00,6.635985374450684,E9_auto_waypoint_reach,baseline,0,37.5665,126.978,20.0,0.0,,,,,,,3,12,37.5665,126.978,20.0,,,,0.0,0.0,MISSION_CURRENT,GPS 1: detected MAV,AUTO,0,0,0,0
2026-07-06T22:40:06.932429+00:00,6.636204957962036,E9_auto_waypoint_reach,baseline,0,37.5665,126.978,20.0,0.0,,,,,,,3,12,37.5665,126.978,20.0,,,,0.0,0.0,GPS_RAW_INT,GPS 1: detected MAV,AUTO,0,0,0,0
2026-07-06T22:40:06.932465+00:00,6.636236190795898,E9_auto_waypoint_reach,baseline,0,37.5665,126.978,20.0,0.0,,,,,,,3,12,37.5665,126.978,20.0,,,,0.0,0.0,FENCE_STATUS,GPS 1: detected MAV,AUTO,0,0,0,0
2026-07-06T22:40:07.136031+00:00,6.839824199676514,E9_auto_waypoint_reach,baseline,0,37.5665,126.978,20.0,0.0,,,,,,,3,12,37.5665,126.978,20.0,,,,0.0,0.0,HEARTBEAT,GPS 1: detected MAV,AUTO,0,0,0,0
2026-07-06T22:40:07.136161+00:00,6.839932680130005,E9_auto_waypoint_reach,baseline,0,37.5665,126.978,20.0,0.0,37.5665,126.978,20.0,0.0,0.0,0,3,12,37.5665,126.978,20.0,-0.01,0.01,0.0,0.0,0.0,GLOBAL_POSITION_INT,GPS 1: detected MAV,AUTO,0,0,0,0
2026-07-06T22:40:07.136247+00:00,6.8400187492370605,E9_auto_waypoint_reach,baseline,0,37.5665,126.978,20.0,0.0,,,,,,,3,12,37.5665,126.978,20.0,,,,0.0,0.0,MISSION_CURRENT,GPS 1: detected MAV,AUTO,0,0,0,0
2026-07-06T22:40:07.136395+00:00,6.840166807174683,E9_auto_waypoint_reach,baseline,0,37.5665,126.978,20.0,0.0,,,,,,,3,12,37.5665,126.978,20.0,,,,0.0,0.0,GPS_RAW_INT,GPS 1: detected MAV,AUTO,0,0,0,0
2026-07-06T22:40:07.136422+00:00,6.840193510055542,E9_auto_waypoint_reach,baseline,0,37.5665,126.978,20.0,0.0,,,,,,,3,12,37.5665,126.978,20.0,,,,0.0,0.0,FENCE_STATUS,GPS 1: detected MAV,AUTO,0,0,0,0
2026-07-06T22:40:07.334427+00:00,7.0382232666015625,E9_auto_waypoint_reach,baseline,0,37.5665,126.978,20.0,0.0,,,,,,,3,12,37.5665,126.978,20.0,,,,0.0,0.0,HEARTBEAT,GPS 1: detected MAV,AUTO,0,0,0,0
2026-07-06T22:40:07.334581+00:00,7.03835916519165,E9_auto_waypoint_reach,baseline,0,37.5665,126.978,20.0,0.0,37.5665,126.978,20.0,0.0,0.0,0,3,12,37.5665,126.978,20.0,-0.01,0.01,0.0,0.0,0.0,GLOBAL_POSITION_INT,GPS 1: detected MAV,AUTO,0,0,0,0
2026-07-06T22:40:07.334718+00:00,7.038492441177368,E9_auto_waypoint_reach,baseline,0,37.5665,126.978,20.0,0.0,,,,,,,3,12,37.5665,126.978,20.0,,,,0.0,0.0,MISSION_CURRENT,GPS 1: detected MAV,AUTO,0,0,0,0
2026-07-06T22:40:07.334922+00:00,7.038695812225342,E9_auto_waypoint_reach,baseline,0,37.5665,126.978,20.0,0.0,,,,,,,3,12,37.5665,126.978,20.0,,,,0.0,0.0,GPS_RAW_INT,GPS 1: detected MAV,AUTO,0,0,0,0
2026-07-06T22:40:07.334954+00:00,7.03872537612915,E9_auto_waypoint_reach,baseline,0,37.5665,126.978,20.0,0.0,,,,,,,3,12,37.5665,126.978,20.0,,,,0.0,0.0,FENCE_STATUS,GPS 1: detected MAV,AUTO,0,0,0,0
2026-07-06T22:40:07.532633+00:00,7.236426591873169,E9_auto_waypoint_reach,baseline,0,37.5665,126.978,20.0,0.0,,,,,,,3,12,37.5665,126.978,20.0,,,,0.0,0.0,HEARTBEAT,GPS 1: detected MAV,AUTO,0,0,0,0
2026-07-06T22:40:07.532756+00:00,7.23652720451355,E9_auto_waypoint_reach,baseline,0,37.5665,126.978,20.0,0.0,37.5665,126.978,20.0,0.0,0.0,0,3,12,37.5665,126.978,20.0,-0.02,0.01,0.0,0.0,0.0,GLOBAL_POSITION_INT,GPS 1: detected MAV,AUTO,0,0,0,0
2026-07-06T22:40:07.532842+00:00,7.236613035202026,E9_auto_waypoint_reach,baseline,0,37.5665,126.978,20.0,0.0,,,,,,,3,12,37.5665,126.978,20.0,,,,0.0,0.0,MISSION_CURRENT,GPS 1: detected MAV,AUTO,0,0,0,0
2026-07-06T22:40:07.532990+00:00,7.236761093139648,E9_auto_waypoint_reach,baseline,0,37.5665,126.978,20.0,0.0,,,,,,,3,12,37.5665,126.978,20.0,,,,0.0,0.0,GPS_RAW_INT,GPS 1: detected MAV,AUTO,0,0,0,0
2026-07-06T22:40:07.533017+00:00,7.236787796020508,E9_auto_waypoint_reach,baseline,0,37.5665,126.978,20.0,0.0,,,,,,,3,12,37.5665,126.978,20.0,,,,0.0,0.0,FENCE_STATUS,GPS 1: detected MAV,AUTO,0,0,0,0
2026-07-06T22:40:07.730905+00:00,7.434699296951294,E9_auto_waypoint_reach,baseline,0,37.5665,126.978,20.0,0.0,,,,,,,3,12,37.5665,126.978,20.0,,,,0.0,0.0,HEARTBEAT,GPS 1: detected MAV,AUTO,0,0,0,0
2026-07-06T22:40:07.731026+00:00,7.434797763824463,E9_auto_waypoint_reach,baseline,0,37.5665,126.978,20.0,0.0,37.5665,126.978,20.0,0.0,0.0,0,3,12,37.5665,126.978,20.0,-0.02,0.01,0.0,0.0,0.0,GLOBAL_POSITION_INT,GPS 1: detected MAV,AUTO,0,0,0,0
2026-07-06T22:40:07.731111+00:00,7.434882164001465,E9_auto_waypoint_reach,baseline,0,37.5665,126.978,20.0,0.0,,,,,,,3,12,37.5665,126.978,20.0,,,,0.0,0.0,MISSION_CURRENT,GPS 1: detected MAV,AUTO,0,0,0,0
2026-07-06T22:40:07.731311+00:00,7.435086965560913,E9_auto_waypoint_reach,baseline,0,37.5665,126.978,20.0,0.0,,,,,,,3,12,37.5665,126.978,20.0,,,,0.0,0.0,GPS_RAW_INT,GPS 1: detected MAV,AUTO,0,0,0,0
2026-07-06T22:40:07.731356+00:00,7.435128211975098,E9_auto_waypoint_reach,baseline,0,37.5665,126.978,20.0,0.0,,,,,,,3,12,37.5665,126.978,20.0,,,,0.0,0.0,FENCE_STATUS,GPS 1: detected MAV,AUTO,0,0,0,0
2026-07-06T22:40:07.929298+00:00,7.6330931186676025,E9_auto_waypoint_reach,baseline,0,37.5665,126.978,20.0,0.0,,,,,,,3,12,37.5665,126.978,20.0,,,,0.0,0.0,HEARTBEAT,GPS 1: detected MAV,AUTO,0,0,0,0
2026-07-06T22:40:07.929427+00:00,7.633199453353882,E9_auto_waypoint_reach,baseline,0,37.5665,126.978,20.0,0.0,37.5665,126.978,20.0,0.0,0.0,0,3,12,37.5665,126.978,20.0,-0.02,0.01,0.0,0.0,0.0,GLOBAL_POSITION_INT,GPS 1: detected MAV,AUTO,0,0,0,0
2026-07-06T22:40:07.929514+00:00,7.633285284042358,E9_auto_waypoint_reach,baseline,0,37.5665,126.978,20.0,0.0,,,,,,,3,12,37.5665,126.978,20.0,,,,0.0,0.0,MISSION_CURRENT,GPS 1: detected MAV,AUTO,0,0,0,0
2026-07-06T22:40:07.929668+00:00,7.633439540863037,E9_auto_waypoint_reach,baseline,0,37.5665,126.978,20.0,0.0,,,,,,,3,12,37.5665,126.978,20.0,,,,0.0,0.0,GPS_RAW_INT,GPS 1: detected MAV,AUTO,0,0,0,0
2026-07-06T22:40:07.929697+00:00,7.63346791267395,E9_auto_waypoint_reach,baseline,0,37.5665,126.978,20.0,0.0,,,,,,,3,12,37.5665,126.978,20.0,,,,0.0,0.0,FENCE_STATUS,GPS 1: detected MAV,AUTO,0,0,0,0
2026-07-06T22:40:08.133269+00:00,7.83706259727478,E9_auto_waypoint_reach,baseline,0,37.5665,126.978,20.0,0.0,,,,,,,3,12,37.5665,126.978,20.0,,,,0.0,0.0,HEARTBEAT,GPS 1: detected MAV,AUTO,0,0,0,0
2026-07-06T22:40:08.133400+00:00,7.837172269821167,E9_auto_waypoint_reach,baseline,0,37.5665,126.978,20.0,0.0,37.5665,126.978,20.0,0.0,0.0,0,3,12,37.5665,126.978,20.0,-0.02,0.01,0.0,0.0,0.0,GLOBAL_POSITION_INT,GPS 1: detected MAV,AUTO,0,0,0,0
2026-07-06T22:40:08.133484+00:00,7.837255001068115,E9_auto_waypoint_reach,baseline,0,37.5665,126.978,20.0,0.0,,,,,,,3,12,37.5665,126.978,20.0,,,,0.0,0.0,MISSION_CURRENT,GPS 1: detected MAV,AUTO,0,0,0,0
2026-07-06T22:40:08.133630+00:00,7.837401628494263,E9_auto_waypoint_reach,baseline,0,37.5665,126.978,20.0,0.0,,,,,,,3,12,37.5665,126.978,20.0,,,,0.0,0.0,GPS_RAW_INT,GPS 1: detected MAV,AUTO,0,0,0,0
2026-07-06T22:40:08.133656+00:00,7.837427377700806,E9_auto_waypoint_reach,baseline,0,37.5665,126.978,20.0,0.0,,,,,,,3,12,37.5665,126.978,20.0,,,,0.0,0.0,FENCE_STATUS,GPS 1: detected MAV,AUTO,0,0,0,0
2026-07-06T22:40:08.331504+00:00,8.035296201705933,E9_auto_waypoint_reach,baseline,0,37.5665,126.978,20.0,0.0,,,,,,,3,12,37.5665,126.978,20.0,,,,0.0,0.0,HEARTBEAT,GPS 1: detected MAV,AUTO,0,0,0,0
2026-07-06T22:40:08.331642+00:00,8.035415172576904,E9_auto_waypoint_reach,baseline,0,37.5665,126.978,20.0,0.0,37.5665,126.978,20.0,0.0,0.0,0,3,12,37.5665,126.978,20.0,-0.02,0.01,0.0,0.0,0.0,GLOBAL_POSITION_INT,GPS 1: detected MAV,AUTO,0,0,0,0
2026-07-06T22:40:08.331781+00:00,8.035553216934204,E9_auto_waypoint_reach,baseline,0,37.5665,126.978,20.0,0.0,,,,,,,3,12,37.5665,126.978,20.0,,,,0.0,0.0,MISSION_CURRENT,GPS 1: detected MAV,AUTO,0,0,0,0
2026-07-06T22:40:08.332015+00:00,8.035787582397461,E9_auto_waypoint_reach,baseline,0,37.5665,126.978,20.0,0.0,,,,,,,3,12,37.5665,126.978,20.0,,,,0.0,0.0,GPS_RAW_INT,GPS 1: detected MAV,AUTO,0,0,0,0
2026-07-06T22:40:08.332059+00:00,8.0358304977417,E9_auto_waypoint_reach,baseline,0,37.5665,126.978,20.0,0.0,,,,,,,3,12,37.5665,126.978,20.0,,,,0.0,0.0,FENCE_STATUS,GPS 1: detected MAV,AUTO,0,0,0,0
2026-07-06T22:40:08.535604+00:00,8.239397525787354,E9_auto_waypoint_reach,baseline,0,37.5665,126.978,20.0,0.0,,,,,,,3,12,37.5665,126.978,20.0,,,,0.0,0.0,HEARTBEAT,GPS 1: detected MAV,AUTO,0,0,0,0
2026-07-06T22:40:08.535722+00:00,8.23949408531189,E9_auto_waypoint_reach,baseline,0,37.5665,126.978,20.0,0.0,37.5665,126.978,20.0,0.0,0.0,0,3,12,37.5665,126.978,20.0,-0.02,0.01,0.0,0.0,0.0,GLOBAL_POSITION_INT,GPS 1: detected MAV,AUTO,0,0,0,0
2026-07-06T22:40:08.535808+00:00,8.239579439163208,E9_auto_waypoint_reach,baseline,0,37.5665,126.978,20.0,0.0,,,,,,,3,12,37.5665,126.978,20.0,,,,0.0,0.0,MISSION_CURRENT,GPS 1: detected MAV,AUTO,0,0,0,0
2026-07-06T22:40:08.535957+00:00,8.239728212356567,E9_auto_waypoint_reach,baseline,0,37.5665,126.978,20.0,0.0,,,,,,,3,12,37.5665,126.978,20.0,,,,0.0,0.0,GPS_RAW_INT,GPS 1: detected MAV,AUTO,0,0,0,0
2026-07-06T22:40:08.535982+00:00,8.239753007888794,E9_auto_waypoint_reach,baseline,0,37.5665,126.978,20.0,0.0,,,,,,,3,12,37.5665,126.978,20.0,,,,0.0,0.0,FENCE_STATUS,GPS 1: detected MAV,AUTO,0,0,0,0
2026-07-06T22:40:08.733863+00:00,8.437654495239258,E9_auto_waypoint_reach,baseline,0,37.5665,126.978,20.0,0.0,,,,,,,3,12,37.5665,126.978,20.0,,,,0.0,0.0,HEARTBEAT,GPS 1: detected MAV,AUTO,0,0,0,0
2026-07-06T22:40:08.733979+00:00,8.437750339508057,E9_auto_waypoint_reach,baseline,0,37.5665,126.978,20.0,0.0,37.5665,126.978,20.0,0.0,0.0,0,3,12,37.5665,126.978,20.0,-0.02,0.01,0.0,0.0,0.0,GLOBAL_POSITION_INT,GPS 1: detected MAV,AUTO,0,0,0,0
2026-07-06T22:40:08.734065+00:00,8.437836408615112,E9_auto_waypoint_reach,baseline,0,37.5665,126.978,20.0,0.0,,,,,,,3,12,37.5665,126.978,20.0,,,,0.0,0.0,MISSION_CURRENT,GPS 1: detected MAV,AUTO,0,0,0,0
2026-07-06T22:40:08.734214+00:00,8.437985897064209,E9_auto_waypoint_reach,baseline,0,37.5665,126.978,20.0,0.0,,,,,,,3,12,37.5665,126.978,20.0,,,,0.0,0.0,GPS_RAW_INT,GPS 1: detected MAV,AUTO,0,0,0,0
2026-07-06T22:40:08.734240+00:00,8.438011407852173,E9_auto_waypoint_reach,baseline,0,37.5665,126.978,20.0,0.0,,,,,,,3,12,37.5665,126.978,20.0,,,,0.0,0.0,FENCE_STATUS,GPS 1: detected MAV,AUTO,0,0,0,0
2026-07-06T22:40:08.932169+00:00,8.635966300964355,E9_auto_waypoint_reach,baseline,0,37.5665,126.978,20.0,0.0,,,,,,,3,12,37.5665,126.978,20.0,,,,0.0,0.0,HEARTBEAT,GPS 1: detected MAV,AUTO,0,0,0,0
2026-07-06T22:40:08.932339+00:00,8.636112451553345,E9_auto_waypoint_reach,baseline,0,37.5665,126.978,20.0,0.0,37.5665,126.978,20.0,0.0,0.0,0,3,12,37.5665,126.978,20.0,-0.02,0.02,0.0,0.0,0.0,GLOBAL_POSITION_INT,GPS 1: detected MAV,AUTO,0,0,0,0
2026-07-06T22:40:08.932482+00:00,8.63625431060791,E9_auto_waypoint_reach,baseline,0,37.5665,126.978,20.0,0.0,,,,,,,3,12,37.5665,126.978,20.0,,,,0.0,0.0,MISSION_CURRENT,GPS 1: detected MAV,AUTO,0,0,0,0
2026-07-06T22:40:08.932718+00:00,8.6364905834198,E9_auto_waypoint_reach,baseline,0,37.5665,126.978,20.0,0.0,,,,,,,3,12,37.5665,126.978,20.0,,,,0.0,0.0,GPS_RAW_INT,GPS 1: detected MAV,AUTO,0,0,0,0
2026-07-06T22:40:08.932763+00:00,8.636535406112671,E9_auto_waypoint_reach,baseline,0,37.5665,126.978,20.0,0.0,,,,,,,3,12,37.5665,126.978,20.0,,,,0.0,0.0,FENCE_STATUS,GPS 1: detected MAV,AUTO,0,0,0,0
2026-07-06T22:40:09.048775+00:00,8.752565145492554,E9_auto_waypoint_reach,baseline,0,37.5665,126.978,20.0,0.0,,,,,,,3,12,37.5665,126.978,20.0,,,,0.0,0.0,STATUSTEXT,EKF3 IMU0 origin set,AUTO,0,0,0,0
2026-07-06T22:40:09.048851+00:00,8.752622842788696,E9_auto_waypoint_reach,baseline,0,37.5665,126.978,20.0,0.0,,,,,,,3,12,37.5665,126.978,20.0,,,,0.0,0.0,STATUSTEXT,EKF3 IMU1 origin set,AUTO,0,0,0,0
2026-07-06T22:40:09.136116+00:00,8.839907884597778,E9_auto_waypoint_reach,baseline,0,37.5665,126.978,20.0,0.0,,,,,,,3,12,37.5665,126.978,20.0,,,,0.0,0.0,HEARTBEAT,EKF3 IMU1 origin set,AUTO,0,0,0,0
2026-07-06T22:40:09.136241+00:00,8.840012788772583,E9_auto_waypoint_reach,baseline,0,37.5665,126.978,20.0,0.0,37.5665,126.978,20.0,0.0,0.0,0,3,12,37.5665,126.978,20.0,-0.02,0.02,0.0,0.0,0.0,GLOBAL_POSITION_INT,EKF3 IMU1 origin set,AUTO,0,0,0,0
2026-07-06T22:40:09.136328+00:00,8.840099334716797,E9_auto_waypoint_reach,baseline,0,37.5665,126.978,20.0,0.0,,,,,,,3,12,37.5665,126.978,20.0,,,,0.0,0.0,MISSION_CURRENT,EKF3 IMU1 origin set,AUTO,0,0,0,0
2026-07-06T22:40:09.136523+00:00,8.840297222137451,E9_auto_waypoint_reach,baseline,0,37.5665,126.978,20.0,0.0,,,,,,,3,12,37.5665,126.978,20.0,,,,0.0,0.0,GPS_RAW_INT,EKF3 IMU1 origin set,AUTO,0,0,0,0
2026-07-06T22:40:09.136556+00:00,8.840327739715576,E9_auto_waypoint_reach,baseline,0,37.5665,126.978,20.0,0.0,,,,,,,3,12,37.5665,126.978,20.0,,,,0.0,0.0,FENCE_STATUS,EKF3 IMU1 origin set,AUTO,0,0,0,0
2026-07-06T22:40:09.142156+00:00,8.845945835113525,E9_auto_waypoint_reach,baseline,0,37.5665,126.978,20.0,0.0,,,,,,,3,12,37.5665,126.978,20.0,,,,0.0,0.0,STATUSTEXT,Field Elevation Set: 20m,AUTO,0,0,0,0
2026-07-06T22:40:09.334496+00:00,9.038288831710815,E9_auto_waypoint_reach,baseline,0,37.5665,126.978,20.0,0.0,,,,,,,3,12,37.5665,126.978,20.0,,,,0.0,0.0,HEARTBEAT,Field Elevation Set: 20m,AUTO,0,0,0,0
2026-07-06T22:40:09.334617+00:00,9.038388967514038,E9_auto_waypoint_reach,baseline,0,37.5665,126.978,20.0,0.0,37.5665,126.978,20.0,0.0,0.0,0,3,12,37.5665,126.978,20.0,-0.02,0.02,0.0,0.0,0.0,GLOBAL_POSITION_INT,Field Elevation Set: 20m,AUTO,0,0,0,0
2026-07-06T22:40:09.334705+00:00,9.03847622871399,E9_auto_waypoint_reach,baseline,0,37.5665,126.978,20.0,0.0,,,,,,,3,12,37.5665,126.978,20.0,,,,0.0,0.0,MISSION_CURRENT,Field Elevation Set: 20m,AUTO,0,0,0,0
2026-07-06T22:40:09.334858+00:00,9.03862977027893,E9_auto_waypoint_reach,baseline,0,37.5665,126.978,20.0,0.0,,,,,,,3,12,37.5665,126.978,20.0,,,,0.0,0.0,GPS_RAW_INT,Field Elevation Set: 20m,AUTO,0,0,0,0
2026-07-06T22:40:09.334885+00:00,9.038656234741211,E9_auto_waypoint_reach,baseline,0,37.5665,126.978,20.0,0.0,,,,,,,3,12,37.5665,126.978,20.0,,,,0.0,0.0,FENCE_STATUS,Field Elevation Set: 20m,AUTO,0,0,0,0
2026-07-06T22:40:09.532905+00:00,9.236705303192139,E9_auto_waypoint_reach,baseline,0,37.5665,126.978,20.0,0.0,,,,,,,3,12,37.5665,126.978,20.0,,,,0.0,0.0,HEARTBEAT,Field Elevation Set: 20m,AUTO,0,0,0,0
2026-07-06T22:40:09.533114+00:00,9.236895084381104,E9_auto_waypoint_reach,baseline,0,37.5665,126.978,20.0,0.0,37.5665,126.978,20.0,0.0,0.0,0,3,12,37.5665,126.978,20.0,-0.02,0.02,0.0,0.0,0.0,GLOBAL_POSITION_INT,Field Elevation Set: 20m,AUTO,0,0,0,0
2026-07-06T22:40:09.533246+00:00,9.237018346786499,E9_auto_waypoint_reach,baseline,0,37.5665,126.978,20.0,0.0,,,,,,,3,12,37.5665,126.978,20.0,,,,0.0,0.0,MISSION_CURRENT,Field Elevation Set: 20m,AUTO,0,0,0,0
2026-07-06T22:40:09.533406+00:00,9.237177610397339,E9_auto_waypoint_reach,baseline,0,37.5665,126.978,20.0,0.0,,,,,,,3,12,37.5665,126.978,20.0,,,,0.0,0.0,GPS_RAW_INT,Field Elevation Set: 20m,AUTO,0,0,0,0
2026-07-06T22:40:09.533433+00:00,9.23720407485962,E9_auto_waypoint_reach,baseline,0,37.5665,126.978,20.0,0.0,,,,,,,3,12,37.5665,126.978,20.0,,,,0.0,0.0,FENCE_STATUS,Field Elevation Set: 20m,AUTO,0,0,0,0
2026-07-06T22:40:09.731079+00:00,9.434872388839722,E9_auto_waypoint_reach,baseline,0,37.5665,126.978,20.0,0.0,,,,,,,3,12,37.5665,126.978,20.0,,,,0.0,0.0,HEARTBEAT,Field Elevation Set: 20m,AUTO,0,0,0,0
2026-07-06T22:40:09.731202+00:00,9.434974431991577,E9_auto_waypoint_reach,baseline,0,37.5665,126.978,20.0,0.0,37.5665,126.978,20.0,0.0,0.0,0,3,12,37.5665,126.978,20.0,-0.02,0.02,0.0,0.0,0.0,GLOBAL_POSITION_INT,Field Elevation Set: 20m,AUTO,0,0,0,0
2026-07-06T22:40:09.731293+00:00,9.435064315795898,E9_auto_waypoint_reach,baseline,0,37.5665,126.978,20.0,0.0,,,,,,,3,12,37.5665,126.978,20.0,,,,0.0,0.0,MISSION_CURRENT,Field Elevation Set: 20m,AUTO,0,0,0,0
2026-07-06T22:40:09.731441+00:00,9.4352126121521,E9_auto_waypoint_reach,baseline,0,37.5665,126.978,20.0,0.0,,,,,,,3,12,37.5665,126.978,20.0,,,,0.0,0.0,GPS_RAW_INT,Field Elevation Set: 20m,AUTO,0,0,0,0
2026-07-06T22:40:09.731467+00:00,9.435238122940063,E9_auto_waypoint_reach,baseline,0,37.5665,126.978,20.0,0.0,,,,,,,3,12,37.5665,126.978,20.0,,,,0.0,0.0,FENCE_STATUS,Field Elevation Set: 20m,AUTO,0,0,0,0
2026-07-06T22:40:09.929335+00:00,9.633130311965942,E9_auto_waypoint_reach,baseline,0,37.5665,126.978,20.0,0.0,,,,,,,3,12,37.5665,126.978,20.0,,,,0.0,0.0,HEARTBEAT,Field Elevation Set: 20m,AUTO,0,0,0,0
2026-07-06T22:40:09.929523+00:00,9.633304357528687,E9_auto_waypoint_reach,baseline,0,37.5665,126.978,20.0,0.0,37.5665,126.978,20.0,0.0,0.0,0,3,12,37.5665,126.978,20.0,-0.02,0.02,0.0,0.0,0.0,GLOBAL_POSITION_INT,Field Elevation Set: 20m,AUTO,0,0,0,0
2026-07-06T22:40:09.929667+00:00,9.63344407081604,E9_auto_waypoint_reach,baseline,0,37.5665,126.978,20.0,0.0,,,,,,,3,12,37.5665,126.978,20.0,,,,0.0,0.0,MISSION_CURRENT,Field Elevation Set: 20m,AUTO,0,0,0,0
2026-07-06T22:40:09.929852+00:00,9.633624076843262,E9_auto_waypoint_reach,baseline,0,37.5665,126.978,20.0,0.0,,,,,,,3,12,37.5665,126.978,20.0,,,,0.0,0.0,GPS_RAW_INT,Field Elevation Set: 20m,AUTO,0,0,0,0
2026-07-06T22:40:09.929881+00:00,9.633652448654175,E9_auto_waypoint_reach,baseline,0,37.5665,126.978,20.0,0.0,,,,,,,3,12,37.5665,126.978,20.0,,,,0.0,0.0,FENCE_STATUS,Field Elevation Set: 20m,AUTO,0,0,0,0
2026-07-06T22:40:10.133433+00:00,9.83722472190857,E9_auto_waypoint_reach,baseline,0,37.5665,126.978,20.0,0.0,,,,,,,3,12,37.5665,126.978,20.0,,,,0.0,0.0,HEARTBEAT,Field Elevation Set: 20m,AUTO,0,0,0,0
