timestamp,elapsed_s,experiment,phase,sample_index,target_lat,target_lon,target_alt,target_drift_m,obs_lat,obs_lon,obs_alt,official_drift_m,target_error_m,reflected,gps_fix_type,gps_satellites,gps_raw_lat,gps_raw_lon,gps_raw_alt,vn,ve,vd,commanded_speed_mps,commanded_accel_mps2,message_type,status_text,mode,fence_breach_status,fence_breach_count,fence_breach_type
2026-07-06T16:44:20.721416+00:00,0.010170459747314453,E6_geofence_mission_impact,baseline_warmup,0,37.5665,126.978,20.0,0.0,,,,,,,,,,,,,,,0.0,0.0,STATUSTEXT,GPS 1: detected MAV,,,,
2026-07-06T16:44:20.920993+00:00,0.2097463607788086,E6_geofence_mission_impact,baseline_warmup,0,37.5665,126.978,20.0,0.0,,,,,,,,,,,,,,,0.0,0.0,HEARTBEAT,GPS 1: detected MAV,STABILIZE,,,
2026-07-06T16:44:20.922760+00:00,0.21150612831115723,E6_geofence_mission_impact,baseline_warmup,0,37.5665,126.978,20.0,0.0,37.5665,126.978,0.0,0.0,0.0,0,,,,,,0.0,0.0,0.0,0.0,0.0,GLOBAL_POSITION_INT,GPS 1: detected MAV,STABILIZE,,,
2026-07-06T16:44:20.925364+00:00,0.21410727500915527,E6_geofence_mission_impact,baseline_warmup,0,37.5665,126.978,20.0,0.0,,,,,,,3,12,37.5665,126.978,20.0,,,,0.0,0.0,GPS_RAW_INT,GPS 1: detected MAV,STABILIZE,,,
2026-07-06T16:44:20.925568+00:00,0.21430563926696777,E6_geofence_mission_impact,baseline_warmup,0,37.5665,126.978,20.0,0.0,,,,,,,3,12,37.5665,126.978,20.0,,,,0.0,0.0,FENCE_STATUS,GPS 1: detected MAV,STABILIZE,0,0,0
2026-07-06T16:44:21.113929+00:00,0.4026823043823242,E6_geofence_mission_impact,baseline_warmup,0,37.5665,126.978,20.0,0.0,,,,,,,3,12,37.5665,126.978,20.0,,,,0.0,0.0,HEARTBEAT,GPS 1: detected MAV,STABILIZE,0,0,0
2026-07-06T16:44:21.114096+00:00,0.40282654762268066,E6_geofence_mission_impact,baseline_warmup,0,37.5665,126.978,20.0,0.0,37.5665,126.978,0.0,0.0,0.0,0,3,12,37.5665,126.978,20.0,0.0,0.0,0.0,0.0,0.0,GLOBAL_POSITION_INT,GPS 1: detected MAV,STABILIZE,0,0,0
2026-07-06T16:44:21.114517+00:00,0.4032576084136963,E6_geofence_mission_impact,baseline_warmup,0,37.5665,126.978,20.0,0.0,,,,,,,3,12,37.5665,126.978,20.0,,,,0.0,0.0,GPS_RAW_INT,GPS 1: detected MAV,STABILIZE,0,0,0
2026-07-06T16:44:21.114600+00:00,0.40333127975463867,E6_geofence_mission_impact,baseline_warmup,0,37.5665,126.978,20.0,0.0,,,,,,,3,12,37.5665,126.978,20.0,,,,0.0,0.0,FENCE_STATUS,GPS 1: detected MAV,STABILIZE,0,0,0
2026-07-06T16:44:21.205475+00:00,0.4942288398742676,E6_geofence_mission_impact,baseline_warmup,0,37.5665,126.978,20.0,0.0,,,,,,,3,12,37.5665,126.978,20.0,,,,0.0,0.0,STATUSTEXT,EKF3 IMU0 initialised,STABILIZE,0,0,0
2026-07-06T16:44:21.205538+00:00,0.4942667484283447,E6_geofence_mission_impact,baseline_warmup,0,37.5665,126.978,20.0,0.0,,,,,,,3,12,37.5665,126.978,20.0,,,,0.0,0.0,STATUSTEXT,EKF3 IMU1 initialised,STABILIZE,0,0,0
2026-07-06T16:44:21.205607+00:00,0.4943356513977051,E6_geofence_mission_impact,baseline_warmup,0,37.5665,126.978,20.0,0.0,,,,,,,3,12,37.5665,126.978,20.0,,,,0.0,0.0,STATUSTEXT,AHRS: EKF3 active,STABILIZE,0,0,0
2026-07-06T16:44:21.314039+00:00,0.6027932167053223,E6_geofence_mission_impact,baseline_warmup,0,37.5665,126.978,20.0,0.0,,,,,,,3,12,37.5665,126.978,20.0,,,,0.0,0.0,HEARTBEAT,AHRS: EKF3 active,STABILIZE,0,0,0
2026-07-06T16:44:21.314659+00:00,0.6034026145935059,E6_geofence_mission_impact,baseline_warmup,0,37.5665,126.978,20.0,0.0,37.5665,126.978,20.0,0.0,0.0,0,3,12,37.5665,126.978,20.0,0.0,0.0,0.02,0.0,0.0,GLOBAL_POSITION_INT,AHRS: EKF3 active,STABILIZE,0,0,0
2026-07-06T16:44:21.315039+00:00,0.6037726402282715,E6_geofence_mission_impact,baseline_warmup,0,37.5665,126.978,20.0,0.0,,,,,,,3,12,37.5665,126.978,20.0,,,,0.0,0.0,GPS_RAW_INT,AHRS: EKF3 active,STABILIZE,0,0,0
2026-07-06T16:44:21.315088+00:00,0.6038165092468262,E6_geofence_mission_impact,baseline_warmup,0,37.5665,126.978,20.0,0.0,,,,,,,3,12,37.5665,126.978,20.0,,,,0.0,0.0,FENCE_STATUS,AHRS: EKF3 active,STABILIZE,0,0,0
2026-07-06T16:44:21.527930+00:00,0.8166854381561279,E6_geofence_mission_impact,baseline_warmup,0,37.5665,126.978,20.0,0.0,,,,,,,3,12,37.5665,126.978,20.0,,,,0.0,0.0,HEARTBEAT,AHRS: EKF3 active,STABILIZE,0,0,0
2026-07-06T16:44:21.529813+00:00,0.8185617923736572,E6_geofence_mission_impact,baseline_warmup,0,37.5665,126.978,20.0,0.0,37.5665,126.978,20.0,0.0,0.0,0,3,12,37.5665,126.978,20.0,0.0,0.0,0.1,0.0,0.0,GLOBAL_POSITION_INT,AHRS: EKF3 active,STABILIZE,0,0,0
2026-07-06T16:44:21.530159+00:00,0.8188941478729248,E6_geofence_mission_impact,baseline_warmup,0,37.5665,126.978,20.0,0.0,,,,,,,3,12,37.5665,126.978,20.0,,,,0.0,0.0,GPS_RAW_INT,AHRS: EKF3 active,STABILIZE,0,0,0
2026-07-06T16:44:21.530207+00:00,0.8189346790313721,E6_geofence_mission_impact,baseline_warmup,0,37.5665,126.978,20.0,0.0,,,,,,,3,12,37.5665,126.978,20.0,,,,0.0,0.0,FENCE_STATUS,AHRS: EKF3 active,STABILIZE,0,0,0
2026-07-06T16:44:21.715399+00:00,1.004150152206421,E6_geofence_mission_impact,baseline_warmup,0,37.5665,126.978,20.0,0.0,,,,,,,3,12,37.5665,126.978,20.0,,,,0.0,0.0,HEARTBEAT,AHRS: EKF3 active,STABILIZE,0,0,0
2026-07-06T16:44:21.715549+00:00,1.0042779445648193,E6_geofence_mission_impact,baseline_warmup,0,37.5665,126.978,20.0,0.0,37.5665,126.978,20.0,0.0,0.0,0,3,12,37.5665,126.978,20.0,0.0,0.0,0.15,0.0,0.0,GLOBAL_POSITION_INT,AHRS: EKF3 active,STABILIZE,0,0,0
2026-07-06T16:44:21.715960+00:00,1.004697561264038,E6_geofence_mission_impact,baseline_warmup,0,37.5665,126.978,20.0,0.0,,,,,,,3,12,37.5665,126.978,20.0,,,,0.0,0.0,GPS_RAW_INT,AHRS: EKF3 active,STABILIZE,0,0,0
2026-07-06T16:44:21.716030+00:00,1.0047588348388672,E6_geofence_mission_impact,baseline_warmup,0,37.5665,126.978,20.0,0.0,,,,,,,3,12,37.5665,126.978,20.0,,,,0.0,0.0,FENCE_STATUS,AHRS: EKF3 active,STABILIZE,0,0,0
2026-07-06T16:44:21.912340+00:00,1.2013192176818848,E6_geofence_mission_impact,baseline_warmup,0,37.5665,126.978,20.0,0.0,,,,,,,3,12,37.5665,126.978,20.0,,,,0.0,0.0,HEARTBEAT,AHRS: EKF3 active,STABILIZE,0,0,0
2026-07-06T16:44:21.912762+00:00,1.2014973163604736,E6_geofence_mission_impact,baseline_warmup,0,37.5665,126.978,20.0,0.0,37.5665,126.978,20.0,0.0,0.0,0,3,12,37.5665,126.978,20.0,0.0,0.0,0.17,0.0,0.0,GLOBAL_POSITION_INT,AHRS: EKF3 active,STABILIZE,0,0,0
2026-07-06T16:44:21.913091+00:00,1.2018194198608398,E6_geofence_mission_impact,baseline_warmup,0,37.5665,126.978,20.0,0.0,,,,,,,3,12,37.5665,126.978,20.0,,,,0.0,0.0,GPS_RAW_INT,AHRS: EKF3 active,STABILIZE,0,0,0
2026-07-06T16:44:21.913131+00:00,1.2018585205078125,E6_geofence_mission_impact,baseline_warmup,0,37.5665,126.978,20.0,0.0,,,,,,,3,12,37.5665,126.978,20.0,,,,0.0,0.0,FENCE_STATUS,AHRS: EKF3 active,STABILIZE,0,0,0
2026-07-06T16:44:22.116908+00:00,1.405663013458252,E6_geofence_mission_impact,baseline_warmup,0,37.5665,126.978,20.0,0.0,,,,,,,3,12,37.5665,126.978,20.0,,,,0.0,0.0,HEARTBEAT,AHRS: EKF3 active,STABILIZE,0,0,0
2026-07-06T16:44:22.117079+00:00,1.4058148860931396,E6_geofence_mission_impact,baseline_warmup,0,37.5665,126.978,20.0,0.0,37.5665,126.978,20.0,0.0,0.0,0,3,12,37.5665,126.978,20.0,0.0,0.0,0.18,0.0,0.0,GLOBAL_POSITION_INT,AHRS: EKF3 active,STABILIZE,0,0,0
2026-07-06T16:44:22.117474+00:00,1.406212568283081,E6_geofence_mission_impact,baseline_warmup,0,37.5665,126.978,20.0,0.0,,,,,,,3,12,37.5665,126.978,20.0,,,,0.0,0.0,GPS_RAW_INT,AHRS: EKF3 active,STABILIZE,0,0,0
2026-07-06T16:44:22.117556+00:00,1.4062888622283936,E6_geofence_mission_impact,baseline_warmup,0,37.5665,126.978,20.0,0.0,,,,,,,3,12,37.5665,126.978,20.0,,,,0.0,0.0,FENCE_STATUS,AHRS: EKF3 active,STABILIZE,0,0,0
2026-07-06T16:44:22.316532+00:00,1.6052851676940918,E6_geofence_mission_impact,baseline_warmup,0,37.5665,126.978,20.0,0.0,,,,,,,3,12,37.5665,126.978,20.0,,,,0.0,0.0,HEARTBEAT,AHRS: EKF3 active,STABILIZE,0,0,0
2026-07-06T16:44:22.316915+00:00,1.6056568622589111,E6_geofence_mission_impact,baseline_warmup,0,37.5665,126.978,20.0,0.0,37.5665,126.978,20.0,0.0,0.0,0,3,12,37.5665,126.978,20.0,0.0,0.0,0.18,0.0,0.0,GLOBAL_POSITION_INT,AHRS: EKF3 active,STABILIZE,0,0,0
2026-07-06T16:44:22.317286+00:00,1.6060168743133545,E6_geofence_mission_impact,baseline_warmup,0,37.5665,126.978,20.0,0.0,,,,,,,3,12,37.5665,126.978,20.0,,,,0.0,0.0,GPS_RAW_INT,AHRS: EKF3 active,STABILIZE,0,0,0
2026-07-06T16:44:22.317328+00:00,1.6060559749603271,E6_geofence_mission_impact,baseline_warmup,0,37.5665,126.978,20.0,0.0,,,,,,,3,12,37.5665,126.978,20.0,,,,0.0,0.0,FENCE_STATUS,AHRS: EKF3 active,STABILIZE,0,0,0
2026-07-06T16:44:22.520450+00:00,1.8092069625854492,E6_geofence_mission_impact,baseline_warmup,0,37.5665,126.978,20.0,0.0,,,,,,,3,12,37.5665,126.978,20.0,,,,0.0,0.0,HEARTBEAT,AHRS: EKF3 active,STABILIZE,0,0,0
2026-07-06T16:44:22.520616+00:00,1.8093466758728027,E6_geofence_mission_impact,baseline_warmup,0,37.5665,126.978,20.0,0.0,37.5665,126.978,20.0,0.0,0.0,0,3,12,37.5665,126.978,20.0,0.0,0.0,0.17,0.0,0.0,GLOBAL_POSITION_INT,AHRS: EKF3 active,STABILIZE,0,0,0
2026-07-06T16:44:22.520962+00:00,1.8096942901611328,E6_geofence_mission_impact,baseline_warmup,0,37.5665,126.978,20.0,0.0,,,,,,,3,12,37.5665,126.978,20.0,,,,0.0,0.0,GPS_RAW_INT,AHRS: EKF3 active,STABILIZE,0,0,0
2026-07-06T16:44:22.521010+00:00,1.8097376823425293,E6_geofence_mission_impact,baseline_warmup,0,37.5665,126.978,20.0,0.0,,,,,,,3,12,37.5665,126.978,20.0,,,,0.0,0.0,FENCE_STATUS,AHRS: EKF3 active,STABILIZE,0,0,0
2026-07-06T16:44:22.703968+00:00,1.9927208423614502,E6_geofence_mission_impact,baseline_warmup,0,37.5665,126.978,20.0,0.0,,,,,,,3,12,37.5665,126.978,20.0,,,,0.0,0.0,HEARTBEAT,AHRS: EKF3 active,STABILIZE,0,0,0
2026-07-06T16:44:22.704124+00:00,1.9928538799285889,E6_geofence_mission_impact,baseline_warmup,0,37.5665,126.978,20.0,0.0,37.5665,126.978,20.0,0.0,0.0,0,3,12,37.5665,126.978,20.0,0.0,0.0,0.16,0.0,0.0,GLOBAL_POSITION_INT,AHRS: EKF3 active,STABILIZE,0,0,0
2026-07-06T16:44:22.704465+00:00,1.9931964874267578,E6_geofence_mission_impact,baseline_warmup,0,37.5665,126.978,20.0,0.0,,,,,,,3,12,37.5665,126.978,20.0,,,,0.0,0.0,GPS_RAW_INT,AHRS: EKF3 active,STABILIZE,0,0,0
2026-07-06T16:44:22.704510+00:00,1.9932386875152588,E6_geofence_mission_impact,baseline_warmup,0,37.5665,126.978,20.0,0.0,,,,,,,3,12,37.5665,126.978,20.0,,,,0.0,0.0,FENCE_STATUS,AHRS: EKF3 active,STABILIZE,0,0,0
2026-07-06T16:44:22.905133+00:00,2.193887948989868,E6_geofence_mission_impact,baseline_warmup,0,37.5665,126.978,20.0,0.0,,,,,,,3,12,37.5665,126.978,20.0,,,,0.0,0.0,HEARTBEAT,AHRS: EKF3 active,STABILIZE,0,0,0
2026-07-06T16:44:22.905412+00:00,2.19415020942688,E6_geofence_mission_impact,baseline_warmup,0,37.5665,126.978,20.0,0.0,37.5665,126.978,20.0,0.0,0.0,0,3,12,37.5665,126.978,20.0,0.0,0.0,0.15,0.0,0.0,GLOBAL_POSITION_INT,AHRS: EKF3 active,STABILIZE,0,0,0
2026-07-06T16:44:22.905777+00:00,2.1945126056671143,E6_geofence_mission_impact,baseline_warmup,0,37.5665,126.978,20.0,0.0,,,,,,,3,12,37.5665,126.978,20.0,,,,0.0,0.0,GPS_RAW_INT,AHRS: EKF3 active,STABILIZE,0,0,0
2026-07-06T16:44:22.905828+00:00,2.1945559978485107,E6_geofence_mission_impact,baseline_warmup,0,37.5665,126.978,20.0,0.0,,,,,,,3,12,37.5665,126.978,20.0,,,,0.0,0.0,FENCE_STATUS,AHRS: EKF3 active,STABILIZE,0,0,0
2026-07-06T16:44:22.944196+00:00,2.232945203781128,E6_geofence_mission_impact,baseline_warmup,0,37.5665,126.978,20.0,0.0,,,,,,,3,12,37.5665,126.978,20.0,,,,0.0,0.0,STATUSTEXT,EKF3 IMU0 tilt alignment complete,STABILIZE,0,0,0
2026-07-06T16:44:22.955378+00:00,2.2441301345825195,E6_geofence_mission_impact,baseline_warmup,0,37.5665,126.978,20.0,0.0,,,,,,,3,12,37.5665,126.978,20.0,,,,0.0,0.0,STATUSTEXT,EKF3 IMU1 tilt alignment complete,STABILIZE,0,0,0
2026-07-06T16:44:23.030180+00:00,2.3189306259155273,E6_geofence_mission_impact,baseline_warmup,0,37.5665,126.978,20.0,0.0,,,,,,,3,12,37.5665,126.978,20.0,,,,0.0,0.0,STATUSTEXT,EKF3 IMU1 MAG0 initial yaw alignment complete,STABILIZE,0,0,0
2026-07-06T16:44:23.038501+00:00,2.327253818511963,E6_geofence_mission_impact,baseline_warmup,0,37.5665,126.978,20.0,0.0,,,,,,,3,12,37.5665,126.978,20.0,,,,0.0,0.0,STATUSTEXT,EKF3 IMU0 MAG0 initial yaw alignment complete,STABILIZE,0,0,0
2026-07-06T16:44:23.105969+00:00,2.3947243690490723,E6_geofence_mission_impact,baseline_warmup,0,37.5665,126.978,20.0,0.0,,,,,,,3,12,37.5665,126.978,20.0,,,,0.0,0.0,HEARTBEAT,EKF3 IMU0 MAG0 initial yaw alignment complete,STABILIZE,0,0,0
2026-07-06T16:44:23.106194+00:00,2.394932270050049,E6_geofence_mission_impact,baseline_warmup,0,37.5665,126.978,20.0,0.0,37.5665,126.978,20.0,0.0,0.0,0,3,12,37.5665,126.978,20.0,0.0,0.0,0.14,0.0,0.0,GLOBAL_POSITION_INT,EKF3 IMU0 MAG0 initial yaw alignment complete,STABILIZE,0,0,0
2026-07-06T16:44:23.106704+00:00,2.3954415321350098,E6_geofence_mission_impact,baseline_warmup,0,37.5665,126.978,20.0,0.0,,,,,,,3,12,37.5665,126.978,20.0,,,,0.0,0.0,GPS_RAW_INT,EKF3 IMU0 MAG0 initial yaw alignment complete,STABILIZE,0,0,0
2026-07-06T16:44:23.106781+00:00,2.395514488220215,E6_geofence_mission_impact,baseline_warmup,0,37.5665,126.978,20.0,0.0,,,,,,,3,12,37.5665,126.978,20.0,,,,0.0,0.0,FENCE_STATUS,EKF3 IMU0 MAG0 initial yaw alignment complete,STABILIZE,0,0,0
2026-07-06T16:44:23.311292+00:00,2.6000447273254395,E6_geofence_mission_impact,baseline_warmup,0,37.5665,126.978,20.0,0.0,,,,,,,3,12,37.5665,126.978,20.0,,,,0.0,0.0,HEARTBEAT,EKF3 IMU0 MAG0 initial yaw alignment complete,STABILIZE,0,0,0
2026-07-06T16:44:23.311448+00:00,2.600177526473999,E6_geofence_mission_impact,baseline_warmup,0,37.5665,126.978,20.0,0.0,37.5665,126.978,20.0,0.0,0.0,0,3,12,37.5665,126.978,20.0,0.0,0.0,0.12,0.0,0.0,GLOBAL_POSITION_INT,EKF3 IMU0 MAG0 initial yaw alignment complete,STABILIZE,0,0,0
2026-07-06T16:44:23.311762+00:00,2.6004908084869385,E6_geofence_mission_impact,baseline_warmup,0,37.5665,126.978,20.0,0.0,,,,,,,3,12,37.5665,126.978,20.0,,,,0.0,0.0,GPS_RAW_INT,EKF3 IMU0 MAG0 initial yaw alignment complete,STABILIZE,0,0,0
2026-07-06T16:44:23.311800+00:00,2.600527763366699,E6_geofence_mission_impact,baseline_warmup,0,37.5665,126.978,20.0,0.0,,,,,,,3,12,37.5665,126.978,20.0,,,,0.0,0.0,FENCE_STATUS,EKF3 IMU0 MAG0 initial yaw alignment complete,STABILIZE,0,0,0
2026-07-06T16:44:23.516491+00:00,2.8052444458007812,E6_geofence_mission_impact,baseline_warmup,0,37.5665,126.978,20.0,0.0,,,,,,,3,12,37.5665,126.978,20.0,,,,0.0,0.0,HEARTBEAT,EKF3 IMU0 MAG0 initial yaw alignment complete,STABILIZE,0,0,0
2026-07-06T16:44:23.516649+00:00,2.8053793907165527,E6_geofence_mission_impact,baseline_warmup,0,37.5665,126.978,20.0,0.0,37.5665,126.978,20.0,0.0,0.0,0,3,12,37.5665,126.978,20.0,0.0,0.0,0.09,0.0,0.0,GLOBAL_POSITION_INT,EKF3 IMU0 MAG0 initial yaw alignment complete,STABILIZE,0,0,0
2026-07-06T16:44:23.517021+00:00,2.8057568073272705,E6_geofence_mission_impact,baseline_warmup,0,37.5665,126.978,20.0,0.0,,,,,,,3,12,37.5665,126.978,20.0,,,,0.0,0.0,GPS_RAW_INT,EKF3 IMU0 MAG0 initial yaw alignment complete,STABILIZE,0,0,0
2026-07-06T16:44:23.517078+00:00,2.8058056831359863,E6_geofence_mission_impact,baseline_warmup,0,37.5665,126.978,20.0,0.0,,,,,,,3,12,37.5665,126.978,20.0,,,,0.0,0.0,FENCE_STATUS,EKF3 IMU0 MAG0 initial yaw alignment complete,STABILIZE,0,0,0
2026-07-06T16:44:23.717439+00:00,3.0061888694763184,E6_geofence_mission_impact,baseline_warmup,0,37.5665,126.978,20.0,0.0,,,,,,,3,12,37.5665,126.978,20.0,,,,0.0,0.0,HEARTBEAT,EKF3 IMU0 MAG0 initial yaw alignment complete,STABILIZE,0,0,0
2026-07-06T16:44:23.717582+00:00,3.006312131881714,E6_geofence_mission_impact,baseline_warmup,0,37.5665,126.978,20.0,0.0,37.5665,126.978,20.0,0.0,0.0,0,3,12,37.5665,126.978,20.0,0.0,0.0,0.08,0.0,0.0,GLOBAL_POSITION_INT,EKF3 IMU0 MAG0 initial yaw alignment complete,STABILIZE,0,0,0
2026-07-06T16:44:23.717984+00:00,3.0067191123962402,E6_geofence_mission_impact,baseline_warmup,0,37.5665,126.978,20.0,0.0,,,,,,,3,12,37.5665,126.978,20.0,,,,0.0,0.0,GPS_RAW_INT,EKF3 IMU0 MAG0 initial yaw alignment complete,STABILIZE,0,0,0
2026-07-06T16:44:23.718030+00:00,3.00675892829895,E6_geofence_mission_impact,baseline_warmup,0,37.5665,126.978,20.0,0.0,,,,,,,3,12,37.5665,126.978,20.0,,,,0.0,0.0,FENCE_STATUS,EKF3 IMU0 MAG0 initial yaw alignment complete,STABILIZE,0,0,0
2026-07-06T16:44:23.912120+00:00,3.2008748054504395,E6_geofence_mission_impact,baseline_warmup,0,37.5665,126.978,20.0,0.0,,,,,,,3,12,37.5665,126.978,20.0,,,,0.0,0.0,HEARTBEAT,EKF3 IMU0 MAG0 initial yaw alignment complete,STABILIZE,0,0,0
2026-07-06T16:44:23.912296+00:00,3.2010338306427,E6_geofence_mission_impact,baseline_warmup,0,37.5665,126.978,20.0,0.0,37.5665,126.978,20.0,0.0,0.0,0,3,12,37.5665,126.978,20.0,0.0,0.0,0.06,0.0,0.0,GLOBAL_POSITION_INT,EKF3 IMU0 MAG0 initial yaw alignment complete,STABILIZE,0,0,0
2026-07-06T16:44:23.912661+00:00,3.2013938426971436,E6_geofence_mission_impact,baseline_warmup,0,37.5665,126.978,20.0,0.0,,,,,,,3,12,37.5665,126.978,20.0,,,,0.0,0.0,GPS_RAW_INT,EKF3 IMU0 MAG0 initial yaw alignment complete,STABILIZE,0,0,0
2026-07-06T16:44:23.912706+00:00,3.2014338970184326,E6_geofence_mission_impact,baseline_warmup,0,37.5665,126.978,20.0,0.0,,,,,,,3,12,37.5665,126.978,20.0,,,,0.0,0.0,FENCE_STATUS,EKF3 IMU0 MAG0 initial yaw alignment complete,STABILIZE,0,0,0
2026-07-06T16:44:24.110546+00:00,3.3993022441864014,E6_geofence_mission_impact,baseline_warmup,0,37.5665,126.978,20.0,0.0,,,,,,,3,12,37.5665,126.978,20.0,,,,0.0,0.0,HEARTBEAT,EKF3 IMU0 MAG0 initial yaw alignment complete,STABILIZE,0,0,0
2026-07-06T16:44:24.110724+00:00,3.3994557857513428,E6_geofence_mission_impact,baseline_warmup,0,37.5665,126.978,20.0,0.0,37.5665,126.978,20.0,0.0,0.0,0,3,12,37.5665,126.978,20.0,0.0,0.0,0.04,0.0,0.0,GLOBAL_POSITION_INT,EKF3 IMU0 MAG0 initial yaw alignment complete,STABILIZE,0,0,0
2026-07-06T16:44:24.111107+00:00,3.399845600128174,E6_geofence_mission_impact,baseline_warmup,0,37.5665,126.978,20.0,0.0,,,,,,,3,12,37.5665,126.978,20.0,,,,0.0,0.0,GPS_RAW_INT,EKF3 IMU0 MAG0 initial yaw alignment complete,STABILIZE,0,0,0
2026-07-06T16:44:24.111160+00:00,3.399887800216675,E6_geofence_mission_impact,baseline_warmup,0,37.5665,126.978,20.0,0.0,,,,,,,3,12,37.5665,126.978,20.0,,,,0.0,0.0,FENCE_STATUS,EKF3 IMU0 MAG0 initial yaw alignment complete,STABILIZE,0,0,0
2026-07-06T16:44:24.304636+00:00,3.593392848968506,E6_geofence_mission_impact,baseline_warmup,0,37.5665,126.978,20.0,0.0,,,,,,,3,12,37.5665,126.978,20.0,,,,0.0,0.0,HEARTBEAT,EKF3 IMU0 MAG0 initial yaw alignment complete,STABILIZE,0,0,0
2026-07-06T16:44:24.304809+00:00,3.5935468673706055,E6_geofence_mission_impact,baseline_warmup,0,37.5665,126.978,20.0,0.0,37.5665,126.978,20.0,0.0,0.0,0,3,12,37.5665,126.978,20.0,0.0,0.0,0.03,0.0,0.0,GLOBAL_POSITION_INT,EKF3 IMU0 MAG0 initial yaw alignment complete,STABILIZE,0,0,0
2026-07-06T16:44:24.305190+00:00,3.5939218997955322,E6_geofence_mission_impact,baseline_warmup,0,37.5665,126.978,20.0,0.0,,,,,,,3,12,37.5665,126.978,20.0,,,,0.0,0.0,GPS_RAW_INT,EKF3 IMU0 MAG0 initial yaw alignment complete,STABILIZE,0,0,0
2026-07-06T16:44:24.305239+00:00,3.5939667224884033,E6_geofence_mission_impact,baseline_warmup,0,37.5665,126.978,20.0,0.0,,,,,,,3,12,37.5665,126.978,20.0,,,,0.0,0.0,FENCE_STATUS,EKF3 IMU0 MAG0 initial yaw alignment complete,STABILIZE,0,0,0
2026-07-06T16:44:24.506455+00:00,3.7952089309692383,E6_geofence_mission_impact,baseline_warmup,0,37.5665,126.978,20.0,0.0,,,,,,,3,12,37.5665,126.978,20.0,,,,0.0,0.0,HEARTBEAT,EKF3 IMU0 MAG0 initial yaw alignment complete,STABILIZE,0,0,0
2026-07-06T16:44:24.506621+00:00,3.7953548431396484,E6_geofence_mission_impact,baseline_warmup,0,37.5665,126.978,20.0,0.0,37.5665,126.978,20.0,0.0,0.0,0,3,12,37.5665,126.978,20.0,0.0,0.0,0.02,0.0,0.0,GLOBAL_POSITION_INT,EKF3 IMU0 MAG0 initial yaw alignment complete,STABILIZE,0,0,0
2026-07-06T16:44:24.506946+00:00,3.7956783771514893,E6_geofence_mission_impact,baseline_warmup,0,37.5665,126.978,20.0,0.0,,,,,,,3,12,37.5665,126.978,20.0,,,,0.0,0.0,GPS_RAW_INT,EKF3 IMU0 MAG0 initial yaw alignment complete,STABILIZE,0,0,0
2026-07-06T16:44:24.506990+00:00,3.795717239379883,E6_geofence_mission_impact,baseline_warmup,0,37.5665,126.978,20.0,0.0,,,,,,,3,12,37.5665,126.978,20.0,,,,0.0,0.0,FENCE_STATUS,EKF3 IMU0 MAG0 initial yaw alignment complete,STABILIZE,0,0,0
2026-07-06T16:44:24.708136+00:00,3.9968903064727783,E6_geofence_mission_impact,baseline_warmup,0,37.5665,126.978,20.0,0.0,,,,,,,3,12,37.5665,126.978,20.0,,,,0.0,0.0,HEARTBEAT,EKF3 IMU0 MAG0 initial yaw alignment complete,STABILIZE,0,0,0
2026-07-06T16:44:24.708329+00:00,3.9970648288726807,E6_geofence_mission_impact,baseline_warmup,0,37.5665,126.978,20.0,0.0,37.5665,126.978,20.0,0.0,0.0,0,3,12,37.5665,126.978,20.0,0.0,0.0,0.01,0.0,0.0,GLOBAL_POSITION_INT,EKF3 IMU0 MAG0 initial yaw alignment complete,STABILIZE,0,0,0
2026-07-06T16:44:24.708689+00:00,3.997420310974121,E6_geofence_mission_impact,baseline_warmup,0,37.5665,126.978,20.0,0.0,,,,,,,3,12,37.5665,126.978,20.0,,,,0.0,0.0,GPS_RAW_INT,EKF3 IMU0 MAG0 initial yaw alignment complete,STABILIZE,0,0,0
2026-07-06T16:44:24.708740+00:00,3.9974687099456787,E6_geofence_mission_impact,baseline_warmup,0,37.5665,126.978,20.0,0.0,,,,,,,3,12,37.5665,126.978,20.0,,,,0.0,0.0,FENCE_STATUS,EKF3 IMU0 MAG0 initial yaw alignment complete,STABILIZE,0,0,0
2026-07-06T16:44:24.906473+00:00,4.195226430892944,E6_geofence_mission_impact,baseline_warmup,0,37.5665,126.978,20.0,0.0,,,,,,,3,12,37.5665,126.978,20.0,,,,0.0,0.0,HEARTBEAT,EKF3 IMU0 MAG0 initial yaw alignment complete,STABILIZE,0,0,0
2026-07-06T16:44:24.906633+00:00,4.195364475250244,E6_geofence_mission_impact,baseline_warmup,0,37.5665,126.978,20.0,0.0,37.5665,126.978,20.0,0.0,0.0,0,3,12,37.5665,126.978,20.0,0.0,0.0,0.0,0.0,0.0,GLOBAL_POSITION_INT,EKF3 IMU0 MAG0 initial yaw alignment complete,STABILIZE,0,0,0
2026-07-06T16:44:24.906981+00:00,4.195713043212891,E6_geofence_mission_impact,baseline_warmup,0,37.5665,126.978,20.0,0.0,,,,,,,3,12,37.5665,126.978,20.0,,,,0.0,0.0,GPS_RAW_INT,EKF3 IMU0 MAG0 initial yaw alignment complete,STABILIZE,0,0,0
2026-07-06T16:44:24.907027+00:00,4.1957550048828125,E6_geofence_mission_impact,baseline_warmup,0,37.5665,126.978,20.0,0.0,,,,,,,3,12,37.5665,126.978,20.0,,,,0.0,0.0,FENCE_STATUS,EKF3 IMU0 MAG0 initial yaw alignment complete,STABILIZE,0,0,0
2026-07-06T16:44:25.115024+00:00,4.4037792682647705,E6_geofence_mission_impact,baseline_warmup,0,37.5665,126.978,20.0,0.0,,,,,,,3,12,37.5665,126.978,20.0,,,,0.0,0.0,HEARTBEAT,EKF3 IMU0 MAG0 initial yaw alignment complete,STABILIZE,0,0,0
2026-07-06T16:44:25.115181+00:00,4.403909921646118,E6_geofence_mission_impact,baseline_warmup,0,37.5665,126.978,20.0,0.0,37.5665,126.978,20.0,0.0,0.0,0,3,12,37.5665,126.978,20.0,0.0,0.0,0.0,0.0,0.0,GLOBAL_POSITION_INT,EKF3 IMU0 MAG0 initial yaw alignment complete,STABILIZE,0,0,0
2026-07-06T16:44:25.115547+00:00,4.404284954071045,E6_geofence_mission_impact,baseline_warmup,0,37.5665,126.978,20.0,0.0,,,,,,,3,12,37.5665,126.978,20.0,,,,0.0,0.0,GPS_RAW_INT,EKF3 IMU0 MAG0 initial yaw alignment complete,STABILIZE,0,0,0
2026-07-06T16:44:25.115721+00:00,4.404452562332153,E6_geofence_mission_impact,baseline_warmup,0,37.5665,126.978,20.0,0.0,,,,,,,3,12,37.5665,126.978,20.0,,,,0.0,0.0,FENCE_STATUS,EKF3 IMU0 MAG0 initial yaw alignment complete,STABILIZE,0,0,0
2026-07-06T16:44:25.317174+00:00,4.605931997299194,E6_geofence_mission_impact,baseline_warmup,0,37.5665,126.978,20.0,0.0,,,,,,,3,12,37.5665,126.978,20.0,,,,0.0,0.0,HEARTBEAT,EKF3 IMU0 MAG0 initial yaw alignment complete,STABILIZE,0,0,0
2026-07-06T16:44:25.318231+00:00,4.6069746017456055,E6_geofence_mission_impact,baseline_warmup,0,37.5665,126.978,20.0,0.0,37.5665,126.978,20.0,0.0,0.0,0,3,12,37.5665,126.978,20.0,0.0,0.0,-0.01,0.0,0.0,GLOBAL_POSITION_INT,EKF3 IMU0 MAG0 initial yaw alignment complete,STABILIZE,0,0,0
2026-07-06T16:44:25.320400+00:00,4.609143972396851,E6_geofence_mission_impact,baseline_warmup,0,37.5665,126.978,20.0,0.0,,,,,,,3,12,37.5665,126.978,20.0,,,,0.0,0.0,GPS_RAW_INT,EKF3 IMU0 MAG0 initial yaw alignment complete,STABILIZE,0,0,0
2026-07-06T16:44:25.320462+00:00,4.609190225601196,E6_geofence_mission_impact,baseline_warmup,0,37.5665,126.978,20.0,0.0,,,,,,,3,12,37.5665,126.978,20.0,,,,0.0,0.0,FENCE_STATUS,EKF3 IMU0 MAG0 initial yaw alignment complete,STABILIZE,0,0,0
2026-07-06T16:44:25.508602+00:00,4.797355651855469,E6_geofence_mission_impact,baseline_warmup,0,37.5665,126.978,20.0,0.0,,,,,,,3,12,37.5665,126.978,20.0,,,,0.0,0.0,HEARTBEAT,EKF3 IMU0 MAG0 initial yaw alignment complete,STABILIZE,0,0,0
2026-07-06T16:44:25.508806+00:00,4.797542095184326,E6_geofence_mission_impact,baseline_warmup,0,37.5665,126.978,20.0,0.0,37.5665,126.978,20.0,0.0,0.0,0,3,12,37.5665,126.978,20.0,0.0,0.0,-0.02,0.0,0.0,GLOBAL_POSITION_INT,EKF3 IMU0 MAG0 initial yaw alignment complete,STABILIZE,0,0,0
2026-07-06T16:44:25.509159+00:00,4.797890663146973,E6_geofence_mission_impact,baseline_warmup,0,37.5665,126.978,20.0,0.0,,,,,,,3,12,37.5665,126.978,20.0,,,,0.0,0.0,GPS_RAW_INT,EKF3 IMU0 MAG0 initial yaw alignment complete,STABILIZE,0,0,0
2026-07-06T16:44:25.509205+00:00,4.7979326248168945,E6_geofence_mission_impact,baseline_warmup,0,37.5665,126.978,20.0,0.0,,,,,,,3,12,37.5665,126.978,20.0,,,,0.0,0.0,FENCE_STATUS,EKF3 IMU0 MAG0 initial yaw alignment complete,STABILIZE,0,0,0
2026-07-06T16:44:25.714322+00:00,5.003074884414673,E6_geofence_mission_impact,baseline_warmup,0,37.5665,126.978,20.0,0.0,,,,,,,3,12,37.5665,126.978,20.0,,,,0.0,0.0,HEARTBEAT,EKF3 IMU0 MAG0 initial yaw alignment complete,STABILIZE,0,0,0
2026-07-06T16:44:25.714483+00:00,5.003213882446289,E6_geofence_mission_impact,baseline_warmup,0,37.5665,126.978,20.0,0.0,37.5665,126.978,20.0,0.0,0.0,0,3,12,37.5665,126.978,20.0,0.0,0.0,-0.02,0.0,0.0,GLOBAL_POSITION_INT,EKF3 IMU0 MAG0 initial yaw alignment complete,STABILIZE,0,0,0
2026-07-06T16:44:25.714830+00:00,5.003561496734619,E6_geofence_mission_impact,baseline_warmup,0,37.5665,126.978,20.0,0.0,,,,,,,3,12,37.5665,126.978,20.0,,,,0.0,0.0,GPS_RAW_INT,EKF3 IMU0 MAG0 initial yaw alignment complete,STABILIZE,0,0,0
2026-07-06T16:44:25.714877+00:00,5.0036046504974365,E6_geofence_mission_impact,baseline_warmup,0,37.5665,126.978,20.0,0.0,,,,,,,3,12,37.5665,126.978,20.0,,,,0.0,0.0,FENCE_STATUS,EKF3 IMU0 MAG0 initial yaw alignment complete,STABILIZE,0,0,0
2026-07-06T16:44:25.917235+00:00,5.205989599227905,E6_geofence_mission_impact,baseline_warmup,0,37.5665,126.978,20.0,0.0,,,,,,,3,12,37.5665,126.978,20.0,,,,0.0,0.0,HEARTBEAT,EKF3 IMU0 MAG0 initial yaw alignment complete,STABILIZE,0,0,0
2026-07-06T16:44:25.917466+00:00,5.2062036991119385,E6_geofence_mission_impact,baseline_warmup,0,37.5665,126.978,20.0,0.0,37.5665,126.978,20.0,0.0,0.0,0,3,12,37.5665,126.978,20.0,0.0,0.0,-0.03,0.0,0.0,GLOBAL_POSITION_INT,EKF3 IMU0 MAG0 initial yaw alignment complete,STABILIZE,0,0,0
2026-07-06T16:44:25.917855+00:00,5.206587314605713,E6_geofence_mission_impact,baseline_warmup,0,37.5665,126.978,20.0,0.0,,,,,,,3,12,37.5665,126.978,20.0,,,,0.0,0.0,GPS_RAW_INT,EKF3 IMU0 MAG0 initial yaw alignment complete,STABILIZE,0,0,0
2026-07-06T16:44:25.917903+00:00,5.206631183624268,E6_geofence_mission_impact,baseline_warmup,0,37.5665,126.978,20.0,0.0,,,,,,,3,12,37.5665,126.978,20.0,,,,0.0,0.0,FENCE_STATUS,EKF3 IMU0 MAG0 initial yaw alignment complete,STABILIZE,0,0,0
2026-07-06T16:44:26.108337+00:00,5.3970911502838135,E6_geofence_mission_impact,baseline_warmup,0,37.5665,126.978,20.0,0.0,,,,,,,3,12,37.5665,126.978,20.0,,,,0.0,0.0,HEARTBEAT,EKF3 IMU0 MAG0 initial yaw alignment complete,STABILIZE,0,0,0
2026-07-06T16:44:26.108484+00:00,5.397212266921997,E6_geofence_mission_impact,baseline_warmup,0,37.5665,126.978,20.0,0.0,37.5665,126.978,20.0,0.0,0.0,0,3,12,37.5665,126.978,20.0,0.0,0.0,-0.03,0.0,0.0,GLOBAL_POSITION_INT,EKF3 IMU0 MAG0 initial yaw alignment complete,STABILIZE,0,0,0
2026-07-06T16:44:26.111649+00:00,5.400394439697266,E6_geofence_mission_impact,baseline_warmup,0,37.5665,126.978,20.0,0.0,,,,,,,3,12,37.5665,126.978,20.0,,,,0.0,0.0,GPS_RAW_INT,EKF3 IMU0 MAG0 initial yaw alignment complete,STABILIZE,0,0,0
2026-07-06T16:44:26.111720+00:00,5.400447845458984,E6_geofence_mission_impact,baseline_warmup,0,37.5665,126.978,20.0,0.0,,,,,,,3,12,37.5665,126.978,20.0,,,,0.0,0.0,FENCE_STATUS,EKF3 IMU0 MAG0 initial yaw alignment complete,STABILIZE,0,0,0
2026-07-06T16:44:26.314958+00:00,5.6037116050720215,E6_geofence_mission_impact,baseline,0,37.5665,126.978,20.0,0.0,,,,,,,3,12,37.5665,126.978,20.0,,,,0.0,0.0,HEARTBEAT,EKF3 IMU0 MAG0 initial yaw alignment complete,STABILIZE,0,0,0
2026-07-06T16:44:26.315128+00:00,5.603860139846802,E6_geofence_mission_impact,baseline,0,37.5665,126.978,20.0,0.0,37.5665,126.978,20.0,0.0,0.0,0,3,12,37.5665,126.978,20.0,0.0,0.0,-0.03,0.0,0.0,GLOBAL_POSITION_INT,EKF3 IMU0 MAG0 initial yaw alignment complete,STABILIZE,0,0,0
2026-07-06T16:44:26.315523+00:00,5.604259252548218,E6_geofence_mission_impact,baseline,0,37.5665,126.978,20.0,0.0,,,,,,,3,12,37.5665,126.978,20.0,,,,0.0,0.0,GPS_RAW_INT,EKF3 IMU0 MAG0 initial yaw alignment complete,STABILIZE,0,0,0
2026-07-06T16:44:26.315606+00:00,5.604335784912109,E6_geofence_mission_impact,baseline,0,37.5665,126.978,20.0,0.0,,,,,,,3,12,37.5665,126.978,20.0,,,,0.0,0.0,FENCE_STATUS,EKF3 IMU0 MAG0 initial yaw alignment complete,STABILIZE,0,0,0
2026-07-06T16:44:26.519562+00:00,5.8083176612854,E6_geofence_mission_impact,baseline,0,37.5665,126.978,20.0,0.0,,,,,,,3,12,37.5665,126.978,20.0,,,,0.0,0.0,HEARTBEAT,EKF3 IMU0 MAG0 initial yaw alignment complete,STABILIZE,0,0,0
2026-07-06T16:44:26.519721+00:00,5.80845046043396,E6_geofence_mission_impact,baseline,0,37.5665,126.978,20.0,0.0,37.5665,126.978,20.0,0.0,0.0,0,3,12,37.5665,126.978,20.0,0.0,0.0,-0.04,0.0,0.0,GLOBAL_POSITION_INT,EKF3 IMU0 MAG0 initial yaw alignment complete,STABILIZE,0,0,0
2026-07-06T16:44:26.520046+00:00,5.808778524398804,E6_geofence_mission_impact,baseline,0,37.5665,126.978,20.0,0.0,,,,,,,3,12,37.5665,126.978,20.0,,,,0.0,0.0,GPS_RAW_INT,EKF3 IMU0 MAG0 initial yaw alignment complete,STABILIZE,0,0,0
2026-07-06T16:44:26.520090+00:00,5.808818578720093,E6_geofence_mission_impact,baseline,0,37.5665,126.978,20.0,0.0,,,,,,,3,12,37.5665,126.978,20.0,,,,0.0,0.0,FENCE_STATUS,EKF3 IMU0 MAG0 initial yaw alignment complete,STABILIZE,0,0,0
2026-07-06T16:44:26.721901+00:00,6.0106542110443115,E6_geofence_mission_impact,baseline,0,37.5665,126.978,20.0,0.0,,,,,,,3,12,37.5665,126.978,20.0,,,,0.0,0.0,HEARTBEAT,EKF3 IMU0 MAG0 initial yaw alignment complete,STABILIZE,0,0,0
2026-07-06T16:44:26.722064+00:00,6.0107948780059814,E6_geofence_mission_impact,baseline,0,37.5665,126.978,20.0,0.0,37.5665,126.978,20.0,0.0,0.0,0,3,12,37.5665,126.978,20.0,0.0,0.0,-0.04,0.0,0.0,GLOBAL_POSITION_INT,EKF3 IMU0 MAG0 initial yaw alignment complete,STABILIZE,0,0,0
2026-07-06T16:44:26.722391+00:00,6.011122703552246,E6_geofence_mission_impact,baseline,0,37.5665,126.978,20.0,0.0,,,,,,,3,12,37.5665,126.978,20.0,,,,0.0,0.0,GPS_RAW_INT,EKF3 IMU0 MAG0 initial yaw alignment complete,STABILIZE,0,0,0
2026-07-06T16:44:26.722430+00:00,6.011157274246216,E6_geofence_mission_impact,baseline,0,37.5665,126.978,20.0,0.0,,,,,,,3,12,37.5665,126.978,20.0,,,,0.0,0.0,FENCE_STATUS,EKF3 IMU0 MAG0 initial yaw alignment complete,STABILIZE,0,0,0
2026-07-06T16:44:26.906007+00:00,6.194757699966431,E6_geofence_mission_impact,baseline,0,37.5665,126.978,20.0,0.0,,,,,,,3,12,37.5665,126.978,20.0,,,,0.0,0.0,HEARTBEAT,EKF3 IMU0 MAG0 initial yaw alignment complete,STABILIZE,0,0,0
2026-07-06T16:44:26.906215+00:00,6.19495153427124,E6_geofence_mission_impact,baseline,0,37.5665,126.978,20.0,0.0,37.5665,126.978,20.0,0.0,0.0,0,3,12,37.5665,126.978,20.0,0.0,0.0,-0.04,0.0,0.0,GLOBAL_POSITION_INT,EKF3 IMU0 MAG0 initial yaw alignment complete,STABILIZE,0,0,0
2026-07-06T16:44:26.906611+00:00,6.1953465938568115,E6_geofence_mission_impact,baseline,0,37.5665,126.978,20.0,0.0,,,,,,,3,12,37.5665,126.978,20.0,,,,0.0,0.0,GPS_RAW_INT,EKF3 IMU0 MAG0 initial yaw alignment complete,STABILIZE,0,0,0
2026-07-06T16:44:26.906659+00:00,6.195387601852417,E6_geofence_mission_impact,baseline,0,37.5665,126.978,20.0,0.0,,,,,,,3,12,37.5665,126.978,20.0,,,,0.0,0.0,FENCE_STATUS,EKF3 IMU0 MAG0 initial yaw alignment complete,STABILIZE,0,0,0
2026-07-06T16:44:27.107919+00:00,6.396671533584595,E6_geofence_mission_impact,baseline,0,37.5665,126.978,20.0,0.0,,,,,,,3,12,37.5665,126.978,20.0,,,,0.0,0.0,HEARTBEAT,EKF3 IMU0 MAG0 initial yaw alignment complete,STABILIZE,0,0,0
2026-07-06T16:44:27.108082+00:00,6.396812915802002,E6_geofence_mission_impact,baseline,0,37.5665,126.978,20.0,0.0,37.5665,126.978,20.0,0.0,0.0,0,3,12,37.5665,126.978,20.0,0.0,0.0,-0.04,0.0,0.0,GLOBAL_POSITION_INT,EKF3 IMU0 MAG0 initial yaw alignment complete,STABILIZE,0,0,0
2026-07-06T16:44:27.108510+00:00,6.3972461223602295,E6_geofence_mission_impact,baseline,0,37.5665,126.978,20.0,0.0,,,,,,,3,12,37.5665,126.978,20.0,,,,0.0,0.0,GPS_RAW_INT,EKF3 IMU0 MAG0 initial yaw alignment complete,STABILIZE,0,0,0
2026-07-06T16:44:27.108567+00:00,6.3972954750061035,E6_geofence_mission_impact,baseline,0,37.5665,126.978,20.0,0.0,,,,,,,3,12,37.5665,126.978,20.0,,,,0.0,0.0,FENCE_STATUS,EKF3 IMU0 MAG0 initial yaw alignment complete,STABILIZE,0,0,0
2026-07-06T16:44:27.313007+00:00,6.601760387420654,E6_geofence_mission_impact,baseline,0,37.5665,126.978,20.0,0.0,,,,,,,3,12,37.5665,126.978,20.0,,,,0.0,0.0,HEARTBEAT,EKF3 IMU0 MAG0 initial yaw alignment complete,STABILIZE,0,0,0
2026-07-06T16:44:27.313153+00:00,6.601881504058838,E6_geofence_mission_impact,baseline,0,37.5665,126.978,20.0,0.0,37.5665,126.978,20.0,0.0,0.0,0,3,12,37.5665,126.978,20.0,0.0,0.0,-0.04,0.0,0.0,GLOBAL_POSITION_INT,EKF3 IMU0 MAG0 initial yaw alignment complete,STABILIZE,0,0,0
2026-07-06T16:44:27.313475+00:00,6.6022047996521,E6_geofence_mission_impact,baseline,0,37.5665,126.978,20.0,0.0,,,,,,,3,12,37.5665,126.978,20.0,,,,0.0,0.0,GPS_RAW_INT,EKF3 IMU0 MAG0 initial yaw alignment complete,STABILIZE,0,0,0
2026-07-06T16:44:27.313546+00:00,6.602277994155884,E6_geofence_mission_impact,baseline,0,37.5665,126.978,20.0,0.0,,,,,,,3,12,37.5665,126.978,20.0,,,,0.0,0.0,FENCE_STATUS,EKF3 IMU0 MAG0 initial yaw alignment complete,STABILIZE,0,0,0
2026-07-06T16:44:27.508054+00:00,6.796807050704956,E6_geofence_mission_impact,baseline,0,37.5665,126.978,20.0,0.0,,,,,,,3,12,37.5665,126.978,20.0,,,,0.0,0.0,HEARTBEAT,EKF3 IMU0 MAG0 initial yaw alignment complete,STABILIZE,0,0,0
2026-07-06T16:44:27.508216+00:00,6.7969465255737305,E6_geofence_mission_impact,baseline,0,37.5665,126.978,20.0,0.0,37.5665,126.978,20.0,0.0,0.0,0,3,12,37.5665,126.978,20.0,0.0,0.0,-0.04,0.0,0.0,GLOBAL_POSITION_INT,EKF3 IMU0 MAG0 initial yaw alignment complete,STABILIZE,0,0,0
2026-07-06T16:44:27.508541+00:00,6.797273874282837,E6_geofence_mission_impact,baseline,0,37.5665,126.978,20.0,0.0,,,,,,,3,12,37.5665,126.978,20.0,,,,0.0,0.0,GPS_RAW_INT,EKF3 IMU0 MAG0 initial yaw alignment complete,STABILIZE,0,0,0
2026-07-06T16:44:27.508583+00:00,6.797311544418335,E6_geofence_mission_impact,baseline,0,37.5665,126.978,20.0,0.0,,,,,,,3,12,37.5665,126.978,20.0,,,,0.0,0.0,FENCE_STATUS,EKF3 IMU0 MAG0 initial yaw alignment complete,STABILIZE,0,0,0
2026-07-06T16:44:27.708866+00:00,6.997633934020996,E6_geofence_mission_impact,baseline,0,37.5665,126.978,20.0,0.0,,,,,,,3,12,37.5665,126.978,20.0,,,,0.0,0.0,HEARTBEAT,EKF3 IMU0 MAG0 initial yaw alignment complete,STABILIZE,0,0,0
2026-07-06T16:44:27.709062+00:00,6.997793197631836,E6_geofence_mission_impact,baseline,0,37.5665,126.978,20.0,0.0,37.5665,126.978,20.0,0.0,0.0,0,3,12,37.5665,126.978,20.0,0.0,0.0,-0.04,0.0,0.0,GLOBAL_POSITION_INT,EKF3 IMU0 MAG0 initial yaw alignment complete,STABILIZE,0,0,0
2026-07-06T16:44:27.709421+00:00,6.998152017593384,E6_geofence_mission_impact,baseline,0,37.5665,126.978,20.0,0.0,,,,,,,3,12,37.5665,126.978,20.0,,,,0.0,0.0,GPS_RAW_INT,EKF3 IMU0 MAG0 initial yaw alignment complete,STABILIZE,0,0,0
2026-07-06T16:44:27.709466+00:00,6.998193740844727,E6_geofence_mission_impact,baseline,0,37.5665,126.978,20.0,0.0,,,,,,,3,12,37.5665,126.978,20.0,,,,0.0,0.0,FENCE_STATUS,EKF3 IMU0 MAG0 initial yaw alignment complete,STABILIZE,0,0,0
2026-07-06T16:44:26.698398+00:00,5.987149477005005,E6_geofence_mission_impact,baseline,0,37.5665,126.978,20.0,0.0,,,,,,,3,12,37.5665,126.978,20.0,,,,0.0,0.0,HEARTBEAT,EKF3 IMU0 MAG0 initial yaw alignment complete,STABILIZE,0,0,0
2026-07-06T16:44:26.698562+00:00,5.987292051315308,E6_geofence_mission_impact,baseline,0,37.5665,126.978,20.0,0.0,37.5665,126.978,20.0,0.0,0.0,0,3,12,37.5665,126.978,20.0,0.0,0.0,-0.04,0.0,0.0,GLOBAL_POSITION_INT,EKF3 IMU0 MAG0 initial yaw alignment complete,STABILIZE,0,0,0
2026-07-06T16:44:26.698906+00:00,5.987637281417847,E6_geofence_mission_impact,baseline,0,37.5665,126.978,20.0,0.0,,,,,,,3,12,37.5665,126.978,20.0,,,,0.0,0.0,GPS_RAW_INT,EKF3 IMU0 MAG0 initial yaw alignment complete,STABILIZE,0,0,0
2026-07-06T16:44:26.698950+00:00,5.987678289413452,E6_geofence_mission_impact,baseline,0,37.5665,126.978,20.0,0.0,,,,,,,3,12,37.5665,126.978,20.0,,,,0.0,0.0,FENCE_STATUS,EKF3 IMU0 MAG0 initial yaw alignment complete,STABILIZE,0,0,0
2026-07-06T16:44:26.899273+00:00,6.188023805618286,E6_geofence_mission_impact,baseline,0,37.5665,126.978,20.0,0.0,,,,,,,3,12,37.5665,126.978,20.0,,,,0.0,0.0,HEARTBEAT,EKF3 IMU0 MAG0 initial yaw alignment complete,STABILIZE,0,0,0
2026-07-06T16:44:26.899432+00:00,6.188162565231323,E6_geofence_mission_impact,baseline,0,37.5665,126.978,20.0,0.0,37.5665,126.978,20.0,0.0,0.0,0,3,12,37.5665,126.978,20.0,0.0,0.0,-0.04,0.0,0.0,GLOBAL_POSITION_INT,EKF3 IMU0 MAG0 initial yaw alignment complete,STABILIZE,0,0,0
2026-07-06T16:44:26.922662+00:00,6.211417198181152,E6_geofence_mission_impact,baseline,0,37.5665,126.978,20.0,0.0,,,,,,,3,12,37.5665,126.978,20.0,,,,0.0,0.0,GPS_RAW_INT,EKF3 IMU0 MAG0 initial yaw alignment complete,STABILIZE,0,0,0
2026-07-06T16:44:26.922799+00:00,6.211528539657593,E6_geofence_mission_impact,baseline,0,37.5665,126.978,20.0,0.0,,,,,,,3,12,37.5665,126.978,20.0,,,,0.0,0.0,FENCE_STATUS,EKF3 IMU0 MAG0 initial yaw alignment complete,STABILIZE,0,0,0
2026-07-06T16:44:27.099766+00:00,6.388520002365112,E6_geofence_mission_impact,baseline,0,37.5665,126.978,20.0,0.0,,,,,,,3,12,37.5665,126.978,20.0,,,,0.0,0.0,HEARTBEAT,EKF3 IMU0 MAG0 initial yaw alignment complete,STABILIZE,0,0,0
2026-07-06T16:44:27.099928+00:00,6.388657331466675,E6_geofence_mission_impact,baseline,0,37.5665,126.978,20.0,0.0,37.5665,126.978,20.0,0.0,0.0,0,3,12,37.5665,126.978,20.0,0.0,0.0,-0.03,0.0,0.0,GLOBAL_POSITION_INT,EKF3 IMU0 MAG0 initial yaw alignment complete,STABILIZE,0,0,0
2026-07-06T16:44:27.103088+00:00,6.391838073730469,E6_geofence_mission_impact,baseline,0,37.5665,126.978,20.0,0.0,,,,,,,3,12,37.5665,126.978,20.0,,,,0.0,0.0,GPS_RAW_INT,EKF3 IMU0 MAG0 initial yaw alignment complete,STABILIZE,0,0,0
2026-07-06T16:44:27.103167+00:00,6.391895055770874,E6_geofence_mission_impact,baseline,0,37.5665,126.978,20.0,0.0,,,,,,,3,12,37.5665,126.978,20.0,,,,0.0,0.0,FENCE_STATUS,EKF3 IMU0 MAG0 initial yaw alignment complete,STABILIZE,0,0,0
2026-07-06T16:44:27.299126+00:00,6.587895631790161,E6_geofence_mission_impact,baseline,0,37.5665,126.978,20.0,0.0,,,,,,,3,12,37.5665,126.978,20.0,,,,0.0,0.0,HEARTBEAT,EKF3 IMU0 MAG0 initial yaw alignment complete,STABILIZE,0,0,0
2026-07-06T16:44:27.299425+00:00,6.588375806808472,E6_geofence_mission_impact,baseline,0,37.5665,126.978,20.0,0.0,37.5665,126.978,20.0,0.0,0.0,0,3,12,37.5665,126.978,20.0,0.0,0.0,-0.03,0.0,0.0,GLOBAL_POSITION_INT,EKF3 IMU0 MAG0 initial yaw alignment complete,STABILIZE,0,0,0
2026-07-06T16:44:27.321387+00:00,6.610137701034546,E6_geofence_mission_impact,baseline,0,37.5665,126.978,20.0,0.0,,,,,,,3,12,37.5665,126.978,20.0,,,,0.0,0.0,GPS_RAW_INT,EKF3 IMU0 MAG0 initial yaw alignment complete,STABILIZE,0,0,0
2026-07-06T16:44:27.321452+00:00,6.610179662704468,E6_geofence_mission_impact,baseline,0,37.5665,126.978,20.0,0.0,,,,,,,3,12,37.5665,126.978,20.0,,,,0.0,0.0,FENCE_STATUS,EKF3 IMU0 MAG0 initial yaw alignment complete,STABILIZE,0,0,0
2026-07-06T16:44:27.504074+00:00,6.793018579483032,E6_geofence_mission_impact,baseline,0,37.5665,126.978,20.0,0.0,,,,,,,3,12,37.5665,126.978,20.0,,,,0.0,0.0,HEARTBEAT,EKF3 IMU0 MAG0 initial yaw alignment complete,STABILIZE,0,0,0
2026-07-06T16:44:27.504481+00:00,6.79322075843811,E6_geofence_mission_impact,baseline,0,37.5665,126.978,20.0,0.0,37.5665,126.978,20.0,0.0,0.0,0,3,12,37.5665,126.978,20.0,0.0,0.0,-0.03,0.0,0.0,GLOBAL_POSITION_INT,EKF3 IMU0 MAG0 initial yaw alignment complete,STABILIZE,0,0,0
2026-07-06T16:44:27.518049+00:00,6.806799650192261,E6_geofence_mission_impact,baseline,0,37.5665,126.978,20.0,0.0,,,,,,,3,12,37.5665,126.978,20.0,,,,0.0,0.0,GPS_RAW_INT,EKF3 IMU0 MAG0 initial yaw alignment complete,STABILIZE,0,0,0
2026-07-06T16:44:27.518123+00:00,6.806851863861084,E6_geofence_mission_impact,baseline,0,37.5665,126.978,20.0,0.0,,,,,,,3,12,37.5665,126.978,20.0,,,,0.0,0.0,FENCE_STATUS,EKF3 IMU0 MAG0 initial yaw alignment complete,STABILIZE,0,0,0
2026-07-06T16:44:27.690262+00:00,6.979013919830322,E6_geofence_mission_impact,baseline,0,37.5665,126.978,20.0,0.0,,,,,,,3,12,37.5665,126.978,20.0,,,,0.0,0.0,HEARTBEAT,EKF3 IMU0 MAG0 initial yaw alignment complete,STABILIZE,0,0,0
2026-07-06T16:44:27.690424+00:00,6.9791576862335205,E6_geofence_mission_impact,baseline,0,37.5665,126.978,20.0,0.0,37.5665,126.978,20.0,0.0,0.0,0,3,12,37.5665,126.978,20.0,0.0,0.0,-0.03,0.0,0.0,GLOBAL_POSITION_INT,EKF3 IMU0 MAG0 initial yaw alignment complete,STABILIZE,0,0,0
2026-07-06T16:44:27.695149+00:00,6.983898401260376,E6_geofence_mission_impact,baseline,0,37.5665,126.978,20.0,0.0,,,,,,,3,12,37.5665,126.978,20.0,,,,0.0,0.0,GPS_RAW_INT,EKF3 IMU0 MAG0 initial yaw alignment complete,STABILIZE,0,0,0
2026-07-06T16:44:27.704530+00:00,6.993292570114136,E6_geofence_mission_impact,baseline,0,37.5665,126.978,20.0,0.0,,,,,,,3,12,37.5665,126.978,20.0,,,,0.0,0.0,FENCE_STATUS,EKF3 IMU0 MAG0 initial yaw alignment complete,STABILIZE,0,0,0
2026-07-06T16:44:27.897160+00:00,7.185913801193237,E6_geofence_mission_impact,baseline,0,37.5665,126.978,20.0,0.0,,,,,,,3,12,37.5665,126.978,20.0,,,,0.0,0.0,HEARTBEAT,EKF3 IMU0 MAG0 initial yaw alignment complete,STABILIZE,0,0,0
2026-07-06T16:44:27.897341+00:00,7.1860785484313965,E6_geofence_mission_impact,baseline,0,37.5665,126.978,20.0,0.0,37.5665,126.978,20.0,0.0,0.0,0,3,12,37.5665,126.978,20.0,0.0,0.0,-0.03,0.0,0.0,GLOBAL_POSITION_INT,EKF3 IMU0 MAG0 initial yaw alignment complete,STABILIZE,0,0,0
2026-07-06T16:44:27.897881+00:00,7.186616897583008,E6_geofence_mission_impact,baseline,0,37.5665,126.978,20.0,0.0,,,,,,,3,12,37.5665,126.978,20.0,,,,0.0,0.0,GPS_RAW_INT,EKF3 IMU0 MAG0 initial yaw alignment complete,STABILIZE,0,0,0
2026-07-06T16:44:27.897947+00:00,7.186675786972046,E6_geofence_mission_impact,baseline,0,37.5665,126.978,20.0,0.0,,,,,,,3,12,37.5665,126.978,20.0,,,,0.0,0.0,FENCE_STATUS,EKF3 IMU0 MAG0 initial yaw alignment complete,STABILIZE,0,0,0
2026-07-06T16:44:28.099974+00:00,7.388729810714722,E6_geofence_mission_impact,baseline,0,37.5665,126.978,20.0,0.0,,,,,,,3,12,37.5665,126.978,20.0,,,,0.0,0.0,HEARTBEAT,EKF3 IMU0 MAG0 initial yaw alignment complete,STABILIZE,0,0,0
2026-07-06T16:44:28.100179+00:00,7.388916015625,E6_geofence_mission_impact,baseline,0,37.5665,126.978,20.0,0.0,37.5665,126.978,20.0,0.0,0.0,0,3,12,37.5665,126.978,20.0,0.0,0.0,-0.03,0.0,0.0,GLOBAL_POSITION_INT,EKF3 IMU0 MAG0 initial yaw alignment complete,STABILIZE,0,0,0
2026-07-06T16:44:28.100578+00:00,7.389313459396362,E6_geofence_mission_impact,baseline,0,37.5665,126.978,20.0,0.0,,,,,,,3,12,37.5665,126.978,20.0,,,,0.0,0.0,GPS_RAW_INT,EKF3 IMU0 MAG0 initial yaw alignment complete,STABILIZE,0,0,0
2026-07-06T16:44:28.100633+00:00,7.389361381530762,E6_geofence_mission_impact,baseline,0,37.5665,126.978,20.0,0.0,,,,,,,3,12,37.5665,126.978,20.0,,,,0.0,0.0,FENCE_STATUS,EKF3 IMU0 MAG0 initial yaw alignment complete,STABILIZE,0,0,0
2026-07-06T16:44:28.296577+00:00,7.585332870483398,E6_geofence_mission_impact,baseline,0,37.5665,126.978,20.0,0.0,,,,,,,3,12,37.5665,126.978,20.0,,,,0.0,0.0,HEARTBEAT,EKF3 IMU0 MAG0 initial yaw alignment complete,STABILIZE,0,0,0
2026-07-06T16:44:28.296746+00:00,7.585476875305176,E6_geofence_mission_impact,baseline,0,37.5665,126.978,20.0,0.0,37.5665,126.978,20.0,0.0,0.0,0,3,12,37.5665,126.978,20.0,0.0,0.0,-0.03,0.0,0.0,GLOBAL_POSITION_INT,EKF3 IMU0 MAG0 initial yaw alignment complete,STABILIZE,0,0,0
2026-07-06T16:44:28.297157+00:00,7.585895299911499,E6_geofence_mission_impact,baseline,0,37.5665,126.978,20.0,0.0,,,,,,,3,12,37.5665,126.978,20.0,,,,0.0,0.0,GPS_RAW_INT,EKF3 IMU0 MAG0 initial yaw alignment complete,STABILIZE,0,0,0
2026-07-06T16:44:28.297212+00:00,7.5859410762786865,E6_geofence_mission_impact,baseline,0,37.5665,126.978,20.0,0.0,,,,,,,3,12,37.5665,126.978,20.0,,,,0.0,0.0,FENCE_STATUS,EKF3 IMU0 MAG0 initial yaw alignment complete,STABILIZE,0,0,0
2026-07-06T16:44:28.495554+00:00,7.784309148788452,E6_geofence_mission_impact,baseline,0,37.5665,126.978,20.0,0.0,,,,,,,3,12,37.5665,126.978,20.0,,,,0.0,0.0,HEARTBEAT,EKF3 IMU0 MAG0 initial yaw alignment complete,STABILIZE,0,0,0
2026-07-06T16:44:28.495714+00:00,7.7844460010528564,E6_geofence_mission_impact,baseline,0,37.5665,126.978,20.0,0.0,37.5665,126.978,20.0,0.0,0.0,0,3,12,37.5665,126.978,20.0,0.0,0.0,-0.02,0.0,0.0,GLOBAL_POSITION_INT,EKF3 IMU0 MAG0 initial yaw alignment complete,STABILIZE,0,0,0
2026-07-06T16:44:28.496163+00:00,7.784896373748779,E6_geofence_mission_impact,baseline,0,37.5665,126.978,20.0,0.0,,,,,,,3,12,37.5665,126.978,20.0,,,,0.0,0.0,GPS_RAW_INT,EKF3 IMU0 MAG0 initial yaw alignment complete,STABILIZE,0,0,0
2026-07-06T16:44:28.496213+00:00,7.7849414348602295,E6_geofence_mission_impact,baseline,0,37.5665,126.978,20.0,0.0,,,,,,,3,12,37.5665,126.978,20.0,,,,0.0,0.0,FENCE_STATUS,EKF3 IMU0 MAG0 initial yaw alignment complete,STABILIZE,0,0,0
2026-07-06T16:44:28.700923+00:00,7.989676475524902,E6_geofence_mission_impact,baseline,0,37.5665,126.978,20.0,0.0,,,,,,,3,12,37.5665,126.978,20.0,,,,0.0,0.0,HEARTBEAT,EKF3 IMU0 MAG0 initial yaw alignment complete,STABILIZE,0,0,0
2026-07-06T16:44:28.701085+00:00,7.989815711975098,E6_geofence_mission_impact,baseline,0,37.5665,126.978,20.0,0.0,37.5665,126.978,20.0,0.0,0.0,0,3,12,37.5665,126.978,20.0,0.0,0.0,-0.02,0.0,0.0,GLOBAL_POSITION_INT,EKF3 IMU0 MAG0 initial yaw alignment complete,STABILIZE,0,0,0
2026-07-06T16:44:28.701612+00:00,7.990350008010864,E6_geofence_mission_impact,baseline,0,37.5665,126.978,20.0,0.0,,,,,,,3,12,37.5665,126.978,20.0,,,,0.0,0.0,GPS_RAW_INT,EKF3 IMU0 MAG0 initial yaw alignment complete,STABILIZE,0,0,0
2026-07-06T16:44:28.701690+00:00,7.990422010421753,E6_geofence_mission_impact,baseline,0,37.5665,126.978,20.0,0.0,,,,,,,3,12,37.5665,126.978,20.0,,,,0.0,0.0,FENCE_STATUS,EKF3 IMU0 MAG0 initial yaw alignment complete,STABILIZE,0,0,0
2026-07-06T16:44:28.892089+00:00,8.180843353271484,E6_geofence_mission_impact,baseline,0,37.5665,126.978,20.0,0.0,,,,,,,3,12,37.5665,126.978,20.0,,,,0.0,0.0,HEARTBEAT,EKF3 IMU0 MAG0 initial yaw alignment complete,STABILIZE,0,0,0
2026-07-06T16:44:28.892276+00:00,8.181008577346802,E6_geofence_mission_impact,baseline,0,37.5665,126.978,20.0,0.0,37.5665,126.978,20.0,0.0,0.0,0,3,12,37.5665,126.978,20.0,0.0,0.0,-0.02,0.0,0.0,GLOBAL_POSITION_INT,EKF3 IMU0 MAG0 initial yaw alignment complete,STABILIZE,0,0,0
2026-07-06T16:44:28.892628+00:00,8.181358814239502,E6_geofence_mission_impact,baseline,0,37.5665,126.978,20.0,0.0,,,,,,,3,12,37.5665,126.978,20.0,,,,0.0,0.0,GPS_RAW_INT,EKF3 IMU0 MAG0 initial yaw alignment complete,STABILIZE,0,0,0
2026-07-06T16:44:28.892673+00:00,8.181401014328003,E6_geofence_mission_impact,baseline,0,37.5665,126.978,20.0,0.0,,,,,,,3,12,37.5665,126.978,20.0,,,,0.0,0.0,FENCE_STATUS,EKF3 IMU0 MAG0 initial yaw alignment complete,STABILIZE,0,0,0
2026-07-06T16:44:29.096248+00:00,8.385000705718994,E6_geofence_mission_impact,baseline,0,37.5665,126.978,20.0,0.0,,,,,,,3,12,37.5665,126.978,20.0,,,,0.0,0.0,HEARTBEAT,EKF3 IMU0 MAG0 initial yaw alignment complete,STABILIZE,0,0,0
2026-07-06T16:44:29.096408+00:00,8.385138273239136,E6_geofence_mission_impact,baseline,0,37.5665,126.978,20.0,0.0,37.5665,126.978,20.0,0.0,0.0,0,3,12,37.5665,126.978,20.0,0.0,0.0,-0.02,0.0,0.0,GLOBAL_POSITION_INT,EKF3 IMU0 MAG0 initial yaw alignment complete,STABILIZE,0,0,0
2026-07-06T16:44:29.096758+00:00,8.38548994064331,E6_geofence_mission_impact,baseline,0,37.5665,126.978,20.0,0.0,,,,,,,3,12,37.5665,126.978,20.0,,,,0.0,0.0,GPS_RAW_INT,EKF3 IMU0 MAG0 initial yaw alignment complete,STABILIZE,0,0,0
2026-07-06T16:44:29.096804+00:00,8.38553237915039,E6_geofence_mission_impact,baseline,0,37.5665,126.978,20.0,0.0,,,,,,,3,12,37.5665,126.978,20.0,,,,0.0,0.0,FENCE_STATUS,EKF3 IMU0 MAG0 initial yaw alignment complete,STABILIZE,0,0,0
2026-07-06T16:44:29.299926+00:00,8.58939003944397,E6_geofence_mission_impact,baseline,0,37.5665,126.978,20.0,0.0,,,,,,,3,12,37.5665,126.978,20.0,,,,0.0,0.0,HEARTBEAT,EKF3 IMU0 MAG0 initial yaw alignment complete,STABILIZE,0,0,0
2026-07-06T16:44:29.301995+00:00,8.590738296508789,E6_geofence_mission_impact,baseline,0,37.5665,126.978,20.0,0.0,37.5665,126.978,20.0,0.0,0.0,0,3,12,37.5665,126.978,20.0,0.0,0.0,-0.02,0.0,0.0,GLOBAL_POSITION_INT,EKF3 IMU0 MAG0 initial yaw alignment complete,STABILIZE,0,0,0
2026-07-06T16:44:29.302356+00:00,8.591089487075806,E6_geofence_mission_impact,baseline,0,37.5665,126.978,20.0,0.0,,,,,,,3,12,37.5665,126.978,20.0,,,,0.0,0.0,GPS_RAW_INT,EKF3 IMU0 MAG0 initial yaw alignment complete,STABILIZE,0,0,0
2026-07-06T16:44:29.302403+00:00,8.59113097190857,E6_geofence_mission_impact,baseline,0,37.5665,126.978,20.0,0.0,,,,,,,3,12,37.5665,126.978,20.0,,,,0.0,0.0,FENCE_STATUS,EKF3 IMU0 MAG0 initial yaw alignment complete,STABILIZE,0,0,0
2026-07-06T16:44:29.498015+00:00,8.786770582199097,E6_geofence_mission_impact,baseline,0,37.5665,126.978,20.0,0.0,,,,,,,3,12,37.5665,126.978,20.0,,,,0.0,0.0,HEARTBEAT,EKF3 IMU0 MAG0 initial yaw alignment complete,STABILIZE,0,0,0
2026-07-06T16:44:29.498179+00:00,8.786911964416504,E6_geofence_mission_impact,baseline,0,37.5665,126.978,20.0,0.0,37.5665,126.978,20.0,0.0,0.0,0,3,12,37.5665,126.978,20.0,0.0,0.0,-0.02,0.0,0.0,GLOBAL_POSITION_INT,EKF3 IMU0 MAG0 initial yaw alignment complete,STABILIZE,0,0,0
2026-07-06T16:44:29.498533+00:00,8.787265062332153,E6_geofence_mission_impact,baseline,0,37.5665,126.978,20.0,0.0,,,,,,,3,12,37.5665,126.978,20.0,,,,0.0,0.0,GPS_RAW_INT,EKF3 IMU0 MAG0 initial yaw alignment complete,STABILIZE,0,0,0
2026-07-06T16:44:29.498614+00:00,8.787347078323364,E6_geofence_mission_impact,baseline,0,37.5665,126.978,20.0,0.0,,,,,,,3,12,37.5665,126.978,20.0,,,,0.0,0.0,FENCE_STATUS,EKF3 IMU0 MAG0 initial yaw alignment complete,STABILIZE,0,0,0
2026-07-06T16:44:29.728935+00:00,9.017690181732178,E6_geofence_mission_impact,baseline,0,37.5665,126.978,20.0,0.0,,,,,,,3,12,37.5665,126.978,20.0,,,,0.0,0.0,HEARTBEAT,EKF3 IMU0 MAG0 initial yaw alignment complete,STABILIZE,0,0,0
2026-07-06T16:44:29.729097+00:00,9.017828941345215,E6_geofence_mission_impact,baseline,0,37.5665,126.978,20.0,0.0,37.5665,126.978,20.0,0.0,0.0,0,3,12,37.5665,126.978,20.0,0.0,0.0,-0.02,0.0,0.0,GLOBAL_POSITION_INT,EKF3 IMU0 MAG0 initial yaw alignment complete,STABILIZE,0,0,0
2026-07-06T16:44:29.729442+00:00,9.018173456192017,E6_geofence_mission_impact,baseline,0,37.5665,126.978,20.0,0.0,,,,,,,3,12,37.5665,126.978,20.0,,,,0.0,0.0,GPS_RAW_INT,EKF3 IMU0 MAG0 initial yaw alignment complete,STABILIZE,0,0,0
2026-07-06T16:44:29.729488+00:00,9.018216133117676,E6_geofence_mission_impact,baseline,0,37.5665,126.978,20.0,0.0,,,,,,,3,12,37.5665,126.978,20.0,,,,0.0,0.0,FENCE_STATUS,EKF3 IMU0 MAG0 initial yaw alignment complete,STABILIZE,0,0,0
2026-07-06T16:44:29.903220+00:00,9.191974401473999,E6_geofence_mission_impact,baseline,0,37.5665,126.978,20.0,0.0,,,,,,,3,12,37.5665,126.978,20.0,,,,0.0,0.0,HEARTBEAT,EKF3 IMU0 MAG0 initial yaw alignment complete,STABILIZE,0,0,0
2026-07-06T16:44:29.903387+00:00,9.192117929458618,E6_geofence_mission_impact,baseline,0,37.5665,126.978,20.0,0.0,37.5665,126.978,20.0,0.0,0.0,0,3,12,37.5665,126.978,20.0,0.0,0.0,-0.02,0.0,0.0,GLOBAL_POSITION_INT,EKF3 IMU0 MAG0 initial yaw alignment complete,STABILIZE,0,0,0
2026-07-06T16:44:29.903758+00:00,9.192490816116333,E6_geofence_mission_impact,baseline,0,37.5665,126.978,20.0,0.0,,,,,,,3,12,37.5665,126.978,20.0,,,,0.0,0.0,GPS_RAW_INT,EKF3 IMU0 MAG0 initial yaw alignment complete,STABILIZE,0,0,0
2026-07-06T16:44:29.903804+00:00,9.192532062530518,E6_geofence_mission_impact,baseline,0,37.5665,126.978,20.0,0.0,,,,,,,3,12,37.5665,126.978,20.0,,,,0.0,0.0,FENCE_STATUS,EKF3 IMU0 MAG0 initial yaw alignment complete,STABILIZE,0,0,0
2026-07-06T16:44:30.021291+00:00,9.310044050216675,E6_geofence_mission_impact,baseline,0,37.5665,126.978,20.0,0.0,,,,,,,3,12,37.5665,126.978,20.0,,,,0.0,0.0,STATUSTEXT,EKF3 IMU0 origin set,STABILIZE,0,0,0
2026-07-06T16:44:30.026025+00:00,9.314775466918945,E6_geofence_mission_impact,baseline,0,37.5665,126.978,20.0,0.0,,,,,,,3,12,37.5665,126.978,20.0,,,,0.0,0.0,STATUSTEXT,EKF3 IMU1 origin set,STABILIZE,0,0,0
2026-07-06T16:44:30.071968+00:00,9.360718727111816,E6_geofence_mission_impact,baseline,0,37.5665,126.978,20.0,0.0,,,,,,,3,12,37.5665,126.978,20.0,,,,0.0,0.0,STATUSTEXT,Field Elevation Set: 20m,STABILIZE,0,0,0
2026-07-06T16:44:30.102697+00:00,9.391454935073853,E6_geofence_mission_impact,baseline,0,37.5665,126.978,20.0,0.0,,,,,,,3,12,37.5665,126.978,20.0,,,,0.0,0.0,HEARTBEAT,Field Elevation Set: 20m,STABILIZE,0,0,0
2026-07-06T16:44:30.105229+00:00,9.393999576568604,E6_geofence_mission_impact,baseline,0,37.5665,126.978,20.0,0.0,37.5665,126.978,20.0,0.0,0.0,0,3,12,37.5665,126.978,20.0,0.0,0.0,0.0,0.0,0.0,GLOBAL_POSITION_INT,Field Elevation Set: 20m,STABILIZE,0,0,0
2026-07-06T16:44:30.105784+00:00,9.394525527954102,E6_geofence_mission_impact,baseline,0,37.5665,126.978,20.0,0.0,,,,,,,3,12,37.5665,126.978,20.0,,,,0.0,0.0,GPS_RAW_INT,Field Elevation Set: 20m,STABILIZE,0,0,0
2026-07-06T16:44:30.105866+00:00,9.394594669342041,E6_geofence_mission_impact,baseline,0,37.5665,126.978,20.0,0.0,,,,,,,3,12,37.5665,126.978,20.0,,,,0.0,0.0,FENCE_STATUS,Field Elevation Set: 20m,STABILIZE,0,0,0
2026-07-06T16:44:30.291914+00:00,9.580669641494751,E6_geofence_mission_impact,baseline,0,37.5665,126.978,20.0,0.0,,,,,,,3,12,37.5665,126.978,20.0,,,,0.0,0.0,HEARTBEAT,Field Elevation Set: 20m,STABILIZE,0,0,0
2026-07-06T16:44:30.292091+00:00,9.5808265209198,E6_geofence_mission_impact,baseline,0,37.5665,126.978,20.0,0.0,37.5665,126.978,20.0,0.0,0.0,0,3,12,37.5665,126.978,20.0,0.0,0.0,0.0,0.0,0.0,GLOBAL_POSITION_INT,Field Elevation Set: 20m,STABILIZE,0,0,0
2026-07-06T16:44:30.292450+00:00,9.581182479858398,E6_geofence_mission_impact,baseline,0,37.5665,126.978,20.0,0.0,,,,,,,3,12,37.5665,126.978,20.0,,,,0.0,0.0,GPS_RAW_INT,Field Elevation Set: 20m,STABILIZE,0,0,0
2026-07-06T16:44:30.292496+00:00,9.581223964691162,E6_geofence_mission_impact,baseline,0,37.5665,126.978,20.0,0.0,,,,,,,3,12,37.5665,126.978,20.0,,,,0.0,0.0,FENCE_STATUS,Field Elevation Set: 20m,STABILIZE,0,0,0
2026-07-06T16:44:30.507810+00:00,9.796563625335693,E6_geofence_mission_impact,baseline,0,37.5665,126.978,20.0,0.0,,,,,,,3,12,37.5665,126.978,20.0,,,,0.0,0.0,HEARTBEAT,Field Elevation Set: 20m,STABILIZE,0,0,0
2026-07-06T16:44:30.507954+00:00,9.796682834625244,E6_geofence_mission_impact,baseline,0,37.5665,126.978,20.0,0.0,37.5665,126.978,20.0,0.0,0.0,0,3,12,37.5665,126.978,20.0,0.0,0.0,0.0,0.0,0.0,GLOBAL_POSITION_INT,Field Elevation Set: 20m,STABILIZE,0,0,0
2026-07-06T16:44:30.508278+00:00,9.797006368637085,E6_geofence_mission_impact,baseline,0,37.5665,126.978,20.0,0.0,,,,,,,3,12,37.5665,126.978,20.0,,,,0.0,0.0,GPS_RAW_INT,Field Elevation Set: 20m,STABILIZE,0,0,0
2026-07-06T16:44:30.508315+00:00,9.797042608261108,E6_geofence_mission_impact,baseline,0,37.5665,126.978,20.0,0.0,,,,,,,3,12,37.5665,126.978,20.0,,,,0.0,0.0,FENCE_STATUS,Field Elevation Set: 20m,STABILIZE,0,0,0
2026-07-06T16:44:30.709332+00:00,9.99808669090271,E6_geofence_mission_impact,baseline,0,37.5665,126.978,20.0,0.0,,,,,,,3,12,37.5665,126.978,20.0,,,,0.0,0.0,HEARTBEAT,Field Elevation Set: 20m,STABILIZE,0,0,0
2026-07-06T16:44:30.709485+00:00,9.998215198516846,E6_geofence_mission_impact,baseline,0,37.5665,126.978,20.0,0.0,37.5665,126.978,20.0,0.0,0.0,0,3,12,37.5665,126.978,20.0,0.0,0.0,0.0,0.0,0.0,GLOBAL_POSITION_INT,Field Elevation Set: 20m,STABILIZE,0,0,0
2026-07-06T16:44:30.709914+00:00,9.998652458190918,E6_geofence_mission_impact,baseline,0,37.5665,126.978,20.0,0.0,,,,,,,3,12,37.5665,126.978,20.0,,,,0.0,0.0,GPS_RAW_INT,Field Elevation Set: 20m,STABILIZE,0,0,0
2026-07-06T16:44:30.709975+00:00,9.998707294464111,E6_geofence_mission_impact,baseline,0,37.5665,126.978,20.0,0.0,,,,,,,3,12,37.5665,126.978,20.0,,,,0.0,0.0,FENCE_STATUS,Field Elevation Set: 20m,STABILIZE,0,0,0
2026-07-06T16:44:30.892752+00:00,10.181506156921387,E6_geofence_mission_impact,baseline,0,37.5665,126.978,20.0,0.0,,,,,,,3,12,37.5665,126.978,20.0,,,,0.0,0.0,HEARTBEAT,Field Elevation Set: 20m,STABILIZE,0,0,0
2026-07-06T16:44:30.892944+00:00,10.18167781829834,E6_geofence_mission_impact,baseline,0,37.5665,126.978,20.0,0.0,37.5665,126.978,20.0,0.0,0.0,0,3,12,37.5665,126.978,20.0,0.0,0.0,0.0,0.0,0.0,GLOBAL_POSITION_INT,Field Elevation Set: 20m,STABILIZE,0,0,0
2026-07-06T16:44:30.893269+00:00,10.181998014450073,E6_geofence_mission_impact,baseline,0,37.5665,126.978,20.0,0.0,,,,,,,3,12,37.5665,126.978,20.0,,,,0.0,0.0,GPS_RAW_INT,Field Elevation Set: 20m,STABILIZE,0,0,0
2026-07-06T16:44:30.893305+00:00,10.182032585144043,E6_geofence_mission_impact,baseline,0,37.5665,126.978,20.0,0.0,,,,,,,3,12,37.5665,126.978,20.0,,,,0.0,0.0,FENCE_STATUS,Field Elevation Set: 20m,STABILIZE,0,0,0
2026-07-06T16:44:31.103084+00:00,10.39183759689331,E6_geofence_mission_impact,baseline,0,37.5665,126.978,20.0,0.0,,,,,,,3,12,37.5665,126.978,20.0,,,,0.0,0.0,HEARTBEAT,Field Elevation Set: 20m,STABILIZE,0,0,0
2026-07-06T16:44:31.103249+00:00,10.391982078552246,E6_geofence_mission_impact,baseline,0,37.5665,126.978,20.0,0.0,37.5665,126.978,20.0,0.0,0.0,0,3,12,37.5665,126.978,20.0,0.0,0.0,0.0,0.0,0.0,GLOBAL_POSITION_INT,Field Elevation Set: 20m,STABILIZE,0,0,0
2026-07-06T16:44:31.103610+00:00,10.39234209060669,E6_geofence_mission_impact,baseline,0,37.5665,126.978,20.0,0.0,,,,,,,3,12,37.5665,126.978,20.0,,,,0.0,0.0,GPS_RAW_INT,Field Elevation Set: 20m,STABILIZE,0,0,0
2026-07-06T16:44:31.103657+00:00,10.392384767532349,E6_geofence_mission_impact,baseline,0,37.5665,126.978,20.0,0.0,,,,,,,3,12,37.5665,126.978,20.0,,,,0.0,0.0,FENCE_STATUS,Field Elevation Set: 20m,STABILIZE,0,0,0
2026-07-06T16:44:31.292589+00:00,10.581342458724976,E6_geofence_mission_impact,baseline,0,37.5665,126.978,20.0,0.0,,,,,,,3,12,37.5665,126.978,20.0,,,,0.0,0.0,HEARTBEAT,Field Elevation Set: 20m,STABILIZE,0,0,0
2026-07-06T16:44:31.292750+00:00,10.581481218338013,E6_geofence_mission_impact,baseline,0,37.5665,126.978,20.0,0.0,37.5665,126.978,20.0,0.0,0.0,0,3,12,37.5665,126.978,20.0,0.0,0.0,0.0,0.0,0.0,GLOBAL_POSITION_INT,Field Elevation Set: 20m,STABILIZE,0,0,0
2026-07-06T16:44:31.293100+00:00,10.581830978393555,E6_geofence_mission_impact,baseline,0,37.5665,126.978,20.0,0.0,,,,,,,3,12,37.5665,126.978,20.0,,,,0.0,0.0,GPS_RAW_INT,Field Elevation Set: 20m,STABILIZE,0,0,0
2026-07-06T16:44:31.293144+00:00,10.581871509552002,E6_geofence_mission_impact,baseline,0,37.5665,126.978,20.0,0.0,,,,,,,3,12,37.5665,126.978,20.0,,,,0.0,0.0,FENCE_STATUS,Field Elevation Set: 20m,STABILIZE,0,0,0
2026-07-06T16:44:31.495655+00:00,10.784408569335938,E6_geofence_mission_impact,baseline,0,37.5665,126.978,20.0,0.0,,,,,,,3,12,37.5665,126.978,20.0,,,,0.0,0.0,HEARTBEAT,Field Elevation Set: 20m,STABILIZE,0,0,0
2026-07-06T16:44:31.495837+00:00,10.784573793411255,E6_geofence_mission_impact,baseline,0,37.5665,126.978,20.0,0.0,37.5665,126.978,20.0,0.0,0.0,0,3,12,37.5665,126.978,20.0,0.0,0.0,0.0,0.0,0.0,GLOBAL_POSITION_INT,Field Elevation Set: 20m,STABILIZE,0,0,0
2026-07-06T16:44:31.496224+00:00,10.784955501556396,E6_geofence_mission_impact,baseline,0,37.5665,126.978,20.0,0.0,,,,,,,3,12,37.5665,126.978,20.0,,,,0.0,0.0,GPS_RAW_INT,Field Elevation Set: 20m,STABILIZE,0,0,0
2026-07-06T16:44:31.496269+00:00,10.78499722480774,E6_geofence_mission_impact,baseline,0,37.5665,126.978,20.0,0.0,,,,,,,3,12,37.5665,126.978,20.0,,,,0.0,0.0,FENCE_STATUS,Field Elevation Set: 20m,STABILIZE,0,0,0
