timestamp,elapsed_s,experiment,phase,sample_index,target_lat,target_lon,target_alt,target_drift_m,obs_lat,obs_lon,obs_alt,official_drift_m,target_error_m,reflected,gps_fix_type,gps_satellites,gps_raw_lat,gps_raw_lon,gps_raw_alt,vn,ve,vd,commanded_speed_mps,commanded_accel_mps2,message_type,status_text,mode,fence_breach_status,fence_breach_count,fence_breach_type
2026-07-06T16:35:30.600165+00:00,0.015263795852661133,E1_global_position_int_negative,warmup,0,37.5665,126.978,20.0,0.0,,,,,,,,,,,,,,,0.0,0.0,HEARTBEAT,,STABILIZE,,,
2026-07-06T16:35:30.600347+00:00,0.015422344207763672,E1_global_position_int_negative,warmup,0,37.5665,126.978,20.0,0.0,37.5665,126.978,0.0,0.0,0.0,0,,,,,,0.0,0.0,0.0,0.0,0.0,GLOBAL_POSITION_INT,,STABILIZE,,,
2026-07-06T16:35:30.600715+00:00,0.01578998565673828,E1_global_position_int_negative,warmup,0,37.5665,126.978,20.0,0.0,,,,,,,3,12,37.5665,126.978,20.0,,,,0.0,0.0,GPS_RAW_INT,,STABILIZE,,,
2026-07-06T16:35:30.616825+00:00,0.03191947937011719,E1_global_position_int_negative,warmup,0,37.5665,126.978,20.0,0.0,,,,,,,3,12,37.5665,126.978,20.0,,,,0.0,0.0,STATUSTEXT,GPS 1: detected MAV,STABILIZE,,,
2026-07-06T16:35:30.799688+00:00,0.2147846221923828,E1_global_position_int_negative,warmup,0,37.5665,126.978,20.0,0.0,,,,,,,3,12,37.5665,126.978,20.0,,,,0.0,0.0,HEARTBEAT,GPS 1: detected MAV,STABILIZE,,,
2026-07-06T16:35:30.800231+00:00,0.2153177261352539,E1_global_position_int_negative,warmup,0,37.5665,126.978,20.0,0.0,37.5665,126.978,0.0,0.0,0.0,0,3,12,37.5665,126.978,20.0,0.0,0.0,0.0,0.0,0.0,GLOBAL_POSITION_INT,GPS 1: detected MAV,STABILIZE,,,
2026-07-06T16:35:30.800619+00:00,0.21570277214050293,E1_global_position_int_negative,warmup,0,37.5665,126.978,20.0,0.0,,,,,,,3,12,37.5665,126.978,20.0,,,,0.0,0.0,GPS_RAW_INT,GPS 1: detected MAV,STABILIZE,,,
2026-07-06T16:35:31.001366+00:00,0.41646623611450195,E1_global_position_int_negative,warmup,0,37.5665,126.978,20.0,0.0,,,,,,,3,12,37.5665,126.978,20.0,,,,0.0,0.0,HEARTBEAT,GPS 1: detected MAV,STABILIZE,,,
2026-07-06T16:35:31.001556+00:00,0.4166293144226074,E1_global_position_int_negative,warmup,0,37.5665,126.978,20.0,0.0,37.5665,126.978,0.0,0.0,0.0,0,3,12,37.5665,126.978,20.0,0.0,0.0,0.0,0.0,0.0,GLOBAL_POSITION_INT,GPS 1: detected MAV,STABILIZE,,,
2026-07-06T16:35:31.001901+00:00,0.416975736618042,E1_global_position_int_negative,warmup,0,37.5665,126.978,20.0,0.0,,,,,,,3,12,37.5665,126.978,20.0,,,,0.0,0.0,GPS_RAW_INT,GPS 1: detected MAV,STABILIZE,,,
2026-07-06T16:35:31.201520+00:00,0.6166183948516846,E1_global_position_int_negative,warmup,0,37.5665,126.978,20.0,0.0,,,,,,,3,12,37.5665,126.978,20.0,,,,0.0,0.0,STATUSTEXT,EKF3 IMU0 initialised,STABILIZE,,,
2026-07-06T16:35:31.201592+00:00,0.6166636943817139,E1_global_position_int_negative,warmup,0,37.5665,126.978,20.0,0.0,,,,,,,3,12,37.5665,126.978,20.0,,,,0.0,0.0,STATUSTEXT,EKF3 IMU1 initialised,STABILIZE,,,
2026-07-06T16:35:31.201616+00:00,0.6166865825653076,E1_global_position_int_negative,warmup,0,37.5665,126.978,20.0,0.0,,,,,,,3,12,37.5665,126.978,20.0,,,,0.0,0.0,STATUSTEXT,AHRS: EKF3 active,STABILIZE,,,
2026-07-06T16:35:31.201657+00:00,0.6167283058166504,E1_global_position_int_negative,warmup,0,37.5665,126.978,20.0,0.0,,,,,,,3,12,37.5665,126.978,20.0,,,,0.0,0.0,HEARTBEAT,AHRS: EKF3 active,STABILIZE,,,
2026-07-06T16:35:31.201785+00:00,0.6168620586395264,E1_global_position_int_negative,warmup,0,37.5665,126.978,20.0,0.0,37.5665,126.978,20.0,0.0,0.0,0,3,12,37.5665,126.978,20.0,0.0,0.0,0.0,0.0,0.0,GLOBAL_POSITION_INT,AHRS: EKF3 active,STABILIZE,,,
2026-07-06T16:35:31.202847+00:00,0.6179299354553223,E1_global_position_int_negative,warmup,0,37.5665,126.978,20.0,0.0,,,,,,,3,12,37.5665,126.978,20.0,,,,0.0,0.0,GPS_RAW_INT,AHRS: EKF3 active,STABILIZE,,,
2026-07-06T16:35:31.399811+00:00,0.815253734588623,E1_global_position_int_negative,warmup,0,37.5665,126.978,20.0,0.0,,,,,,,3,12,37.5665,126.978,20.0,,,,0.0,0.0,HEARTBEAT,AHRS: EKF3 active,STABILIZE,,,
2026-07-06T16:35:31.402144+00:00,0.8172297477722168,E1_global_position_int_negative,warmup,0,37.5665,126.978,20.0,0.0,37.5665,126.978,20.0,0.0,0.0,0,3,12,37.5665,126.978,20.0,0.0,0.0,0.06,0.0,0.0,GLOBAL_POSITION_INT,AHRS: EKF3 active,STABILIZE,,,
2026-07-06T16:35:31.403812+00:00,0.8188962936401367,E1_global_position_int_negative,warmup,0,37.5665,126.978,20.0,0.0,,,,,,,3,12,37.5665,126.978,20.0,,,,0.0,0.0,GPS_RAW_INT,AHRS: EKF3 active,STABILIZE,,,
2026-07-06T16:35:31.598062+00:00,1.0131709575653076,E1_global_position_int_negative,warmup,0,37.5665,126.978,20.0,0.0,,,,,,,3,12,37.5665,126.978,20.0,,,,0.0,0.0,HEARTBEAT,AHRS: EKF3 active,STABILIZE,,,
2026-07-06T16:35:31.598225+00:00,1.0132966041564941,E1_global_position_int_negative,warmup,0,37.5665,126.978,20.0,0.0,37.5665,126.978,20.0,0.0,0.0,0,3,12,37.5665,126.978,20.0,0.0,0.0,0.13,0.0,0.0,GLOBAL_POSITION_INT,AHRS: EKF3 active,STABILIZE,,,
2026-07-06T16:35:31.598540+00:00,1.0136122703552246,E1_global_position_int_negative,warmup,0,37.5665,126.978,20.0,0.0,,,,,,,3,12,37.5665,126.978,20.0,,,,0.0,0.0,GPS_RAW_INT,AHRS: EKF3 active,STABILIZE,,,
2026-07-06T16:35:31.799502+00:00,1.214601993560791,E1_global_position_int_negative,warmup,0,37.5665,126.978,20.0,0.0,,,,,,,3,12,37.5665,126.978,20.0,,,,0.0,0.0,HEARTBEAT,AHRS: EKF3 active,STABILIZE,,,
2026-07-06T16:35:31.799693+00:00,1.214768886566162,E1_global_position_int_negative,warmup,0,37.5665,126.978,20.0,0.0,37.5665,126.978,20.0,0.0,0.0,0,3,12,37.5665,126.978,20.0,0.0,0.0,0.16,0.0,0.0,GLOBAL_POSITION_INT,AHRS: EKF3 active,STABILIZE,,,
2026-07-06T16:35:31.800034+00:00,1.2151110172271729,E1_global_position_int_negative,warmup,0,37.5665,126.978,20.0,0.0,,,,,,,3,12,37.5665,126.978,20.0,,,,0.0,0.0,GPS_RAW_INT,AHRS: EKF3 active,STABILIZE,,,
2026-07-06T16:35:31.999926+00:00,1.4150238037109375,E1_global_position_int_negative,warmup,0,37.5665,126.978,20.0,0.0,,,,,,,3,12,37.5665,126.978,20.0,,,,0.0,0.0,HEARTBEAT,AHRS: EKF3 active,STABILIZE,,,
2026-07-06T16:35:32.000083+00:00,1.4151582717895508,E1_global_position_int_negative,warmup,0,37.5665,126.978,20.0,0.0,37.5665,126.978,20.0,0.0,0.0,0,3,12,37.5665,126.978,20.0,0.0,0.0,0.18,0.0,0.0,GLOBAL_POSITION_INT,AHRS: EKF3 active,STABILIZE,,,
2026-07-06T16:35:32.000464+00:00,1.4155430793762207,E1_global_position_int_negative,warmup,0,37.5665,126.978,20.0,0.0,,,,,,,3,12,37.5665,126.978,20.0,,,,0.0,0.0,GPS_RAW_INT,AHRS: EKF3 active,STABILIZE,,,
2026-07-06T16:35:32.201713+00:00,1.6168136596679688,E1_global_position_int_negative,warmup,0,37.5665,126.978,20.0,0.0,,,,,,,3,12,37.5665,126.978,20.0,,,,0.0,0.0,HEARTBEAT,AHRS: EKF3 active,STABILIZE,,,
2026-07-06T16:35:32.202019+00:00,1.6170969009399414,E1_global_position_int_negative,warmup,0,37.5665,126.978,20.0,0.0,37.5665,126.978,20.0,0.0,0.0,0,3,12,37.5665,126.978,20.0,0.0,0.0,0.18,0.0,0.0,GLOBAL_POSITION_INT,AHRS: EKF3 active,STABILIZE,,,
2026-07-06T16:35:32.202351+00:00,1.6174266338348389,E1_global_position_int_negative,warmup,0,37.5665,126.978,20.0,0.0,,,,,,,3,12,37.5665,126.978,20.0,,,,0.0,0.0,GPS_RAW_INT,AHRS: EKF3 active,STABILIZE,,,
2026-07-06T16:35:32.398390+00:00,1.8134849071502686,E1_global_position_int_negative,warmup,0,37.5665,126.978,20.0,0.0,,,,,,,3,12,37.5665,126.978,20.0,,,,0.0,0.0,HEARTBEAT,AHRS: EKF3 active,STABILIZE,,,
2026-07-06T16:35:32.398575+00:00,1.8136491775512695,E1_global_position_int_negative,warmup,0,37.5665,126.978,20.0,0.0,37.5665,126.978,20.0,0.0,0.0,0,3,12,37.5665,126.978,20.0,0.0,0.0,0.18,0.0,0.0,GLOBAL_POSITION_INT,AHRS: EKF3 active,STABILIZE,,,
2026-07-06T16:35:32.399819+00:00,1.81489896774292,E1_global_position_int_negative,warmup,0,37.5665,126.978,20.0,0.0,,,,,,,3,12,37.5665,126.978,20.0,,,,0.0,0.0,GPS_RAW_INT,AHRS: EKF3 active,STABILIZE,,,
2026-07-06T16:35:32.600552+00:00,2.0156500339508057,E1_global_position_int_negative,warmup,0,37.5665,126.978,20.0,0.0,,,,,,,3,12,37.5665,126.978,20.0,,,,0.0,0.0,HEARTBEAT,AHRS: EKF3 active,STABILIZE,,,
2026-07-06T16:35:32.600733+00:00,2.0158095359802246,E1_global_position_int_negative,warmup,0,37.5665,126.978,20.0,0.0,37.5665,126.978,20.0,0.0,0.0,0,3,12,37.5665,126.978,20.0,0.0,0.0,0.17,0.0,0.0,GLOBAL_POSITION_INT,AHRS: EKF3 active,STABILIZE,,,
2026-07-06T16:35:32.601083+00:00,2.0161569118499756,E1_global_position_int_negative,warmup,0,37.5665,126.978,20.0,0.0,,,,,,,3,12,37.5665,126.978,20.0,,,,0.0,0.0,GPS_RAW_INT,AHRS: EKF3 active,STABILIZE,,,
2026-07-06T16:35:32.802189+00:00,2.217292308807373,E1_global_position_int_negative,warmup,0,37.5665,126.978,20.0,0.0,,,,,,,3,12,37.5665,126.978,20.0,,,,0.0,0.0,HEARTBEAT,AHRS: EKF3 active,STABILIZE,,,
2026-07-06T16:35:32.802389+00:00,2.2174692153930664,E1_global_position_int_negative,warmup,0,37.5665,126.978,20.0,0.0,37.5665,126.978,20.0,0.0,0.0,0,3,12,37.5665,126.978,20.0,0.0,0.0,0.16,0.0,0.0,GLOBAL_POSITION_INT,AHRS: EKF3 active,STABILIZE,,,
2026-07-06T16:35:32.802780+00:00,2.217858076095581,E1_global_position_int_negative,warmup,0,37.5665,126.978,20.0,0.0,,,,,,,3,12,37.5665,126.978,20.0,,,,0.0,0.0,GPS_RAW_INT,AHRS: EKF3 active,STABILIZE,,,
2026-07-06T16:35:32.951788+00:00,2.366884469985962,E1_global_position_int_negative,warmup,0,37.5665,126.978,20.0,0.0,,,,,,,3,12,37.5665,126.978,20.0,,,,0.0,0.0,STATUSTEXT,EKF3 IMU0 tilt alignment complete,STABILIZE,,,
2026-07-06T16:35:32.951928+00:00,2.3670074939727783,E1_global_position_int_negative,warmup,0,37.5665,126.978,20.0,0.0,,,,,,,3,12,37.5665,126.978,20.0,,,,0.0,0.0,STATUSTEXT,EKF3 IMU1 tilt alignment complete,STABILIZE,,,
2026-07-06T16:35:33.002006+00:00,2.4171078205108643,E1_global_position_int_negative,warmup,0,37.5665,126.978,20.0,0.0,,,,,,,3,12,37.5665,126.978,20.0,,,,0.0,0.0,HEARTBEAT,EKF3 IMU1 tilt alignment complete,STABILIZE,,,
2026-07-06T16:35:33.002399+00:00,2.417482376098633,E1_global_position_int_negative,warmup,0,37.5665,126.978,20.0,0.0,37.5665,126.978,20.0,0.0,0.0,0,3,12,37.5665,126.978,20.0,0.0,0.0,0.15,0.0,0.0,GLOBAL_POSITION_INT,EKF3 IMU1 tilt alignment complete,STABILIZE,,,
2026-07-06T16:35:33.002807+00:00,2.4178876876831055,E1_global_position_int_negative,warmup,0,37.5665,126.978,20.0,0.0,,,,,,,3,12,37.5665,126.978,20.0,,,,0.0,0.0,GPS_RAW_INT,EKF3 IMU1 tilt alignment complete,STABILIZE,,,
2026-07-06T16:35:33.036638+00:00,2.4517366886138916,E1_global_position_int_negative,warmup,0,37.5665,126.978,20.0,0.0,,,,,,,3,12,37.5665,126.978,20.0,,,,0.0,0.0,STATUSTEXT,EKF3 IMU1 MAG0 initial yaw alignment complete,STABILIZE,,,
2026-07-06T16:35:33.053491+00:00,2.468587636947632,E1_global_position_int_negative,warmup,0,37.5665,126.978,20.0,0.0,,,,,,,3,12,37.5665,126.978,20.0,,,,0.0,0.0,STATUSTEXT,EKF3 IMU0 MAG0 initial yaw alignment complete,STABILIZE,,,
2026-07-06T16:35:33.195783+00:00,2.610879421234131,E1_global_position_int_negative,warmup,0,37.5665,126.978,20.0,0.0,,,,,,,3,12,37.5665,126.978,20.0,,,,0.0,0.0,HEARTBEAT,EKF3 IMU0 MAG0 initial yaw alignment complete,STABILIZE,,,
2026-07-06T16:35:33.195965+00:00,2.611046552658081,E1_global_position_int_negative,warmup,0,37.5665,126.978,20.0,0.0,37.5665,126.978,20.0,0.0,0.0,0,3,12,37.5665,126.978,20.0,0.0,0.0,0.13,0.0,0.0,GLOBAL_POSITION_INT,EKF3 IMU0 MAG0 initial yaw alignment complete,STABILIZE,,,
2026-07-06T16:35:33.196338+00:00,2.6114132404327393,E1_global_position_int_negative,warmup,0,37.5665,126.978,20.0,0.0,,,,,,,3,12,37.5665,126.978,20.0,,,,0.0,0.0,GPS_RAW_INT,EKF3 IMU0 MAG0 initial yaw alignment complete,STABILIZE,,,
2026-07-06T16:35:33.420328+00:00,2.835428237915039,E1_global_position_int_negative,warmup,0,37.5665,126.978,20.0,0.0,,,,,,,3,12,37.5665,126.978,20.0,,,,0.0,0.0,HEARTBEAT,EKF3 IMU0 MAG0 initial yaw alignment complete,STABILIZE,,,
2026-07-06T16:35:33.420569+00:00,2.8356516361236572,E1_global_position_int_negative,warmup,0,37.5665,126.978,20.0,0.0,37.5665,126.978,20.0,0.0,0.0,0,3,12,37.5665,126.978,20.0,0.0,0.0,0.11,0.0,0.0,GLOBAL_POSITION_INT,EKF3 IMU0 MAG0 initial yaw alignment complete,STABILIZE,,,
2026-07-06T16:35:33.420948+00:00,2.836026668548584,E1_global_position_int_negative,warmup,0,37.5665,126.978,20.0,0.0,,,,,,,3,12,37.5665,126.978,20.0,,,,0.0,0.0,GPS_RAW_INT,EKF3 IMU0 MAG0 initial yaw alignment complete,STABILIZE,,,
2026-07-06T16:35:33.621226+00:00,3.0363352298736572,E1_global_position_int_negative,warmup,0,37.5665,126.978,20.0,0.0,,,,,,,3,12,37.5665,126.978,20.0,,,,0.0,0.0,HEARTBEAT,EKF3 IMU0 MAG0 initial yaw alignment complete,STABILIZE,,,
2026-07-06T16:35:33.621446+00:00,3.036527633666992,E1_global_position_int_negative,warmup,0,37.5665,126.978,20.0,0.0,37.5665,126.978,20.0,0.0,0.0,0,3,12,37.5665,126.978,20.0,0.0,0.0,0.09,0.0,0.0,GLOBAL_POSITION_INT,EKF3 IMU0 MAG0 initial yaw alignment complete,STABILIZE,,,
2026-07-06T16:35:33.621804+00:00,3.0368785858154297,E1_global_position_int_negative,warmup,0,37.5665,126.978,20.0,0.0,,,,,,,3,12,37.5665,126.978,20.0,,,,0.0,0.0,GPS_RAW_INT,EKF3 IMU0 MAG0 initial yaw alignment complete,STABILIZE,,,
2026-07-06T16:35:33.804107+00:00,3.2192001342773438,E1_global_position_int_negative,warmup,0,37.5665,126.978,20.0,0.0,,,,,,,3,12,37.5665,126.978,20.0,,,,0.0,0.0,HEARTBEAT,EKF3 IMU0 MAG0 initial yaw alignment complete,STABILIZE,,,
2026-07-06T16:35:33.804376+00:00,3.2194559574127197,E1_global_position_int_negative,warmup,0,37.5665,126.978,20.0,0.0,37.5665,126.978,20.0,0.0,0.0,0,3,12,37.5665,126.978,20.0,0.0,0.0,0.07,0.0,0.0,GLOBAL_POSITION_INT,EKF3 IMU0 MAG0 initial yaw alignment complete,STABILIZE,,,
2026-07-06T16:35:33.804766+00:00,3.219843864440918,E1_global_position_int_negative,warmup,0,37.5665,126.978,20.0,0.0,,,,,,,3,12,37.5665,126.978,20.0,,,,0.0,0.0,GPS_RAW_INT,EKF3 IMU0 MAG0 initial yaw alignment complete,STABILIZE,,,
2026-07-06T16:35:34.000598+00:00,3.4156887531280518,E1_global_position_int_negative,warmup,0,37.5665,126.978,20.0,0.0,,,,,,,3,12,37.5665,126.978,20.0,,,,0.0,0.0,HEARTBEAT,EKF3 IMU0 MAG0 initial yaw alignment complete,STABILIZE,,,
2026-07-06T16:35:34.000745+00:00,3.415818452835083,E1_global_position_int_negative,warmup,0,37.5665,126.978,20.0,0.0,37.5665,126.978,20.0,0.0,0.0,0,3,12,37.5665,126.978,20.0,0.0,0.0,0.05,0.0,0.0,GLOBAL_POSITION_INT,EKF3 IMU0 MAG0 initial yaw alignment complete,STABILIZE,,,
2026-07-06T16:35:34.001444+00:00,3.416522979736328,E1_global_position_int_negative,warmup,0,37.5665,126.978,20.0,0.0,,,,,,,3,12,37.5665,126.978,20.0,,,,0.0,0.0,GPS_RAW_INT,EKF3 IMU0 MAG0 initial yaw alignment complete,STABILIZE,,,
2026-07-06T16:35:34.202583+00:00,3.6176795959472656,E1_global_position_int_negative,warmup,0,37.5665,126.978,20.0,0.0,,,,,,,3,12,37.5665,126.978,20.0,,,,0.0,0.0,HEARTBEAT,EKF3 IMU0 MAG0 initial yaw alignment complete,STABILIZE,,,
2026-07-06T16:35:34.202738+00:00,3.617811918258667,E1_global_position_int_negative,warmup,0,37.5665,126.978,20.0,0.0,37.5665,126.978,20.0,0.0,0.0,0,3,12,37.5665,126.978,20.0,0.0,0.0,0.04,0.0,0.0,GLOBAL_POSITION_INT,EKF3 IMU0 MAG0 initial yaw alignment complete,STABILIZE,,,
2026-07-06T16:35:34.203148+00:00,3.61824893951416,E1_global_position_int_negative,warmup,0,37.5665,126.978,20.0,0.0,,,,,,,3,12,37.5665,126.978,20.0,,,,0.0,0.0,GPS_RAW_INT,EKF3 IMU0 MAG0 initial yaw alignment complete,STABILIZE,,,
2026-07-06T16:35:34.415335+00:00,3.8304316997528076,E1_global_position_int_negative,warmup,0,37.5665,126.978,20.0,0.0,,,,,,,3,12,37.5665,126.978,20.0,,,,0.0,0.0,HEARTBEAT,EKF3 IMU0 MAG0 initial yaw alignment complete,STABILIZE,,,
2026-07-06T16:35:34.415488+00:00,3.8305604457855225,E1_global_position_int_negative,warmup,0,37.5665,126.978,20.0,0.0,37.5665,126.978,20.0,0.0,0.0,0,3,12,37.5665,126.978,20.0,0.0,0.0,0.03,0.0,0.0,GLOBAL_POSITION_INT,EKF3 IMU0 MAG0 initial yaw alignment complete,STABILIZE,,,
2026-07-06T16:35:34.415870+00:00,3.83095121383667,E1_global_position_int_negative,warmup,0,37.5665,126.978,20.0,0.0,,,,,,,3,12,37.5665,126.978,20.0,,,,0.0,0.0,GPS_RAW_INT,EKF3 IMU0 MAG0 initial yaw alignment complete,STABILIZE,,,
2026-07-06T16:35:34.602042+00:00,4.017135858535767,E1_global_position_int_negative,warmup,0,37.5665,126.978,20.0,0.0,,,,,,,3,12,37.5665,126.978,20.0,,,,0.0,0.0,HEARTBEAT,EKF3 IMU0 MAG0 initial yaw alignment complete,STABILIZE,,,
2026-07-06T16:35:34.602210+00:00,4.017290115356445,E1_global_position_int_negative,warmup,0,37.5665,126.978,20.0,0.0,37.5665,126.978,20.0,0.0,0.0,0,3,12,37.5665,126.978,20.0,0.0,0.0,0.01,0.0,0.0,GLOBAL_POSITION_INT,EKF3 IMU0 MAG0 initial yaw alignment complete,STABILIZE,,,
2026-07-06T16:35:34.602756+00:00,4.017836809158325,E1_global_position_int_negative,warmup,0,37.5665,126.978,20.0,0.0,,,,,,,3,12,37.5665,126.978,20.0,,,,0.0,0.0,GPS_RAW_INT,EKF3 IMU0 MAG0 initial yaw alignment complete,STABILIZE,,,
2026-07-06T16:35:34.802904+00:00,4.217997312545776,E1_global_position_int_negative,warmup,0,37.5665,126.978,20.0,0.0,,,,,,,3,12,37.5665,126.978,20.0,,,,0.0,0.0,HEARTBEAT,EKF3 IMU0 MAG0 initial yaw alignment complete,STABILIZE,,,
2026-07-06T16:35:34.803149+00:00,4.218380451202393,E1_global_position_int_negative,warmup,0,37.5665,126.978,20.0,0.0,37.5665,126.978,20.0,0.0,0.0,0,3,12,37.5665,126.978,20.0,0.0,0.0,0.0,0.0,0.0,GLOBAL_POSITION_INT,EKF3 IMU0 MAG0 initial yaw alignment complete,STABILIZE,,,
2026-07-06T16:35:34.803875+00:00,4.218952894210815,E1_global_position_int_negative,warmup,0,37.5665,126.978,20.0,0.0,,,,,,,3,12,37.5665,126.978,20.0,,,,0.0,0.0,GPS_RAW_INT,EKF3 IMU0 MAG0 initial yaw alignment complete,STABILIZE,,,
2026-07-06T16:35:35.000325+00:00,4.4154181480407715,E1_global_position_int_negative,warmup,0,37.5665,126.978,20.0,0.0,,,,,,,3,12,37.5665,126.978,20.0,,,,0.0,0.0,HEARTBEAT,EKF3 IMU0 MAG0 initial yaw alignment complete,STABILIZE,,,
2026-07-06T16:35:35.000555+00:00,4.415635347366333,E1_global_position_int_negative,warmup,0,37.5665,126.978,20.0,0.0,37.5665,126.978,20.0,0.0,0.0,0,3,12,37.5665,126.978,20.0,0.0,0.0,0.0,0.0,0.0,GLOBAL_POSITION_INT,EKF3 IMU0 MAG0 initial yaw alignment complete,STABILIZE,,,
2026-07-06T16:35:35.001245+00:00,4.4163243770599365,E1_global_position_int_negative,warmup,0,37.5665,126.978,20.0,0.0,,,,,,,3,12,37.5665,126.978,20.0,,,,0.0,0.0,GPS_RAW_INT,EKF3 IMU0 MAG0 initial yaw alignment complete,STABILIZE,,,
2026-07-06T16:35:35.204791+00:00,4.619884967803955,E1_global_position_int_negative,warmup,0,37.5665,126.978,20.0,0.0,,,,,,,3,12,37.5665,126.978,20.0,,,,0.0,0.0,HEARTBEAT,EKF3 IMU0 MAG0 initial yaw alignment complete,STABILIZE,,,
2026-07-06T16:35:35.205050+00:00,4.620128154754639,E1_global_position_int_negative,warmup,0,37.5665,126.978,20.0,0.0,37.5665,126.978,20.0,0.0,0.0,0,3,12,37.5665,126.978,20.0,0.0,0.0,0.0,0.0,0.0,GLOBAL_POSITION_INT,EKF3 IMU0 MAG0 initial yaw alignment complete,STABILIZE,,,
2026-07-06T16:35:35.206255+00:00,4.621338844299316,E1_global_position_int_negative,warmup,0,37.5665,126.978,20.0,0.0,,,,,,,3,12,37.5665,126.978,20.0,,,,0.0,0.0,GPS_RAW_INT,EKF3 IMU0 MAG0 initial yaw alignment complete,STABILIZE,,,
2026-07-06T16:35:35.401796+00:00,4.816888093948364,E1_global_position_int_negative,warmup,0,37.5665,126.978,20.0,0.0,,,,,,,3,12,37.5665,126.978,20.0,,,,0.0,0.0,HEARTBEAT,EKF3 IMU0 MAG0 initial yaw alignment complete,STABILIZE,,,
2026-07-06T16:35:35.401944+00:00,4.8170177936553955,E1_global_position_int_negative,warmup,0,37.5665,126.978,20.0,0.0,37.5665,126.978,20.0,0.0,0.0,0,3,12,37.5665,126.978,20.0,0.0,0.0,-0.01,0.0,0.0,GLOBAL_POSITION_INT,EKF3 IMU0 MAG0 initial yaw alignment complete,STABILIZE,,,
2026-07-06T16:35:35.402277+00:00,4.817351579666138,E1_global_position_int_negative,warmup,0,37.5665,126.978,20.0,0.0,,,,,,,3,12,37.5665,126.978,20.0,,,,0.0,0.0,GPS_RAW_INT,EKF3 IMU0 MAG0 initial yaw alignment complete,STABILIZE,,,
2026-07-06T16:35:35.602657+00:00,5.017752170562744,E1_global_position_int_negative,warmup,0,37.5665,126.978,20.0,0.0,,,,,,,3,12,37.5665,126.978,20.0,,,,0.0,0.0,HEARTBEAT,EKF3 IMU0 MAG0 initial yaw alignment complete,STABILIZE,,,
2026-07-06T16:35:35.603239+00:00,5.0183234214782715,E1_global_position_int_negative,warmup,0,37.5665,126.978,20.0,0.0,37.5665,126.978,20.0,0.0,0.0,0,3,12,37.5665,126.978,20.0,0.0,0.0,-0.02,0.0,0.0,GLOBAL_POSITION_INT,EKF3 IMU0 MAG0 initial yaw alignment complete,STABILIZE,,,
2026-07-06T16:35:35.603729+00:00,5.018808364868164,E1_global_position_int_negative,warmup,0,37.5665,126.978,20.0,0.0,,,,,,,3,12,37.5665,126.978,20.0,,,,0.0,0.0,GPS_RAW_INT,EKF3 IMU0 MAG0 initial yaw alignment complete,STABILIZE,,,
2026-07-06T16:35:35.798875+00:00,5.213970184326172,E1_global_position_int_negative,warmup,0,37.5665,126.978,20.0,0.0,,,,,,,3,12,37.5665,126.978,20.0,,,,0.0,0.0,HEARTBEAT,EKF3 IMU0 MAG0 initial yaw alignment complete,STABILIZE,,,
2026-07-06T16:35:35.799027+00:00,5.2141008377075195,E1_global_position_int_negative,warmup,0,37.5665,126.978,20.0,0.0,37.5665,126.978,20.0,0.0,0.0,0,3,12,37.5665,126.978,20.0,0.0,0.0,-0.02,0.0,0.0,GLOBAL_POSITION_INT,EKF3 IMU0 MAG0 initial yaw alignment complete,STABILIZE,,,
2026-07-06T16:35:35.799580+00:00,5.214658975601196,E1_global_position_int_negative,warmup,0,37.5665,126.978,20.0,0.0,,,,,,,3,12,37.5665,126.978,20.0,,,,0.0,0.0,GPS_RAW_INT,EKF3 IMU0 MAG0 initial yaw alignment complete,STABILIZE,,,
2026-07-06T16:35:36.000781+00:00,5.415877103805542,E1_global_position_int_negative,warmup,0,37.5665,126.978,20.0,0.0,,,,,,,3,12,37.5665,126.978,20.0,,,,0.0,0.0,HEARTBEAT,EKF3 IMU0 MAG0 initial yaw alignment complete,STABILIZE,,,
2026-07-06T16:35:36.000991+00:00,5.416070461273193,E1_global_position_int_negative,warmup,0,37.5665,126.978,20.0,0.0,37.5665,126.978,20.0,0.0,0.0,0,3,12,37.5665,126.978,20.0,0.0,0.0,-0.03,0.0,0.0,GLOBAL_POSITION_INT,EKF3 IMU0 MAG0 initial yaw alignment complete,STABILIZE,,,
2026-07-06T16:35:36.001319+00:00,5.416393518447876,E1_global_position_int_negative,warmup,0,37.5665,126.978,20.0,0.0,,,,,,,3,12,37.5665,126.978,20.0,,,,0.0,0.0,GPS_RAW_INT,EKF3 IMU0 MAG0 initial yaw alignment complete,STABILIZE,,,
2026-07-06T16:35:36.202893+00:00,5.617981672286987,E1_global_position_int_negative,injection,1,37.56650635201923,126.97800801368734,20.0,0.9988764305990786,,,,,,,3,12,37.5665,126.978,20.0,,,,2.0,4.0,HEARTBEAT,EKF3 IMU0 MAG0 initial yaw alignment complete,STABILIZE,,,
2026-07-06T16:35:36.203029+00:00,5.61810040473938,E1_global_position_int_negative,injection,1,37.56650635201923,126.97800801368734,20.0,0.9988764305990786,37.5665,126.978,20.0,0.0,0.9988764305990786,0,3,12,37.5665,126.978,20.0,0.0,0.0,-0.03,2.0,4.0,GLOBAL_POSITION_INT,EKF3 IMU0 MAG0 initial yaw alignment complete,STABILIZE,,,
2026-07-06T16:35:36.203346+00:00,5.618416786193848,E1_global_position_int_negative,injection,1,37.56650635201923,126.97800801368734,20.0,0.9988764305990786,,,,,,,3,12,37.5665,126.978,20.0,,,,2.0,4.0,GPS_RAW_INT,EKF3 IMU0 MAG0 initial yaw alignment complete,STABILIZE,,,
2026-07-06T16:35:36.404405+00:00,5.819504261016846,E1_global_position_int_negative,injection,1,37.56650635201923,126.97800801368734,20.0,0.9988764305990786,,,,,,,3,12,37.5665,126.978,20.0,,,,2.0,4.0,HEARTBEAT,EKF3 IMU0 MAG0 initial yaw alignment complete,STABILIZE,,,
2026-07-06T16:35:36.404622+00:00,5.819697141647339,E1_global_position_int_negative,injection,1,37.56650635201923,126.97800801368734,20.0,0.9988764305990786,37.5665,126.978,20.0,0.0,0.9988764305990786,0,3,12,37.5665,126.978,20.0,0.0,0.0,-0.03,2.0,4.0,GLOBAL_POSITION_INT,EKF3 IMU0 MAG0 initial yaw alignment complete,STABILIZE,,,
2026-07-06T16:35:36.404943+00:00,5.820016860961914,E1_global_position_int_negative,injection,1,37.56650635201923,126.97800801368734,20.0,0.9988764305990786,,,,,,,3,12,37.5665,126.978,20.0,,,,2.0,4.0,GPS_RAW_INT,EKF3 IMU0 MAG0 initial yaw alignment complete,STABILIZE,,,
2026-07-06T16:35:35.387605+00:00,4.802701234817505,E1_global_position_int_negative,injection,1,37.56650635201923,126.97800801368734,20.0,0.9988764305990786,,,,,,,3,12,37.5665,126.978,20.0,,,,2.0,4.0,HEARTBEAT,EKF3 IMU0 MAG0 initial yaw alignment complete,STABILIZE,,,
2026-07-06T16:35:35.387771+00:00,4.802846193313599,E1_global_position_int_negative,injection,1,37.56650635201923,126.97800801368734,20.0,0.9988764305990786,37.5665,126.978,20.0,0.0,0.9988764305990786,0,3,12,37.5665,126.978,20.0,0.0,0.0,-0.04,2.0,4.0,GLOBAL_POSITION_INT,EKF3 IMU0 MAG0 initial yaw alignment complete,STABILIZE,,,
2026-07-06T16:35:35.388168+00:00,4.803248643875122,E1_global_position_int_negative,injection,1,37.56650635201923,126.97800801368734,20.0,0.9988764305990786,,,,,,,3,12,37.5665,126.978,20.0,,,,2.0,4.0,GPS_RAW_INT,EKF3 IMU0 MAG0 initial yaw alignment complete,STABILIZE,,,
2026-07-06T16:35:35.592964+00:00,5.008054494857788,E1_global_position_int_negative,injection,1,37.56650635201923,126.97800801368734,20.0,0.9988764305990786,,,,,,,3,12,37.5665,126.978,20.0,,,,2.0,4.0,HEARTBEAT,EKF3 IMU0 MAG0 initial yaw alignment complete,STABILIZE,,,
2026-07-06T16:35:35.598890+00:00,5.013981342315674,E1_global_position_int_negative,injection,1,37.56650635201923,126.97800801368734,20.0,0.9988764305990786,37.5665,126.978,20.0,0.0,0.9988764305990786,0,3,12,37.5665,126.978,20.0,0.0,0.0,-0.04,2.0,4.0,GLOBAL_POSITION_INT,EKF3 IMU0 MAG0 initial yaw alignment complete,STABILIZE,,,
2026-07-06T16:35:35.599301+00:00,5.014378309249878,E1_global_position_int_negative,injection,1,37.56650635201923,126.97800801368734,20.0,0.9988764305990786,,,,,,,3,12,37.5665,126.978,20.0,,,,2.0,4.0,GPS_RAW_INT,EKF3 IMU0 MAG0 initial yaw alignment complete,STABILIZE,,,
2026-07-06T16:35:35.783700+00:00,5.198793411254883,E1_global_position_int_negative,injection,1,37.56650635201923,126.97800801368734,20.0,0.9988764305990786,,,,,,,3,12,37.5665,126.978,20.0,,,,2.0,4.0,HEARTBEAT,EKF3 IMU0 MAG0 initial yaw alignment complete,STABILIZE,,,
2026-07-06T16:35:35.783857+00:00,5.198929309844971,E1_global_position_int_negative,injection,1,37.56650635201923,126.97800801368734,20.0,0.9988764305990786,37.5665,126.978,20.0,0.0,0.9988764305990786,0,3,12,37.5665,126.978,20.0,0.0,0.0,-0.04,2.0,4.0,GLOBAL_POSITION_INT,EKF3 IMU0 MAG0 initial yaw alignment complete,STABILIZE,,,
2026-07-06T16:35:35.784199+00:00,5.199273586273193,E1_global_position_int_negative,injection,1,37.56650635201923,126.97800801368734,20.0,0.9988764305990786,,,,,,,3,12,37.5665,126.978,20.0,,,,2.0,4.0,GPS_RAW_INT,EKF3 IMU0 MAG0 initial yaw alignment complete,STABILIZE,,,
2026-07-06T16:35:35.983941+00:00,5.399040699005127,E1_global_position_int_negative,injection,1,37.56650635201923,126.97800801368734,20.0,0.9988764305990786,,,,,,,3,12,37.5665,126.978,20.0,,,,2.0,4.0,HEARTBEAT,EKF3 IMU0 MAG0 initial yaw alignment complete,STABILIZE,,,
2026-07-06T16:35:35.984118+00:00,5.399196147918701,E1_global_position_int_negative,injection,1,37.56650635201923,126.97800801368734,20.0,0.9988764305990786,37.5665,126.978,20.0,0.0,0.9988764305990786,0,3,12,37.5665,126.978,20.0,0.0,0.0,-0.04,2.0,4.0,GLOBAL_POSITION_INT,EKF3 IMU0 MAG0 initial yaw alignment complete,STABILIZE,,,
2026-07-06T16:35:35.984493+00:00,5.399572372436523,E1_global_position_int_negative,injection,1,37.56650635201923,126.97800801368734,20.0,0.9988764305990786,,,,,,,3,12,37.5665,126.978,20.0,,,,2.0,4.0,GPS_RAW_INT,EKF3 IMU0 MAG0 initial yaw alignment complete,STABILIZE,,,
2026-07-06T16:35:36.184672+00:00,5.599769115447998,E1_global_position_int_negative,injection,1,37.56650635201923,126.97800801368734,20.0,0.9988764305990786,,,,,,,3,12,37.5665,126.978,20.0,,,,2.0,4.0,HEARTBEAT,EKF3 IMU0 MAG0 initial yaw alignment complete,STABILIZE,,,
2026-07-06T16:35:36.184820+00:00,5.599892616271973,E1_global_position_int_negative,injection,1,37.56650635201923,126.97800801368734,20.0,0.9988764305990786,37.5665,126.978,20.0,0.0,0.9988764305990786,0,3,12,37.5665,126.978,20.0,0.0,0.0,-0.04,2.0,4.0,GLOBAL_POSITION_INT,EKF3 IMU0 MAG0 initial yaw alignment complete,STABILIZE,,,
2026-07-06T16:35:36.185147+00:00,5.600223779678345,E1_global_position_int_negative,injection,1,37.56650635201923,126.97800801368734,20.0,0.9988764305990786,,,,,,,3,12,37.5665,126.978,20.0,,,,2.0,4.0,GPS_RAW_INT,EKF3 IMU0 MAG0 initial yaw alignment complete,STABILIZE,,,
2026-07-06T16:35:36.388954+00:00,5.804047346115112,E1_global_position_int_negative,injection,1,37.56650635201923,126.97800801368734,20.0,0.9988764305990786,,,,,,,3,12,37.5665,126.978,20.0,,,,2.0,4.0,HEARTBEAT,EKF3 IMU0 MAG0 initial yaw alignment complete,STABILIZE,,,
2026-07-06T16:35:36.389114+00:00,5.804186820983887,E1_global_position_int_negative,injection,1,37.56650635201923,126.97800801368734,20.0,0.9988764305990786,37.5665,126.978,20.0,0.0,0.9988764305990786,0,3,12,37.5665,126.978,20.0,0.0,0.0,-0.04,2.0,4.0,GLOBAL_POSITION_INT,EKF3 IMU0 MAG0 initial yaw alignment complete,STABILIZE,,,
2026-07-06T16:35:36.391584+00:00,5.807038307189941,E1_global_position_int_negative,injection,1,37.56650635201923,126.97800801368734,20.0,0.9988764305990786,,,,,,,3,12,37.5665,126.978,20.0,,,,2.0,4.0,GPS_RAW_INT,EKF3 IMU0 MAG0 initial yaw alignment complete,STABILIZE,,,
2026-07-06T16:35:36.589370+00:00,6.0044708251953125,E1_global_position_int_negative,injection,2,37.566512704038466,126.9780160273747,20.0,1.997752818609409,,,,,,,3,12,37.5665,126.978,20.0,,,,2.0,0.0,HEARTBEAT,EKF3 IMU0 MAG0 initial yaw alignment complete,STABILIZE,,,
2026-07-06T16:35:36.589646+00:00,6.004769802093506,E1_global_position_int_negative,injection,2,37.566512704038466,126.9780160273747,20.0,1.997752818609409,37.5665,126.978,20.0,0.0,1.997752818609409,0,3,12,37.5665,126.978,20.0,0.0,0.0,-0.04,2.0,0.0,GLOBAL_POSITION_INT,EKF3 IMU0 MAG0 initial yaw alignment complete,STABILIZE,,,
2026-07-06T16:35:36.590126+00:00,6.005204439163208,E1_global_position_int_negative,injection,2,37.566512704038466,126.9780160273747,20.0,1.997752818609409,,,,,,,3,12,37.5665,126.978,20.0,,,,2.0,0.0,GPS_RAW_INT,EKF3 IMU0 MAG0 initial yaw alignment complete,STABILIZE,,,
2026-07-06T16:35:36.785023+00:00,6.20012092590332,E1_global_position_int_negative,injection,2,37.566512704038466,126.9780160273747,20.0,1.997752818609409,,,,,,,3,12,37.5665,126.978,20.0,,,,2.0,0.0,HEARTBEAT,EKF3 IMU0 MAG0 initial yaw alignment complete,STABILIZE,,,
2026-07-06T16:35:36.785204+00:00,6.200278997421265,E1_global_position_int_negative,injection,2,37.566512704038466,126.9780160273747,20.0,1.997752818609409,37.5665,126.978,20.0,0.0,1.997752818609409,0,3,12,37.5665,126.978,20.0,0.0,0.0,-0.04,2.0,0.0,GLOBAL_POSITION_INT,EKF3 IMU0 MAG0 initial yaw alignment complete,STABILIZE,,,
2026-07-06T16:35:36.785558+00:00,6.200631856918335,E1_global_position_int_negative,injection,2,37.566512704038466,126.9780160273747,20.0,1.997752818609409,,,,,,,3,12,37.5665,126.978,20.0,,,,2.0,0.0,GPS_RAW_INT,EKF3 IMU0 MAG0 initial yaw alignment complete,STABILIZE,,,
2026-07-06T16:35:36.991009+00:00,6.406107187271118,E1_global_position_int_negative,injection,2,37.566512704038466,126.9780160273747,20.0,1.997752818609409,,,,,,,3,12,37.5665,126.978,20.0,,,,2.0,0.0,HEARTBEAT,EKF3 IMU0 MAG0 initial yaw alignment complete,STABILIZE,,,
2026-07-06T16:35:36.991175+00:00,6.406247615814209,E1_global_position_int_negative,injection,2,37.566512704038466,126.9780160273747,20.0,1.997752818609409,37.5665,126.978,20.0,0.0,1.997752818609409,0,3,12,37.5665,126.978,20.0,0.0,0.0,-0.03,2.0,0.0,GLOBAL_POSITION_INT,EKF3 IMU0 MAG0 initial yaw alignment complete,STABILIZE,,,
2026-07-06T16:35:36.991835+00:00,6.406916618347168,E1_global_position_int_negative,injection,2,37.566512704038466,126.9780160273747,20.0,1.997752818609409,,,,,,,3,12,37.5665,126.978,20.0,,,,2.0,0.0,GPS_RAW_INT,EKF3 IMU0 MAG0 initial yaw alignment complete,STABILIZE,,,
2026-07-06T16:35:37.184499+00:00,6.599592208862305,E1_global_position_int_negative,injection,3,37.5665190560577,126.97802404106206,20.0,2.9966291649166483,,,,,,,3,12,37.5665,126.978,20.0,,,,2.0,4.440892098500626e-16,HEARTBEAT,EKF3 IMU0 MAG0 initial yaw alignment complete,STABILIZE,,,
2026-07-06T16:35:37.184656+00:00,6.5997278690338135,E1_global_position_int_negative,injection,3,37.5665190560577,126.97802404106206,20.0,2.9966291649166483,37.5665,126.978,20.0,0.0,2.9966291649166483,0,3,12,37.5665,126.978,20.0,0.0,0.0,-0.03,2.0,4.440892098500626e-16,GLOBAL_POSITION_INT,EKF3 IMU0 MAG0 initial yaw alignment complete,STABILIZE,,,
2026-07-06T16:35:37.185025+00:00,6.600106716156006,E1_global_position_int_negative,injection,3,37.5665190560577,126.97802404106206,20.0,2.9966291649166483,,,,,,,3,12,37.5665,126.978,20.0,,,,2.0,4.440892098500626e-16,GPS_RAW_INT,EKF3 IMU0 MAG0 initial yaw alignment complete,STABILIZE,,,
2026-07-06T16:35:37.397837+00:00,6.812933921813965,E1_global_position_int_negative,injection,3,37.5665190560577,126.97802404106206,20.0,2.9966291649166483,,,,,,,3,12,37.5665,126.978,20.0,,,,2.0,4.440892098500626e-16,HEARTBEAT,EKF3 IMU0 MAG0 initial yaw alignment complete,STABILIZE,,,
2026-07-06T16:35:37.398009+00:00,6.813087463378906,E1_global_position_int_negative,injection,3,37.5665190560577,126.97802404106206,20.0,2.9966291649166483,37.5665,126.978,20.0,0.0,2.9966291649166483,0,3,12,37.5665,126.978,20.0,0.0,0.0,-0.03,2.0,4.440892098500626e-16,GLOBAL_POSITION_INT,EKF3 IMU0 MAG0 initial yaw alignment complete,STABILIZE,,,
2026-07-06T16:35:37.398373+00:00,6.813448429107666,E1_global_position_int_negative,injection,3,37.5665190560577,126.97802404106206,20.0,2.9966291649166483,,,,,,,3,12,37.5665,126.978,20.0,,,,2.0,4.440892098500626e-16,GPS_RAW_INT,EKF3 IMU0 MAG0 initial yaw alignment complete,STABILIZE,,,
2026-07-06T16:35:37.597335+00:00,7.012540817260742,E1_global_position_int_negative,injection,3,37.5665190560577,126.97802404106206,20.0,2.9966291649166483,,,,,,,3,12,37.5665,126.978,20.0,,,,2.0,4.440892098500626e-16,HEARTBEAT,EKF3 IMU0 MAG0 initial yaw alignment complete,STABILIZE,,,
2026-07-06T16:35:37.597755+00:00,7.012829303741455,E1_global_position_int_negative,injection,4,37.566525408076934,126.9780320547494,20.0,3.9955054677494575,37.5665,126.978,20.0,0.0,3.9955054677494575,0,3,12,37.5665,126.978,20.0,0.0,0.0,-0.03,1.9999999999999998,8.881784197001252e-16,GLOBAL_POSITION_INT,EKF3 IMU0 MAG0 initial yaw alignment complete,STABILIZE,,,
2026-07-06T16:35:37.598151+00:00,7.013228416442871,E1_global_position_int_negative,injection,4,37.566525408076934,126.9780320547494,20.0,3.9955054677494575,,,,,,,3,12,37.5665,126.978,20.0,,,,1.9999999999999998,8.881784197001252e-16,GPS_RAW_INT,EKF3 IMU0 MAG0 initial yaw alignment complete,STABILIZE,,,
2026-07-06T16:35:37.791689+00:00,7.206779718399048,E1_global_position_int_negative,injection,4,37.566525408076934,126.9780320547494,20.0,3.9955054677494575,,,,,,,3,12,37.5665,126.978,20.0,,,,1.9999999999999998,8.881784197001252e-16,HEARTBEAT,EKF3 IMU0 MAG0 initial yaw alignment complete,STABILIZE,,,
2026-07-06T16:35:37.791836+00:00,7.2069091796875,E1_global_position_int_negative,injection,4,37.566525408076934,126.9780320547494,20.0,3.9955054677494575,37.5665,126.978,20.0,0.0,3.9955054677494575,0,3,12,37.5665,126.978,20.0,0.0,0.0,-0.03,1.9999999999999998,8.881784197001252e-16,GLOBAL_POSITION_INT,EKF3 IMU0 MAG0 initial yaw alignment complete,STABILIZE,,,
2026-07-06T16:35:37.792210+00:00,7.207288503646851,E1_global_position_int_negative,injection,4,37.566525408076934,126.9780320547494,20.0,3.9955054677494575,,,,,,,3,12,37.5665,126.978,20.0,,,,1.9999999999999998,8.881784197001252e-16,GPS_RAW_INT,EKF3 IMU0 MAG0 initial yaw alignment complete,STABILIZE,,,
2026-07-06T16:35:37.991468+00:00,7.406570672988892,E1_global_position_int_negative,injection,4,37.566525408076934,126.9780320547494,20.0,3.9955054677494575,,,,,,,3,12,37.5665,126.978,20.0,,,,1.9999999999999998,8.881784197001252e-16,HEARTBEAT,EKF3 IMU0 MAG0 initial yaw alignment complete,STABILIZE,,,
2026-07-06T16:35:37.991669+00:00,7.4067466259002686,E1_global_position_int_negative,injection,4,37.566525408076934,126.9780320547494,20.0,3.9955054677494575,37.5665,126.978,20.0,0.0,3.9955054677494575,0,3,12,37.5665,126.978,20.0,0.0,0.0,-0.03,1.9999999999999998,8.881784197001252e-16,GLOBAL_POSITION_INT,EKF3 IMU0 MAG0 initial yaw alignment complete,STABILIZE,,,
2026-07-06T16:35:37.992080+00:00,7.407157897949219,E1_global_position_int_negative,injection,4,37.566525408076934,126.9780320547494,20.0,3.9955054677494575,,,,,,,3,12,37.5665,126.978,20.0,,,,1.9999999999999998,8.881784197001252e-16,GPS_RAW_INT,EKF3 IMU0 MAG0 initial yaw alignment complete,STABILIZE,,,
2026-07-06T16:35:38.191084+00:00,7.606178045272827,E1_global_position_int_negative,injection,5,37.56653176009617,126.97804006843675,20.0,4.994381727993494,,,,,,,3,12,37.5665,126.978,20.0,,,,1.9999999999999998,0.0,HEARTBEAT,EKF3 IMU0 MAG0 initial yaw alignment complete,STABILIZE,,,
2026-07-06T16:35:38.191247+00:00,7.60632061958313,E1_global_position_int_negative,injection,5,37.56653176009617,126.97804006843675,20.0,4.994381727993494,37.5665,126.978,20.0,0.0,4.994381727993494,0,3,12,37.5665,126.978,20.0,0.0,0.0,-0.03,1.9999999999999998,0.0,GLOBAL_POSITION_INT,EKF3 IMU0 MAG0 initial yaw alignment complete,STABILIZE,,,
2026-07-06T16:35:38.191611+00:00,7.606685161590576,E1_global_position_int_negative,injection,5,37.56653176009617,126.97804006843675,20.0,4.994381727993494,,,,,,,3,12,37.5665,126.978,20.0,,,,1.9999999999999998,0.0,GPS_RAW_INT,EKF3 IMU0 MAG0 initial yaw alignment complete,STABILIZE,,,
2026-07-06T16:35:38.393608+00:00,7.808703184127808,E1_global_position_int_negative,injection,5,37.56653176009617,126.97804006843675,20.0,4.994381727993494,,,,,,,3,12,37.5665,126.978,20.0,,,,1.9999999999999998,0.0,HEARTBEAT,EKF3 IMU0 MAG0 initial yaw alignment complete,STABILIZE,,,
2026-07-06T16:35:38.393779+00:00,7.808852195739746,E1_global_position_int_negative,injection,5,37.56653176009617,126.97804006843675,20.0,4.994381727993494,37.5665,126.978,20.0,0.0,4.994381727993494,0,3,12,37.5665,126.978,20.0,0.0,0.0,-0.03,1.9999999999999998,0.0,GLOBAL_POSITION_INT,EKF3 IMU0 MAG0 initial yaw alignment complete,STABILIZE,,,
2026-07-06T16:35:38.394144+00:00,7.80922269821167,E1_global_position_int_negative,injection,5,37.56653176009617,126.97804006843675,20.0,4.994381727993494,,,,,,,3,12,37.5665,126.978,20.0,,,,1.9999999999999998,0.0,GPS_RAW_INT,EKF3 IMU0 MAG0 initial yaw alignment complete,STABILIZE,,,
2026-07-06T16:35:38.595652+00:00,8.010748147964478,E1_global_position_int_negative,injection,5,37.56653176009617,126.97804006843675,20.0,4.994381727993494,,,,,,,3,12,37.5665,126.978,20.0,,,,1.9999999999999998,0.0,HEARTBEAT,EKF3 IMU0 MAG0 initial yaw alignment complete,STABILIZE,,,
2026-07-06T16:35:38.595823+00:00,8.010896682739258,E1_global_position_int_negative,injection,5,37.56653176009617,126.97804006843675,20.0,4.994381727993494,37.5665,126.978,20.0,0.0,4.994381727993494,0,3,12,37.5665,126.978,20.0,0.0,0.0,-0.02,1.9999999999999998,0.0,GLOBAL_POSITION_INT,EKF3 IMU0 MAG0 initial yaw alignment complete,STABILIZE,,,
2026-07-06T16:35:38.596155+00:00,8.011230230331421,E1_global_position_int_negative,injection,5,37.56653176009617,126.97804006843675,20.0,4.994381727993494,,,,,,,3,12,37.5665,126.978,20.0,,,,1.9999999999999998,0.0,GPS_RAW_INT,EKF3 IMU0 MAG0 initial yaw alignment complete,STABILIZE,,,
2026-07-06T16:35:38.796345+00:00,8.21144151687622,E1_global_position_int_negative,injection,6,37.5665381121154,126.9780480821241,20.0,5.993257945648749,,,,,,,3,12,37.5665,126.978,20.0,,,,2.0000000000000004,1.7763568394002505e-15,HEARTBEAT,EKF3 IMU0 MAG0 initial yaw alignment complete,STABILIZE,,,
2026-07-06T16:35:38.796514+00:00,8.211585760116577,E1_global_position_int_negative,injection,6,37.5665381121154,126.9780480821241,20.0,5.993257945648749,37.5665,126.978,20.0,0.0,5.993257945648749,0,3,12,37.5665,126.978,20.0,0.0,0.0,-0.02,2.0000000000000004,1.7763568394002505e-15,GLOBAL_POSITION_INT,EKF3 IMU0 MAG0 initial yaw alignment complete,STABILIZE,,,
2026-07-06T16:35:38.796844+00:00,8.211919784545898,E1_global_position_int_negative,injection,6,37.5665381121154,126.9780480821241,20.0,5.993257945648749,,,,,,,3,12,37.5665,126.978,20.0,,,,2.0000000000000004,1.7763568394002505e-15,GPS_RAW_INT,EKF3 IMU0 MAG0 initial yaw alignment complete,STABILIZE,,,
2026-07-06T16:35:38.993767+00:00,8.408895492553711,E1_global_position_int_negative,injection,6,37.5665381121154,126.9780480821241,20.0,5.993257945648749,,,,,,,3,12,37.5665,126.978,20.0,,,,2.0000000000000004,1.7763568394002505e-15,HEARTBEAT,EKF3 IMU0 MAG0 initial yaw alignment complete,STABILIZE,,,
2026-07-06T16:35:38.994104+00:00,8.409186363220215,E1_global_position_int_negative,injection,6,37.5665381121154,126.9780480821241,20.0,5.993257945648749,37.5665,126.978,20.0,0.0,5.993257945648749,0,3,12,37.5665,126.978,20.0,0.0,0.0,-0.02,2.0000000000000004,1.7763568394002505e-15,GLOBAL_POSITION_INT,EKF3 IMU0 MAG0 initial yaw alignment complete,STABILIZE,,,
2026-07-06T16:35:38.996214+00:00,8.411296606063843,E1_global_position_int_negative,injection,6,37.5665381121154,126.9780480821241,20.0,5.993257945648749,,,,,,,3,12,37.5665,126.978,20.0,,,,2.0000000000000004,1.7763568394002505e-15,GPS_RAW_INT,EKF3 IMU0 MAG0 initial yaw alignment complete,STABILIZE,,,
2026-07-06T16:35:39.198896+00:00,8.614038944244385,E1_global_position_int_negative,injection,6,37.5665381121154,126.9780480821241,20.0,5.993257945648749,,,,,,,3,12,37.5665,126.978,20.0,,,,2.0000000000000004,1.7763568394002505e-15,HEARTBEAT,EKF3 IMU0 MAG0 initial yaw alignment complete,STABILIZE,,,
2026-07-06T16:35:39.200230+00:00,8.615316152572632,E1_global_position_int_negative,injection,7,37.56654446413464,126.97805609581145,20.0,6.992134120715214,37.5665,126.978,20.0,0.0,6.992134120715214,0,3,12,37.5665,126.978,20.0,0.0,0.0,-0.02,1.9999999999999984,3.972054645195637e-15,GLOBAL_POSITION_INT,EKF3 IMU0 MAG0 initial yaw alignment complete,STABILIZE,,,
2026-07-06T16:35:39.201024+00:00,8.61610746383667,E1_global_position_int_negative,injection,7,37.56654446413464,126.97805609581145,20.0,6.992134120715214,,,,,,,3,12,37.5665,126.978,20.0,,,,1.9999999999999984,3.972054645195637e-15,GPS_RAW_INT,EKF3 IMU0 MAG0 initial yaw alignment complete,STABILIZE,,,
2026-07-06T16:35:39.403601+00:00,8.818694591522217,E1_global_position_int_negative,injection,7,37.56654446413464,126.97805609581145,20.0,6.992134120715214,,,,,,,3,12,37.5665,126.978,20.0,,,,1.9999999999999984,3.972054645195637e-15,HEARTBEAT,EKF3 IMU0 MAG0 initial yaw alignment complete,STABILIZE,,,
2026-07-06T16:35:39.403754+00:00,8.818826675415039,E1_global_position_int_negative,injection,7,37.56654446413464,126.97805609581145,20.0,6.992134120715214,37.5665,126.978,20.0,0.0,6.992134120715214,0,3,12,37.5665,126.978,20.0,0.0,0.0,-0.02,1.9999999999999984,3.972054645195637e-15,GLOBAL_POSITION_INT,EKF3 IMU0 MAG0 initial yaw alignment complete,STABILIZE,,,
2026-07-06T16:35:39.404649+00:00,8.819735527038574,E1_global_position_int_negative,injection,7,37.56654446413464,126.97805609581145,20.0,6.992134120715214,,,,,,,3,12,37.5665,126.978,20.0,,,,1.9999999999999984,3.972054645195637e-15,GPS_RAW_INT,EKF3 IMU0 MAG0 initial yaw alignment complete,STABILIZE,,,
2026-07-06T16:35:39.598108+00:00,9.013202667236328,E1_global_position_int_negative,injection,7,37.56654446413464,126.97805609581145,20.0,6.992134120715214,,,,,,,3,12,37.5665,126.978,20.0,,,,1.9999999999999984,3.972054645195637e-15,HEARTBEAT,EKF3 IMU0 MAG0 initial yaw alignment complete,STABILIZE,,,
2026-07-06T16:35:39.598386+00:00,9.01347827911377,E1_global_position_int_negative,injection,7,37.56654446413464,126.97805609581145,20.0,6.992134120715214,37.5665,126.978,20.0,0.0,6.992134120715214,0,3,12,37.5665,126.978,20.0,0.0,0.0,-0.02,1.9999999999999984,3.972054645195637e-15,GLOBAL_POSITION_INT,EKF3 IMU0 MAG0 initial yaw alignment complete,STABILIZE,,,
2026-07-06T16:35:39.598875+00:00,9.013957500457764,E1_global_position_int_negative,injection,7,37.56654446413464,126.97805609581145,20.0,6.992134120715214,,,,,,,3,12,37.5665,126.978,20.0,,,,1.9999999999999984,3.972054645195637e-15,GPS_RAW_INT,EKF3 IMU0 MAG0 initial yaw alignment complete,STABILIZE,,,
2026-07-06T16:35:39.814866+00:00,9.22996187210083,E1_global_position_int_negative,injection,8,37.56655081615387,126.9780641094988,20.0,7.991010253192881,,,,,,,3,12,37.5665,126.978,20.0,,,,2.000000000000001,5.0242958677880805e-15,HEARTBEAT,EKF3 IMU0 MAG0 initial yaw alignment complete,STABILIZE,,,
2026-07-06T16:35:39.815027+00:00,9.230099439620972,E1_global_position_int_negative,injection,8,37.56655081615387,126.9780641094988,20.0,7.991010253192881,37.5665,126.978,20.0,0.0,7.991010253192881,0,3,12,37.5665,126.978,20.0,0.0,0.0,-0.02,2.000000000000001,5.0242958677880805e-15,GLOBAL_POSITION_INT,EKF3 IMU0 MAG0 initial yaw alignment complete,STABILIZE,,,
2026-07-06T16:35:39.815426+00:00,9.23050594329834,E1_global_position_int_negative,injection,8,37.56655081615387,126.9780641094988,20.0,7.991010253192881,,,,,,,3,12,37.5665,126.978,20.0,,,,2.000000000000001,5.0242958677880805e-15,GPS_RAW_INT,EKF3 IMU0 MAG0 initial yaw alignment complete,STABILIZE,,,
2026-07-06T16:35:39.993743+00:00,9.408838272094727,E1_global_position_int_negative,injection,8,37.56655081615387,126.9780641094988,20.0,7.991010253192881,,,,,,,3,12,37.5665,126.978,20.0,,,,2.000000000000001,5.0242958677880805e-15,HEARTBEAT,EKF3 IMU0 MAG0 initial yaw alignment complete,STABILIZE,,,
2026-07-06T16:35:39.993907+00:00,9.408980369567871,E1_global_position_int_negative,injection,8,37.56655081615387,126.9780641094988,20.0,7.991010253192881,37.5665,126.978,20.0,0.0,7.991010253192881,0,3,12,37.5665,126.978,20.0,0.0,0.0,-0.02,2.000000000000001,5.0242958677880805e-15,GLOBAL_POSITION_INT,EKF3 IMU0 MAG0 initial yaw alignment complete,STABILIZE,,,
2026-07-06T16:35:39.994260+00:00,9.409334897994995,E1_global_position_int_negative,injection,8,37.56655081615387,126.9780641094988,20.0,7.991010253192881,,,,,,,3,12,37.5665,126.978,20.0,,,,2.000000000000001,5.0242958677880805e-15,GPS_RAW_INT,EKF3 IMU0 MAG0 initial yaw alignment complete,STABILIZE,,,
2026-07-06T16:35:40.196284+00:00,9.611380577087402,E1_global_position_int_negative,injection,8,37.56655081615387,126.9780641094988,20.0,7.991010253192881,,,,,,,3,12,37.5665,126.978,20.0,,,,2.000000000000001,5.0242958677880805e-15,HEARTBEAT,EKF3 IMU0 MAG0 initial yaw alignment complete,STABILIZE,,,
2026-07-06T16:35:40.196462+00:00,9.611536502838135,E1_global_position_int_negative,injection,8,37.56655081615387,126.9780641094988,20.0,7.991010253192881,37.5665,126.978,20.0,0.0,7.991010253192881,0,3,12,37.5665,126.978,20.0,0.0,0.0,-0.01,2.000000000000001,5.0242958677880805e-15,GLOBAL_POSITION_INT,EKF3 IMU0 MAG0 initial yaw alignment complete,STABILIZE,,,
2026-07-06T16:35:40.198199+00:00,9.61328125,E1_global_position_int_negative,injection,8,37.56655081615387,126.9780641094988,20.0,7.991010253192881,,,,,,,3,12,37.5665,126.978,20.0,,,,2.000000000000001,5.0242958677880805e-15,GPS_RAW_INT,EKF3 IMU0 MAG0 initial yaw alignment complete,STABILIZE,,,
2026-07-06T16:35:40.287078+00:00,9.70217227935791,E1_global_position_int_negative,injection,9,37.566557168173105,126.97807212318617,20.0,8.989886343967408,,,,,,,3,12,37.5665,126.978,20.0,,,,2.000000000000001,0.0,STATUSTEXT,EKF3 IMU0 origin set,STABILIZE,,,
2026-07-06T16:35:40.287140+00:00,9.70221209526062,E1_global_position_int_negative,injection,9,37.566557168173105,126.97807212318617,20.0,8.989886343967408,,,,,,,3,12,37.5665,126.978,20.0,,,,2.000000000000001,0.0,STATUSTEXT,EKF3 IMU1 origin set,STABILIZE,,,
2026-07-06T16:35:40.287818+00:00,9.702920198440552,E1_global_position_int_negative,injection,9,37.566557168173105,126.97807212318617,20.0,8.989886343967408,,,,,,,3,12,37.5665,126.978,20.0,,,,2.000000000000001,0.0,STATUSTEXT,Field Elevation Set: 20m,STABILIZE,,,
2026-07-06T16:35:40.395847+00:00,9.810941457748413,E1_global_position_int_negative,injection,9,37.566557168173105,126.97807212318617,20.0,8.989886343967408,,,,,,,3,12,37.5665,126.978,20.0,,,,2.000000000000001,0.0,HEARTBEAT,Field Elevation Set: 20m,STABILIZE,,,
2026-07-06T16:35:40.396015+00:00,9.81109070777893,E1_global_position_int_negative,injection,9,37.566557168173105,126.97807212318617,20.0,8.989886343967408,37.5665,126.978,20.0,0.0,8.989886343967408,0,3,12,37.5665,126.978,20.0,0.0,0.0,0.0,2.000000000000001,0.0,GLOBAL_POSITION_INT,Field Elevation Set: 20m,STABILIZE,,,
2026-07-06T16:35:40.396349+00:00,9.811423778533936,E1_global_position_int_negative,injection,9,37.566557168173105,126.97807212318617,20.0,8.989886343967408,,,,,,,3,12,37.5665,126.978,20.0,,,,2.000000000000001,0.0,GPS_RAW_INT,Field Elevation Set: 20m,STABILIZE,,,
2026-07-06T16:35:40.593696+00:00,10.008793354034424,E1_global_position_int_negative,injection,9,37.566557168173105,126.97807212318617,20.0,8.989886343967408,,,,,,,3,12,37.5665,126.978,20.0,,,,2.000000000000001,0.0,HEARTBEAT,Field Elevation Set: 20m,STABILIZE,,,
2026-07-06T16:35:40.593860+00:00,10.008934020996094,E1_global_position_int_negative,injection,9,37.566557168173105,126.97807212318617,20.0,8.989886343967408,37.5665,126.978,20.0,0.0,8.989886343967408,0,3,12,37.5665,126.978,20.0,0.0,0.0,0.0,2.000000000000001,0.0,GLOBAL_POSITION_INT,Field Elevation Set: 20m,STABILIZE,,,
2026-07-06T16:35:40.594267+00:00,10.00934624671936,E1_global_position_int_negative,injection,9,37.566557168173105,126.97807212318617,20.0,8.989886343967408,,,,,,,3,12,37.5665,126.978,20.0,,,,2.000000000000001,0.0,GPS_RAW_INT,Field Elevation Set: 20m,STABILIZE,,,
2026-07-06T16:35:40.795654+00:00,10.210748672485352,E1_global_position_int_negative,injection,9,37.566557168173105,126.97807212318617,20.0,8.989886343967408,,,,,,,3,12,37.5665,126.978,20.0,,,,2.000000000000001,0.0,HEARTBEAT,Field Elevation Set: 20m,STABILIZE,,,
2026-07-06T16:35:40.795971+00:00,10.211047410964966,E1_global_position_int_negative,injection,10,37.56656352019235,126.97808013687352,20.0,9.988762391826127,37.5665,126.978,20.0,0.0,9.988762391826127,0,3,12,37.5665,126.978,20.0,0.0,0.0,0.0,1.9999999999999984,5.0242958677880805e-15,GLOBAL_POSITION_INT,Field Elevation Set: 20m,STABILIZE,,,
2026-07-06T16:35:40.802744+00:00,10.217839241027832,E1_global_position_int_negative,injection,10,37.56656352019235,126.97808013687352,20.0,9.988762391826127,,,,,,,3,12,37.5665,126.978,20.0,,,,1.9999999999999984,5.0242958677880805e-15,GPS_RAW_INT,Field Elevation Set: 20m,STABILIZE,,,
2026-07-06T16:35:41.002441+00:00,10.41753625869751,E1_global_position_int_negative,injection,10,37.56656352019235,126.97808013687352,20.0,9.988762391826127,,,,,,,3,12,37.5665,126.978,20.0,,,,1.9999999999999984,5.0242958677880805e-15,HEARTBEAT,Field Elevation Set: 20m,STABILIZE,,,
2026-07-06T16:35:41.002594+00:00,10.417665719985962,E1_global_position_int_negative,injection,10,37.56656352019235,126.97808013687352,20.0,9.988762391826127,37.5665,126.978,20.0,0.0,9.988762391826127,0,3,12,37.5665,126.978,20.0,0.0,0.0,0.0,1.9999999999999984,5.0242958677880805e-15,GLOBAL_POSITION_INT,Field Elevation Set: 20m,STABILIZE,,,
2026-07-06T16:35:41.002908+00:00,10.417983293533325,E1_global_position_int_negative,injection,10,37.56656352019235,126.97808013687352,20.0,9.988762391826127,,,,,,,3,12,37.5665,126.978,20.0,,,,1.9999999999999984,5.0242958677880805e-15,GPS_RAW_INT,Field Elevation Set: 20m,STABILIZE,,,
2026-07-06T16:35:41.194363+00:00,10.609463930130005,E1_global_position_int_negative,injection,10,37.56656352019235,126.97808013687352,20.0,9.988762391826127,,,,,,,3,12,37.5665,126.978,20.0,,,,1.9999999999999984,5.0242958677880805e-15,HEARTBEAT,Field Elevation Set: 20m,STABILIZE,,,
2026-07-06T16:35:41.194569+00:00,10.60964822769165,E1_global_position_int_negative,injection,10,37.56656352019235,126.97808013687352,20.0,9.988762391826127,37.5665,126.978,20.0,0.0,9.988762391826127,0,3,12,37.5665,126.978,20.0,0.0,0.0,0.0,1.9999999999999984,5.0242958677880805e-15,GLOBAL_POSITION_INT,Field Elevation Set: 20m,STABILIZE,,,
2026-07-06T16:35:41.194961+00:00,10.610034942626953,E1_global_position_int_negative,injection,10,37.56656352019235,126.97808013687352,20.0,9.988762391826127,,,,,,,3,12,37.5665,126.978,20.0,,,,1.9999999999999984,5.0242958677880805e-15,GPS_RAW_INT,Field Elevation Set: 20m,STABILIZE,,,
2026-07-06T16:35:41.397178+00:00,10.812275648117065,E1_global_position_int_negative,injection,11,37.56656987221158,126.97808815056086,20.0,10.987638396537346,,,,,,,3,12,37.5665,126.978,20.0,,,,1.9999999999999998,3.552713678800501e-15,HEARTBEAT,Field Elevation Set: 20m,STABILIZE,,,
2026-07-06T16:35:41.397563+00:00,10.812645673751831,E1_global_position_int_negative,injection,11,37.56656987221158,126.97808815056086,20.0,10.987638396537346,37.5665,126.978,20.0,0.0,10.987638396537346,0,3,12,37.5665,126.978,20.0,0.0,0.0,0.0,1.9999999999999998,3.552713678800501e-15,GLOBAL_POSITION_INT,Field Elevation Set: 20m,STABILIZE,,,
2026-07-06T16:35:41.397927+00:00,10.81300401687622,E1_global_position_int_negative,injection,11,37.56656987221158,126.97808815056086,20.0,10.987638396537346,,,,,,,3,12,37.5665,126.978,20.0,,,,1.9999999999999998,3.552713678800501e-15,GPS_RAW_INT,Field Elevation Set: 20m,STABILIZE,,,
2026-07-06T16:35:41.604338+00:00,11.019434928894043,E1_global_position_int_negative,injection,11,37.56656987221158,126.97808815056086,20.0,10.987638396537346,,,,,,,3,12,37.5665,126.978,20.0,,,,1.9999999999999998,3.552713678800501e-15,HEARTBEAT,Field Elevation Set: 20m,STABILIZE,,,
2026-07-06T16:35:41.604511+00:00,11.019585132598877,E1_global_position_int_negative,injection,11,37.56656987221158,126.97808815056086,20.0,10.987638396537346,37.5665,126.978,20.0,0.0,10.987638396537346,0,3,12,37.5665,126.978,20.0,0.0,0.0,0.0,1.9999999999999998,3.552713678800501e-15,GLOBAL_POSITION_INT,Field Elevation Set: 20m,STABILIZE,,,
2026-07-06T16:35:41.604846+00:00,11.020244121551514,E1_global_position_int_negative,injection,11,37.56656987221158,126.97808815056086,20.0,10.987638396537346,,,,,,,3,12,37.5665,126.978,20.0,,,,1.9999999999999998,3.552713678800501e-15,GPS_RAW_INT,Field Elevation Set: 20m,STABILIZE,,,
2026-07-06T16:35:41.806811+00:00,11.221904754638672,E1_global_position_int_negative,injection,11,37.56656987221158,126.97808815056086,20.0,10.987638396537346,,,,,,,3,12,37.5665,126.978,20.0,,,,1.9999999999999998,3.552713678800501e-15,HEARTBEAT,Field Elevation Set: 20m,STABILIZE,,,
2026-07-06T16:35:41.807133+00:00,11.222217082977295,E1_global_position_int_negative,injection,12,37.566576224230815,126.97809616424821,20.0,11.986514358659738,37.5665,126.978,20.0,0.0,11.986514358659738,0,3,12,37.5665,126.978,20.0,0.0,0.0,0.0,2.000000000000001,3.552713678800501e-15,GLOBAL_POSITION_INT,Field Elevation Set: 20m,STABILIZE,,,
2026-07-06T16:35:41.807460+00:00,11.222535133361816,E1_global_position_int_negative,injection,12,37.566576224230815,126.97809616424821,20.0,11.986514358659738,,,,,,,3,12,37.5665,126.978,20.0,,,,2.000000000000001,3.552713678800501e-15,GPS_RAW_INT,Field Elevation Set: 20m,STABILIZE,,,
2026-07-06T16:35:42.005061+00:00,11.420163631439209,E1_global_position_int_negative,injection,12,37.566576224230815,126.97809616424821,20.0,11.986514358659738,,,,,,,3,12,37.5665,126.978,20.0,,,,2.000000000000001,3.552713678800501e-15,HEARTBEAT,Field Elevation Set: 20m,STABILIZE,,,
2026-07-06T16:35:42.005212+00:00,11.420283794403076,E1_global_position_int_negative,injection,12,37.566576224230815,126.97809616424821,20.0,11.986514358659738,37.5665,126.978,20.0,0.0,11.986514358659738,0,3,12,37.5665,126.978,20.0,0.0,0.0,0.0,2.000000000000001,3.552713678800501e-15,GLOBAL_POSITION_INT,Field Elevation Set: 20m,STABILIZE,,,
2026-07-06T16:35:42.005501+00:00,11.420572996139526,E1_global_position_int_negative,injection,12,37.566576224230815,126.97809616424821,20.0,11.986514358659738,,,,,,,3,12,37.5665,126.978,20.0,,,,2.000000000000001,3.552713678800501e-15,GPS_RAW_INT,Field Elevation Set: 20m,STABILIZE,,,
2026-07-06T16:35:42.197606+00:00,11.612699508666992,E1_global_position_int_negative,injection,12,37.566576224230815,126.97809616424821,20.0,11.986514358659738,,,,,,,3,12,37.5665,126.978,20.0,,,,2.000000000000001,3.552713678800501e-15,HEARTBEAT,Field Elevation Set: 20m,STABILIZE,,,
2026-07-06T16:35:42.197756+00:00,11.612831592559814,E1_global_position_int_negative,injection,12,37.566576224230815,126.97809616424821,20.0,11.986514358659738,37.5665,126.978,20.0,0.0,11.986514358659738,0,3,12,37.5665,126.978,20.0,0.0,0.0,0.0,2.000000000000001,3.552713678800501e-15,GLOBAL_POSITION_INT,Field Elevation Set: 20m,STABILIZE,,,
2026-07-06T16:35:42.198077+00:00,11.613154411315918,E1_global_position_int_negative,injection,12,37.566576224230815,126.97809616424821,20.0,11.986514358659738,,,,,,,3,12,37.5665,126.978,20.0,,,,2.000000000000001,3.552713678800501e-15,GPS_RAW_INT,Field Elevation Set: 20m,STABILIZE,,,
2026-07-06T16:35:42.398340+00:00,11.813438653945923,E1_global_position_int_negative,injection,13,37.56658257625005,126.97810417793556,20.0,12.985390278193282,,,,,,,3,12,37.5665,126.978,20.0,,,,2.000000000000001,0.0,HEARTBEAT,Field Elevation Set: 20m,STABILIZE,,,
2026-07-06T16:35:42.398879+00:00,11.813962697982788,E1_global_position_int_negative,injection,13,37.56658257625005,126.97810417793556,20.0,12.985390278193282,37.5665,126.978,20.0,0.0,12.985390278193282,0,3,12,37.5665,126.978,20.0,0.0,0.0,0.0,2.000000000000001,0.0,GLOBAL_POSITION_INT,Field Elevation Set: 20m,STABILIZE,,,
2026-07-06T16:35:42.399468+00:00,11.814550876617432,E1_global_position_int_negative,injection,13,37.56658257625005,126.97810417793556,20.0,12.985390278193282,,,,,,,3,12,37.5665,126.978,20.0,,,,2.000000000000001,0.0,GPS_RAW_INT,Field Elevation Set: 20m,STABILIZE,,,
2026-07-06T16:35:42.596629+00:00,12.01175308227539,E1_global_position_int_negative,injection,13,37.56658257625005,126.97810417793556,20.0,12.985390278193282,,,,,,,3,12,37.5665,126.978,20.0,,,,2.000000000000001,0.0,HEARTBEAT,Field Elevation Set: 20m,STABILIZE,,,
2026-07-06T16:35:42.597366+00:00,12.012449979782104,E1_global_position_int_negative,injection,13,37.56658257625005,126.97810417793556,20.0,12.985390278193282,37.5665,126.978,20.0,0.0,12.985390278193282,0,3,12,37.5665,126.978,20.0,0.0,0.0,0.0,2.000000000000001,0.0,GLOBAL_POSITION_INT,Field Elevation Set: 20m,STABILIZE,,,
2026-07-06T16:35:42.597764+00:00,12.012845277786255,E1_global_position_int_negative,injection,13,37.56658257625005,126.97810417793556,20.0,12.985390278193282,,,,,,,3,12,37.5665,126.978,20.0,,,,2.000000000000001,0.0,GPS_RAW_INT,Field Elevation Set: 20m,STABILIZE,,,
2026-07-06T16:35:42.802578+00:00,12.217676162719727,E1_global_position_int_negative,injection,13,37.56658257625005,126.97810417793556,20.0,12.985390278193282,,,,,,,3,12,37.5665,126.978,20.0,,,,2.000000000000001,0.0,HEARTBEAT,Field Elevation Set: 20m,STABILIZE,,,
2026-07-06T16:35:42.803810+00:00,12.218896389007568,E1_global_position_int_negative,injection,13,37.56658257625005,126.97810417793556,20.0,12.985390278193282,37.5665,126.978,20.0,0.0,12.985390278193282,0,3,12,37.5665,126.978,20.0,0.0,0.0,0.0,2.000000000000001,0.0,GLOBAL_POSITION_INT,Field Elevation Set: 20m,STABILIZE,,,
2026-07-06T16:35:42.804258+00:00,12.219339847564697,E1_global_position_int_negative,injection,13,37.56658257625005,126.97810417793556,20.0,12.985390278193282,,,,,,,3,12,37.5665,126.978,20.0,,,,2.000000000000001,0.0,GPS_RAW_INT,Field Elevation Set: 20m,STABILIZE,,,
2026-07-06T16:35:43.003428+00:00,12.418524980545044,E1_global_position_int_negative,injection,14,37.56658892826928,126.97811219162291,20.0,13.984266155137986,,,,,,,3,12,37.5665,126.978,20.0,,,,1.999999999999996,1.0048591735576161e-14,HEARTBEAT,Field Elevation Set: 20m,STABILIZE,,,
2026-07-06T16:35:43.003659+00:00,12.418738842010498,E1_global_position_int_negative,injection,14,37.56658892826928,126.97811219162291,20.0,13.984266155137986,37.5665,126.978,20.0,0.0,13.984266155137986,0,3,12,37.5665,126.978,20.0,0.0,0.0,0.0,1.999999999999996,1.0048591735576161e-14,GLOBAL_POSITION_INT,Field Elevation Set: 20m,STABILIZE,,,
2026-07-06T16:35:43.004045+00:00,12.41912293434143,E1_global_position_int_negative,injection,14,37.56658892826928,126.97811219162291,20.0,13.984266155137986,,,,,,,3,12,37.5665,126.978,20.0,,,,1.999999999999996,1.0048591735576161e-14,GPS_RAW_INT,Field Elevation Set: 20m,STABILIZE,,,
2026-07-06T16:35:43.199446+00:00,12.614540100097656,E1_global_position_int_negative,injection,14,37.56658892826928,126.97811219162291,20.0,13.984266155137986,,,,,,,3,12,37.5665,126.978,20.0,,,,1.999999999999996,1.0048591735576161e-14,HEARTBEAT,Field Elevation Set: 20m,STABILIZE,,,
