timestamp,elapsed_s,experiment,phase,sample_index,target_lat,target_lon,target_alt,target_drift_m,obs_lat,obs_lon,obs_alt,official_drift_m,target_error_m,reflected,gps_fix_type,gps_satellites,gps_raw_lat,gps_raw_lon,gps_raw_alt,vn,ve,vd,commanded_speed_mps,commanded_accel_mps2,message_type,status_text,mode,fence_breach_status,fence_breach_count,fence_breach_type
2026-07-06T16:37:22.102946+00:00,0.016846895217895508,E3_fc_direct_gps_input_positive,warmup,0,37.5665,126.978,20.0,0.0,,,,,,,,,,,,,,,0.0,0.0,STATUSTEXT,GPS 1: detected MAV,,,,
2026-07-06T16:37:22.235948+00:00,0.14985203742980957,E3_fc_direct_gps_input_positive,warmup,0,37.5665,126.978,20.0,0.0,,,,,,,,,,,,,,,0.0,0.0,HEARTBEAT,GPS 1: detected MAV,STABILIZE,,,
2026-07-06T16:37:22.236264+00:00,0.1501448154449463,E3_fc_direct_gps_input_positive,warmup,0,37.5665,126.978,20.0,0.0,37.5665,126.978,0.0,0.0,0.0,0,,,,,,0.0,0.0,0.0,0.0,0.0,GLOBAL_POSITION_INT,GPS 1: detected MAV,STABILIZE,,,
2026-07-06T16:37:22.236653+00:00,0.1505265235900879,E3_fc_direct_gps_input_positive,warmup,0,37.5665,126.978,20.0,0.0,,,,,,,3,12,37.5665,126.978,20.0,,,,0.0,0.0,GPS_RAW_INT,GPS 1: detected MAV,STABILIZE,,,
2026-07-06T16:37:22.435768+00:00,0.34966254234313965,E3_fc_direct_gps_input_positive,warmup,0,37.5665,126.978,20.0,0.0,,,,,,,3,12,37.5665,126.978,20.0,,,,0.0,0.0,HEARTBEAT,GPS 1: detected MAV,STABILIZE,,,
2026-07-06T16:37:22.435946+00:00,0.34981799125671387,E3_fc_direct_gps_input_positive,warmup,0,37.5665,126.978,20.0,0.0,37.5665,126.978,0.0,0.0,0.0,0,3,12,37.5665,126.978,20.0,0.0,0.0,0.0,0.0,0.0,GLOBAL_POSITION_INT,GPS 1: detected MAV,STABILIZE,,,
2026-07-06T16:37:22.436979+00:00,0.3508579730987549,E3_fc_direct_gps_input_positive,warmup,0,37.5665,126.978,20.0,0.0,,,,,,,3,12,37.5665,126.978,20.0,,,,0.0,0.0,GPS_RAW_INT,GPS 1: detected MAV,STABILIZE,,,
2026-07-06T16:37:22.656007+00:00,0.5699012279510498,E3_fc_direct_gps_input_positive,warmup,0,37.5665,126.978,20.0,0.0,,,,,,,3,12,37.5665,126.978,20.0,,,,0.0,0.0,HEARTBEAT,GPS 1: detected MAV,STABILIZE,,,
2026-07-06T16:37:22.656163+00:00,0.5700356960296631,E3_fc_direct_gps_input_positive,warmup,0,37.5665,126.978,20.0,0.0,37.5665,126.978,0.0,0.0,0.0,0,3,12,37.5665,126.978,20.0,0.0,0.0,0.0,0.0,0.0,GLOBAL_POSITION_INT,GPS 1: detected MAV,STABILIZE,,,
2026-07-06T16:37:22.656507+00:00,0.5703845024108887,E3_fc_direct_gps_input_positive,warmup,0,37.5665,126.978,20.0,0.0,,,,,,,3,12,37.5665,126.978,20.0,,,,0.0,0.0,GPS_RAW_INT,GPS 1: detected MAV,STABILIZE,,,
2026-07-06T16:37:22.806902+00:00,0.7207934856414795,E3_fc_direct_gps_input_positive,warmup,0,37.5665,126.978,20.0,0.0,,,,,,,3,12,37.5665,126.978,20.0,,,,0.0,0.0,STATUSTEXT,EKF3 IMU0 initialised,STABILIZE,,,
2026-07-06T16:37:22.806963+00:00,0.7208335399627686,E3_fc_direct_gps_input_positive,warmup,0,37.5665,126.978,20.0,0.0,,,,,,,3,12,37.5665,126.978,20.0,,,,0.0,0.0,STATUSTEXT,EKF3 IMU1 initialised,STABILIZE,,,
2026-07-06T16:37:22.807308+00:00,0.7211892604827881,E3_fc_direct_gps_input_positive,warmup,0,37.5665,126.978,20.0,0.0,,,,,,,3,12,37.5665,126.978,20.0,,,,0.0,0.0,STATUSTEXT,AHRS: EKF3 active,STABILIZE,,,
2026-07-06T16:37:22.841914+00:00,0.755807638168335,E3_fc_direct_gps_input_positive,warmup,0,37.5665,126.978,20.0,0.0,,,,,,,3,12,37.5665,126.978,20.0,,,,0.0,0.0,HEARTBEAT,AHRS: EKF3 active,STABILIZE,,,
2026-07-06T16:37:22.842080+00:00,0.7559571266174316,E3_fc_direct_gps_input_positive,warmup,0,37.5665,126.978,20.0,0.0,37.5665,126.978,20.0,0.0,0.0,0,3,12,37.5665,126.978,20.0,0.0,0.0,0.0,0.0,0.0,GLOBAL_POSITION_INT,AHRS: EKF3 active,STABILIZE,,,
2026-07-06T16:37:22.842479+00:00,0.7563564777374268,E3_fc_direct_gps_input_positive,warmup,0,37.5665,126.978,20.0,0.0,,,,,,,3,12,37.5665,126.978,20.0,,,,0.0,0.0,GPS_RAW_INT,AHRS: EKF3 active,STABILIZE,,,
2026-07-06T16:37:23.059867+00:00,0.9737610816955566,E3_fc_direct_gps_input_positive,warmup,0,37.5665,126.978,20.0,0.0,,,,,,,3,12,37.5665,126.978,20.0,,,,0.0,0.0,HEARTBEAT,AHRS: EKF3 active,STABILIZE,,,
2026-07-06T16:37:23.060041+00:00,0.9739148616790771,E3_fc_direct_gps_input_positive,warmup,0,37.5665,126.978,20.0,0.0,37.5665,126.978,20.0,0.0,0.0,0,3,12,37.5665,126.978,20.0,0.0,0.0,0.07,0.0,0.0,GLOBAL_POSITION_INT,AHRS: EKF3 active,STABILIZE,,,
2026-07-06T16:37:23.060394+00:00,0.974271297454834,E3_fc_direct_gps_input_positive,warmup,0,37.5665,126.978,20.0,0.0,,,,,,,3,12,37.5665,126.978,20.0,,,,0.0,0.0,GPS_RAW_INT,AHRS: EKF3 active,STABILIZE,,,
2026-07-06T16:37:23.246546+00:00,1.1604363918304443,E3_fc_direct_gps_input_positive,warmup,0,37.5665,126.978,20.0,0.0,,,,,,,3,12,37.5665,126.978,20.0,,,,0.0,0.0,HEARTBEAT,AHRS: EKF3 active,STABILIZE,,,
2026-07-06T16:37:23.246714+00:00,1.1605889797210693,E3_fc_direct_gps_input_positive,warmup,0,37.5665,126.978,20.0,0.0,37.5665,126.978,20.0,0.0,0.0,0,3,12,37.5665,126.978,20.0,0.0,0.0,0.13,0.0,0.0,GLOBAL_POSITION_INT,AHRS: EKF3 active,STABILIZE,,,
2026-07-06T16:37:23.247226+00:00,1.1611037254333496,E3_fc_direct_gps_input_positive,warmup,0,37.5665,126.978,20.0,0.0,,,,,,,3,12,37.5665,126.978,20.0,,,,0.0,0.0,GPS_RAW_INT,AHRS: EKF3 active,STABILIZE,,,
2026-07-06T16:37:23.431215+00:00,1.3451128005981445,E3_fc_direct_gps_input_positive,warmup,0,37.5665,126.978,20.0,0.0,,,,,,,3,12,37.5665,126.978,20.0,,,,0.0,0.0,HEARTBEAT,AHRS: EKF3 active,STABILIZE,,,
2026-07-06T16:37:23.431424+00:00,1.3453044891357422,E3_fc_direct_gps_input_positive,warmup,0,37.5665,126.978,20.0,0.0,37.5665,126.978,20.0,0.0,0.0,0,3,12,37.5665,126.978,20.0,0.0,0.0,0.16,0.0,0.0,GLOBAL_POSITION_INT,AHRS: EKF3 active,STABILIZE,,,
2026-07-06T16:37:23.431823+00:00,1.3456995487213135,E3_fc_direct_gps_input_positive,warmup,0,37.5665,126.978,20.0,0.0,,,,,,,3,12,37.5665,126.978,20.0,,,,0.0,0.0,GPS_RAW_INT,AHRS: EKF3 active,STABILIZE,,,
2026-07-06T16:37:23.652278+00:00,1.5661742687225342,E3_fc_direct_gps_input_positive,warmup,0,37.5665,126.978,20.0,0.0,,,,,,,3,12,37.5665,126.978,20.0,,,,0.0,0.0,HEARTBEAT,AHRS: EKF3 active,STABILIZE,,,
2026-07-06T16:37:23.652456+00:00,1.566328525543213,E3_fc_direct_gps_input_positive,warmup,0,37.5665,126.978,20.0,0.0,37.5665,126.978,20.0,0.0,0.0,0,3,12,37.5665,126.978,20.0,0.0,0.0,0.18,0.0,0.0,GLOBAL_POSITION_INT,AHRS: EKF3 active,STABILIZE,,,
2026-07-06T16:37:23.652830+00:00,1.5667035579681396,E3_fc_direct_gps_input_positive,warmup,0,37.5665,126.978,20.0,0.0,,,,,,,3,12,37.5665,126.978,20.0,,,,0.0,0.0,GPS_RAW_INT,AHRS: EKF3 active,STABILIZE,,,
2026-07-06T16:37:23.856458+00:00,1.7703471183776855,E3_fc_direct_gps_input_positive,warmup,0,37.5665,126.978,20.0,0.0,,,,,,,3,12,37.5665,126.978,20.0,,,,0.0,0.0,HEARTBEAT,AHRS: EKF3 active,STABILIZE,,,
2026-07-06T16:37:23.856619+00:00,1.7704951763153076,E3_fc_direct_gps_input_positive,warmup,0,37.5665,126.978,20.0,0.0,37.5665,126.978,20.0,0.0,0.0,0,3,12,37.5665,126.978,20.0,0.0,0.0,0.18,0.0,0.0,GLOBAL_POSITION_INT,AHRS: EKF3 active,STABILIZE,,,
2026-07-06T16:37:23.857019+00:00,1.7708954811096191,E3_fc_direct_gps_input_positive,warmup,0,37.5665,126.978,20.0,0.0,,,,,,,3,12,37.5665,126.978,20.0,,,,0.0,0.0,GPS_RAW_INT,AHRS: EKF3 active,STABILIZE,,,
2026-07-06T16:37:24.031297+00:00,1.9451863765716553,E3_fc_direct_gps_input_positive,warmup,0,37.5665,126.978,20.0,0.0,,,,,,,3,12,37.5665,126.978,20.0,,,,0.0,0.0,HEARTBEAT,AHRS: EKF3 active,STABILIZE,,,
2026-07-06T16:37:24.031540+00:00,1.945413589477539,E3_fc_direct_gps_input_positive,warmup,0,37.5665,126.978,20.0,0.0,37.5665,126.978,20.0,0.0,0.0,0,3,12,37.5665,126.978,20.0,0.0,0.0,0.17,0.0,0.0,GLOBAL_POSITION_INT,AHRS: EKF3 active,STABILIZE,,,
2026-07-06T16:37:24.031876+00:00,1.9457480907440186,E3_fc_direct_gps_input_positive,warmup,0,37.5665,126.978,20.0,0.0,,,,,,,3,12,37.5665,126.978,20.0,,,,0.0,0.0,GPS_RAW_INT,AHRS: EKF3 active,STABILIZE,,,
2026-07-06T16:37:24.232079+00:00,2.14597225189209,E3_fc_direct_gps_input_positive,warmup,0,37.5665,126.978,20.0,0.0,,,,,,,3,12,37.5665,126.978,20.0,,,,0.0,0.0,HEARTBEAT,AHRS: EKF3 active,STABILIZE,,,
2026-07-06T16:37:24.232238+00:00,2.1461102962493896,E3_fc_direct_gps_input_positive,warmup,0,37.5665,126.978,20.0,0.0,37.5665,126.978,20.0,0.0,0.0,0,3,12,37.5665,126.978,20.0,0.0,0.0,0.17,0.0,0.0,GLOBAL_POSITION_INT,AHRS: EKF3 active,STABILIZE,,,
2026-07-06T16:37:24.232573+00:00,2.146444320678711,E3_fc_direct_gps_input_positive,warmup,0,37.5665,126.978,20.0,0.0,,,,,,,3,12,37.5665,126.978,20.0,,,,0.0,0.0,GPS_RAW_INT,AHRS: EKF3 active,STABILIZE,,,
2026-07-06T16:37:24.441568+00:00,2.3554606437683105,E3_fc_direct_gps_input_positive,warmup,0,37.5665,126.978,20.0,0.0,,,,,,,3,12,37.5665,126.978,20.0,,,,0.0,0.0,HEARTBEAT,AHRS: EKF3 active,STABILIZE,,,
2026-07-06T16:37:24.441727+00:00,2.3555996417999268,E3_fc_direct_gps_input_positive,warmup,0,37.5665,126.978,20.0,0.0,37.5665,126.978,20.0,0.0,0.0,0,3,12,37.5665,126.978,20.0,0.0,0.0,0.16,0.0,0.0,GLOBAL_POSITION_INT,AHRS: EKF3 active,STABILIZE,,,
2026-07-06T16:37:24.442198+00:00,2.35607647895813,E3_fc_direct_gps_input_positive,warmup,0,37.5665,126.978,20.0,0.0,,,,,,,3,12,37.5665,126.978,20.0,,,,0.0,0.0,GPS_RAW_INT,AHRS: EKF3 active,STABILIZE,,,
2026-07-06T16:37:24.567312+00:00,2.48120379447937,E3_fc_direct_gps_input_positive,warmup,0,37.5665,126.978,20.0,0.0,,,,,,,3,12,37.5665,126.978,20.0,,,,0.0,0.0,STATUSTEXT,EKF3 IMU0 tilt alignment complete,STABILIZE,,,
2026-07-06T16:37:24.567374+00:00,2.4812440872192383,E3_fc_direct_gps_input_positive,warmup,0,37.5665,126.978,20.0,0.0,,,,,,,3,12,37.5665,126.978,20.0,,,,0.0,0.0,STATUSTEXT,EKF3 IMU1 tilt alignment complete,STABILIZE,,,
2026-07-06T16:37:24.662249+00:00,2.576141119003296,E3_fc_direct_gps_input_positive,warmup,0,37.5665,126.978,20.0,0.0,,,,,,,3,12,37.5665,126.978,20.0,,,,0.0,0.0,HEARTBEAT,EKF3 IMU1 tilt alignment complete,STABILIZE,,,
2026-07-06T16:37:24.662413+00:00,2.5762832164764404,E3_fc_direct_gps_input_positive,warmup,0,37.5665,126.978,20.0,0.0,37.5665,126.978,20.0,0.0,0.0,0,3,12,37.5665,126.978,20.0,0.0,0.0,0.14,0.0,0.0,GLOBAL_POSITION_INT,EKF3 IMU1 tilt alignment complete,STABILIZE,,,
2026-07-06T16:37:24.665651+00:00,2.5795350074768066,E3_fc_direct_gps_input_positive,warmup,0,37.5665,126.978,20.0,0.0,,,,,,,3,12,37.5665,126.978,20.0,,,,0.0,0.0,GPS_RAW_INT,EKF3 IMU1 tilt alignment complete,STABILIZE,,,
2026-07-06T16:37:24.665911+00:00,2.5797834396362305,E3_fc_direct_gps_input_positive,warmup,0,37.5665,126.978,20.0,0.0,,,,,,,3,12,37.5665,126.978,20.0,,,,0.0,0.0,STATUSTEXT,EKF3 IMU1 MAG0 initial yaw alignment complete,STABILIZE,,,
2026-07-06T16:37:24.667397+00:00,2.5812759399414062,E3_fc_direct_gps_input_positive,warmup,0,37.5665,126.978,20.0,0.0,,,,,,,3,12,37.5665,126.978,20.0,,,,0.0,0.0,STATUSTEXT,EKF3 IMU0 MAG0 initial yaw alignment complete,STABILIZE,,,
2026-07-06T16:37:24.841465+00:00,2.755354166030884,E3_fc_direct_gps_input_positive,warmup,0,37.5665,126.978,20.0,0.0,,,,,,,3,12,37.5665,126.978,20.0,,,,0.0,0.0,HEARTBEAT,EKF3 IMU0 MAG0 initial yaw alignment complete,STABILIZE,,,
2026-07-06T16:37:24.841597+00:00,2.7554683685302734,E3_fc_direct_gps_input_positive,warmup,0,37.5665,126.978,20.0,0.0,37.5665,126.978,20.0,0.0,0.0,0,3,12,37.5665,126.978,20.0,0.0,0.0,0.13,0.0,0.0,GLOBAL_POSITION_INT,EKF3 IMU0 MAG0 initial yaw alignment complete,STABILIZE,,,
2026-07-06T16:37:24.841934+00:00,2.7558062076568604,E3_fc_direct_gps_input_positive,warmup,0,37.5665,126.978,20.0,0.0,,,,,,,3,12,37.5665,126.978,20.0,,,,0.0,0.0,GPS_RAW_INT,EKF3 IMU0 MAG0 initial yaw alignment complete,STABILIZE,,,
2026-07-06T16:37:25.036757+00:00,2.950650691986084,E3_fc_direct_gps_input_positive,warmup,0,37.5665,126.978,20.0,0.0,,,,,,,3,12,37.5665,126.978,20.0,,,,0.0,0.0,HEARTBEAT,EKF3 IMU0 MAG0 initial yaw alignment complete,STABILIZE,,,
2026-07-06T16:37:25.036961+00:00,2.9508395195007324,E3_fc_direct_gps_input_positive,warmup,0,37.5665,126.978,20.0,0.0,37.5665,126.978,20.0,0.0,0.0,0,3,12,37.5665,126.978,20.0,0.0,0.0,0.1,0.0,0.0,GLOBAL_POSITION_INT,EKF3 IMU0 MAG0 initial yaw alignment complete,STABILIZE,,,
2026-07-06T16:37:25.041900+00:00,2.9557929039001465,E3_fc_direct_gps_input_positive,warmup,0,37.5665,126.978,20.0,0.0,,,,,,,3,12,37.5665,126.978,20.0,,,,0.0,0.0,GPS_RAW_INT,EKF3 IMU0 MAG0 initial yaw alignment complete,STABILIZE,,,
2026-07-06T16:37:25.235711+00:00,3.149606466293335,E3_fc_direct_gps_input_positive,warmup,0,37.5665,126.978,20.0,0.0,,,,,,,3,12,37.5665,126.978,20.0,,,,0.0,0.0,HEARTBEAT,EKF3 IMU0 MAG0 initial yaw alignment complete,STABILIZE,,,
2026-07-06T16:37:25.236297+00:00,3.150181293487549,E3_fc_direct_gps_input_positive,warmup,0,37.5665,126.978,20.0,0.0,37.5665,126.978,20.0,0.0,0.0,0,3,12,37.5665,126.978,20.0,0.0,0.0,0.08,0.0,0.0,GLOBAL_POSITION_INT,EKF3 IMU0 MAG0 initial yaw alignment complete,STABILIZE,,,
2026-07-06T16:37:25.242860+00:00,3.1567513942718506,E3_fc_direct_gps_input_positive,warmup,0,37.5665,126.978,20.0,0.0,,,,,,,3,12,37.5665,126.978,20.0,,,,0.0,0.0,GPS_RAW_INT,EKF3 IMU0 MAG0 initial yaw alignment complete,STABILIZE,,,
2026-07-06T16:37:25.443235+00:00,3.357130765914917,E3_fc_direct_gps_input_positive,warmup,0,37.5665,126.978,20.0,0.0,,,,,,,3,12,37.5665,126.978,20.0,,,,0.0,0.0,HEARTBEAT,EKF3 IMU0 MAG0 initial yaw alignment complete,STABILIZE,,,
2026-07-06T16:37:25.443383+00:00,3.357255220413208,E3_fc_direct_gps_input_positive,warmup,0,37.5665,126.978,20.0,0.0,37.5665,126.978,20.0,0.0,0.0,0,3,12,37.5665,126.978,20.0,0.0,0.0,0.07,0.0,0.0,GLOBAL_POSITION_INT,EKF3 IMU0 MAG0 initial yaw alignment complete,STABILIZE,,,
2026-07-06T16:37:25.443817+00:00,3.357696056365967,E3_fc_direct_gps_input_positive,warmup,0,37.5665,126.978,20.0,0.0,,,,,,,3,12,37.5665,126.978,20.0,,,,0.0,0.0,GPS_RAW_INT,EKF3 IMU0 MAG0 initial yaw alignment complete,STABILIZE,,,
2026-07-06T16:37:25.633725+00:00,3.5476200580596924,E3_fc_direct_gps_input_positive,warmup,0,37.5665,126.978,20.0,0.0,,,,,,,3,12,37.5665,126.978,20.0,,,,0.0,0.0,HEARTBEAT,EKF3 IMU0 MAG0 initial yaw alignment complete,STABILIZE,,,
2026-07-06T16:37:25.633971+00:00,3.5478451251983643,E3_fc_direct_gps_input_positive,warmup,0,37.5665,126.978,20.0,0.0,37.5665,126.978,20.0,0.0,0.0,0,3,12,37.5665,126.978,20.0,0.0,0.0,0.05,0.0,0.0,GLOBAL_POSITION_INT,EKF3 IMU0 MAG0 initial yaw alignment complete,STABILIZE,,,
2026-07-06T16:37:25.634378+00:00,3.5482566356658936,E3_fc_direct_gps_input_positive,warmup,0,37.5665,126.978,20.0,0.0,,,,,,,3,12,37.5665,126.978,20.0,,,,0.0,0.0,GPS_RAW_INT,EKF3 IMU0 MAG0 initial yaw alignment complete,STABILIZE,,,
2026-07-06T16:37:25.838730+00:00,3.752624034881592,E3_fc_direct_gps_input_positive,warmup,0,37.5665,126.978,20.0,0.0,,,,,,,3,12,37.5665,126.978,20.0,,,,0.0,0.0,HEARTBEAT,EKF3 IMU0 MAG0 initial yaw alignment complete,STABILIZE,,,
2026-07-06T16:37:25.838865+00:00,3.752734661102295,E3_fc_direct_gps_input_positive,warmup,0,37.5665,126.978,20.0,0.0,37.5665,126.978,20.0,0.0,0.0,0,3,12,37.5665,126.978,20.0,0.0,0.0,0.04,0.0,0.0,GLOBAL_POSITION_INT,EKF3 IMU0 MAG0 initial yaw alignment complete,STABILIZE,,,
2026-07-06T16:37:25.839207+00:00,3.753082752227783,E3_fc_direct_gps_input_positive,warmup,0,37.5665,126.978,20.0,0.0,,,,,,,3,12,37.5665,126.978,20.0,,,,0.0,0.0,GPS_RAW_INT,EKF3 IMU0 MAG0 initial yaw alignment complete,STABILIZE,,,
2026-07-06T16:37:26.032121+00:00,3.946017265319824,E3_fc_direct_gps_input_positive,warmup,0,37.5665,126.978,20.0,0.0,,,,,,,3,12,37.5665,126.978,20.0,,,,0.0,0.0,HEARTBEAT,EKF3 IMU0 MAG0 initial yaw alignment complete,STABILIZE,,,
2026-07-06T16:37:26.032285+00:00,3.9461567401885986,E3_fc_direct_gps_input_positive,warmup,0,37.5665,126.978,20.0,0.0,37.5665,126.978,20.0,0.0,0.0,0,3,12,37.5665,126.978,20.0,0.0,0.0,0.02,0.0,0.0,GLOBAL_POSITION_INT,EKF3 IMU0 MAG0 initial yaw alignment complete,STABILIZE,,,
2026-07-06T16:37:26.032696+00:00,3.9465739727020264,E3_fc_direct_gps_input_positive,warmup,0,37.5665,126.978,20.0,0.0,,,,,,,3,12,37.5665,126.978,20.0,,,,0.0,0.0,GPS_RAW_INT,EKF3 IMU0 MAG0 initial yaw alignment complete,STABILIZE,,,
2026-07-06T16:37:26.235982+00:00,4.149874925613403,E3_fc_direct_gps_input_positive,warmup,0,37.5665,126.978,20.0,0.0,,,,,,,3,12,37.5665,126.978,20.0,,,,0.0,0.0,HEARTBEAT,EKF3 IMU0 MAG0 initial yaw alignment complete,STABILIZE,,,
2026-07-06T16:37:26.236151+00:00,4.1500279903411865,E3_fc_direct_gps_input_positive,warmup,0,37.5665,126.978,20.0,0.0,37.5665,126.978,20.0,0.0,0.0,0,3,12,37.5665,126.978,20.0,0.0,0.0,0.01,0.0,0.0,GLOBAL_POSITION_INT,EKF3 IMU0 MAG0 initial yaw alignment complete,STABILIZE,,,
2026-07-06T16:37:26.236523+00:00,4.150394439697266,E3_fc_direct_gps_input_positive,warmup,0,37.5665,126.978,20.0,0.0,,,,,,,3,12,37.5665,126.978,20.0,,,,0.0,0.0,GPS_RAW_INT,EKF3 IMU0 MAG0 initial yaw alignment complete,STABILIZE,,,
2026-07-06T16:37:26.431489+00:00,4.345385789871216,E3_fc_direct_gps_input_positive,warmup,0,37.5665,126.978,20.0,0.0,,,,,,,3,12,37.5665,126.978,20.0,,,,0.0,0.0,HEARTBEAT,EKF3 IMU0 MAG0 initial yaw alignment complete,STABILIZE,,,
2026-07-06T16:37:26.431746+00:00,4.345621109008789,E3_fc_direct_gps_input_positive,warmup,0,37.5665,126.978,20.0,0.0,37.5665,126.978,20.0,0.0,0.0,0,3,12,37.5665,126.978,20.0,0.0,0.0,0.0,0.0,0.0,GLOBAL_POSITION_INT,EKF3 IMU0 MAG0 initial yaw alignment complete,STABILIZE,,,
2026-07-06T16:37:26.432096+00:00,4.3459694385528564,E3_fc_direct_gps_input_positive,warmup,0,37.5665,126.978,20.0,0.0,,,,,,,3,12,37.5665,126.978,20.0,,,,0.0,0.0,GPS_RAW_INT,EKF3 IMU0 MAG0 initial yaw alignment complete,STABILIZE,,,
2026-07-06T16:37:26.636216+00:00,4.550111293792725,E3_fc_direct_gps_input_positive,warmup,0,37.5665,126.978,20.0,0.0,,,,,,,3,12,37.5665,126.978,20.0,,,,0.0,0.0,HEARTBEAT,EKF3 IMU0 MAG0 initial yaw alignment complete,STABILIZE,,,
2026-07-06T16:37:26.636428+00:00,4.550306558609009,E3_fc_direct_gps_input_positive,warmup,0,37.5665,126.978,20.0,0.0,37.5665,126.978,20.0,0.0,0.0,0,3,12,37.5665,126.978,20.0,0.0,0.0,0.0,0.0,0.0,GLOBAL_POSITION_INT,EKF3 IMU0 MAG0 initial yaw alignment complete,STABILIZE,,,
2026-07-06T16:37:26.636785+00:00,4.550657510757446,E3_fc_direct_gps_input_positive,warmup,0,37.5665,126.978,20.0,0.0,,,,,,,3,12,37.5665,126.978,20.0,,,,0.0,0.0,GPS_RAW_INT,EKF3 IMU0 MAG0 initial yaw alignment complete,STABILIZE,,,
2026-07-06T16:37:26.840757+00:00,4.7546539306640625,E3_fc_direct_gps_input_positive,warmup,0,37.5665,126.978,20.0,0.0,,,,,,,3,12,37.5665,126.978,20.0,,,,0.0,0.0,HEARTBEAT,EKF3 IMU0 MAG0 initial yaw alignment complete,STABILIZE,,,
2026-07-06T16:37:26.840920+00:00,4.754790306091309,E3_fc_direct_gps_input_positive,warmup,0,37.5665,126.978,20.0,0.0,37.5665,126.978,20.0,0.0,0.0,0,3,12,37.5665,126.978,20.0,0.0,0.0,-0.01,0.0,0.0,GLOBAL_POSITION_INT,EKF3 IMU0 MAG0 initial yaw alignment complete,STABILIZE,,,
2026-07-06T16:37:26.841235+00:00,4.755113124847412,E3_fc_direct_gps_input_positive,warmup,0,37.5665,126.978,20.0,0.0,,,,,,,3,12,37.5665,126.978,20.0,,,,0.0,0.0,GPS_RAW_INT,EKF3 IMU0 MAG0 initial yaw alignment complete,STABILIZE,,,
2026-07-06T16:37:27.043430+00:00,4.957321405410767,E3_fc_direct_gps_input_positive,warmup,0,37.5665,126.978,20.0,0.0,,,,,,,3,12,37.5665,126.978,20.0,,,,0.0,0.0,HEARTBEAT,EKF3 IMU0 MAG0 initial yaw alignment complete,STABILIZE,,,
2026-07-06T16:37:27.043568+00:00,4.957438230514526,E3_fc_direct_gps_input_positive,warmup,0,37.5665,126.978,20.0,0.0,37.5665,126.978,20.0,0.0,0.0,0,3,12,37.5665,126.978,20.0,0.0,0.0,-0.01,0.0,0.0,GLOBAL_POSITION_INT,EKF3 IMU0 MAG0 initial yaw alignment complete,STABILIZE,,,
2026-07-06T16:37:27.043861+00:00,4.957730293273926,E3_fc_direct_gps_input_positive,warmup,0,37.5665,126.978,20.0,0.0,,,,,,,3,12,37.5665,126.978,20.0,,,,0.0,0.0,GPS_RAW_INT,EKF3 IMU0 MAG0 initial yaw alignment complete,STABILIZE,,,
2026-07-06T16:37:27.238262+00:00,5.152154922485352,E3_fc_direct_gps_input_positive,warmup,0,37.5665,126.978,20.0,0.0,,,,,,,3,12,37.5665,126.978,20.0,,,,0.0,0.0,HEARTBEAT,EKF3 IMU0 MAG0 initial yaw alignment complete,STABILIZE,,,
2026-07-06T16:37:27.238416+00:00,5.152288913726807,E3_fc_direct_gps_input_positive,warmup,0,37.5665,126.978,20.0,0.0,37.5665,126.978,20.0,0.0,0.0,0,3,12,37.5665,126.978,20.0,0.0,0.0,-0.02,0.0,0.0,GLOBAL_POSITION_INT,EKF3 IMU0 MAG0 initial yaw alignment complete,STABILIZE,,,
2026-07-06T16:37:27.238758+00:00,5.1526312828063965,E3_fc_direct_gps_input_positive,warmup,0,37.5665,126.978,20.0,0.0,,,,,,,3,12,37.5665,126.978,20.0,,,,0.0,0.0,GPS_RAW_INT,EKF3 IMU0 MAG0 initial yaw alignment complete,STABILIZE,,,
2026-07-06T16:37:27.446949+00:00,5.360843658447266,E3_fc_direct_gps_input_positive,warmup,0,37.5665,126.978,20.0,0.0,,,,,,,3,12,37.5665,126.978,20.0,,,,0.0,0.0,HEARTBEAT,EKF3 IMU0 MAG0 initial yaw alignment complete,STABILIZE,,,
2026-07-06T16:37:27.447104+00:00,5.360980272293091,E3_fc_direct_gps_input_positive,warmup,0,37.5665,126.978,20.0,0.0,37.5665,126.978,20.0,0.0,0.0,0,3,12,37.5665,126.978,20.0,0.0,0.0,-0.02,0.0,0.0,GLOBAL_POSITION_INT,EKF3 IMU0 MAG0 initial yaw alignment complete,STABILIZE,,,
2026-07-06T16:37:27.447514+00:00,5.361390113830566,E3_fc_direct_gps_input_positive,warmup,0,37.5665,126.978,20.0,0.0,,,,,,,3,12,37.5665,126.978,20.0,,,,0.0,0.0,GPS_RAW_INT,EKF3 IMU0 MAG0 initial yaw alignment complete,STABILIZE,,,
2026-07-06T16:37:27.637812+00:00,5.5517027378082275,E3_fc_direct_gps_input_positive,injection,1,37.56650635201923,126.97800801368734,20.0,0.9988764305990786,,,,,,,3,12,37.5665,126.978,20.0,,,,2.0,4.0,HEARTBEAT,EKF3 IMU0 MAG0 initial yaw alignment complete,STABILIZE,,,
2026-07-06T16:37:27.637966+00:00,5.551837921142578,E3_fc_direct_gps_input_positive,injection,1,37.56650635201923,126.97800801368734,20.0,0.9988764305990786,37.5665063,126.978008,20.0,0.9939385639803775,0.005908737696590499,1,3,12,37.5665,126.978,20.0,0.0,0.0,-0.03,2.0,4.0,GLOBAL_POSITION_INT,EKF3 IMU0 MAG0 initial yaw alignment complete,STABILIZE,,,
2026-07-06T16:37:27.638322+00:00,5.552194595336914,E3_fc_direct_gps_input_positive,injection,1,37.56650635201923,126.97800801368734,20.0,0.9988764305990786,,,,,,,3,12,37.5665063,126.978008,20.0,,,,2.0,4.0,GPS_RAW_INT,EKF3 IMU0 MAG0 initial yaw alignment complete,STABILIZE,,,
2026-07-06T16:37:27.840446+00:00,5.754337549209595,E3_fc_direct_gps_input_positive,injection,1,37.56650635201923,126.97800801368734,20.0,0.9988764305990786,,,,,,,3,12,37.5665063,126.978008,20.0,,,,2.0,4.0,HEARTBEAT,EKF3 IMU0 MAG0 initial yaw alignment complete,STABILIZE,,,
2026-07-06T16:37:27.840616+00:00,5.754488468170166,E3_fc_direct_gps_input_positive,injection,1,37.56650635201923,126.97800801368734,20.0,0.9988764305990786,37.5665063,126.978008,20.0,0.9939385639803775,0.005908737696590499,1,3,12,37.5665063,126.978008,20.0,0.0,0.0,-0.03,2.0,4.0,GLOBAL_POSITION_INT,EKF3 IMU0 MAG0 initial yaw alignment complete,STABILIZE,,,
2026-07-06T16:37:27.841100+00:00,5.754976511001587,E3_fc_direct_gps_input_positive,injection,1,37.56650635201923,126.97800801368734,20.0,0.9988764305990786,,,,,,,3,12,37.5665063,126.978008,20.0,,,,2.0,4.0,GPS_RAW_INT,EKF3 IMU0 MAG0 initial yaw alignment complete,STABILIZE,,,
2026-07-06T16:37:28.035127+00:00,5.949021100997925,E3_fc_direct_gps_input_positive,injection,1,37.56650635201923,126.97800801368734,20.0,0.9988764305990786,,,,,,,3,12,37.5665063,126.978008,20.0,,,,2.0,4.0,HEARTBEAT,EKF3 IMU0 MAG0 initial yaw alignment complete,STABILIZE,,,
2026-07-06T16:37:28.035543+00:00,5.949423789978027,E3_fc_direct_gps_input_positive,injection,2,37.566512704038466,126.9780160273747,20.0,1.997752818609409,37.5665063,126.978008,20.0,0.9939385639803775,1.0038247456264553,1,3,12,37.5665063,126.978008,20.0,0.0,0.0,-0.03,2.0,0.0,GLOBAL_POSITION_INT,EKF3 IMU0 MAG0 initial yaw alignment complete,STABILIZE,,,
2026-07-06T16:37:28.035909+00:00,5.949781894683838,E3_fc_direct_gps_input_positive,injection,2,37.566512704038466,126.9780160273747,20.0,1.997752818609409,,,,,,,3,12,37.5665063,126.978008,20.0,,,,2.0,0.0,GPS_RAW_INT,EKF3 IMU0 MAG0 initial yaw alignment complete,STABILIZE,,,
2026-07-06T16:37:28.233763+00:00,6.147656440734863,E3_fc_direct_gps_input_positive,injection,2,37.566512704038466,126.9780160273747,20.0,1.997752818609409,,,,,,,3,12,37.5665063,126.978008,20.0,,,,2.0,0.0,HEARTBEAT,EKF3 IMU0 MAG0 initial yaw alignment complete,STABILIZE,,,
2026-07-06T16:37:28.234120+00:00,6.148001432418823,E3_fc_direct_gps_input_positive,injection,2,37.566512704038466,126.9780160273747,20.0,1.997752818609409,37.5665127,126.978016,20.0,1.9957296931827684,0.00245419022910509,1,3,12,37.5665063,126.978008,20.0,0.0,0.0,-0.04,2.0,0.0,GLOBAL_POSITION_INT,EKF3 IMU0 MAG0 initial yaw alignment complete,STABILIZE,,,
2026-07-06T16:37:28.236354+00:00,6.150233268737793,E3_fc_direct_gps_input_positive,injection,2,37.566512704038466,126.9780160273747,20.0,1.997752818609409,,,,,,,3,12,37.5665127,126.978016,20.0,,,,2.0,0.0,GPS_RAW_INT,EKF3 IMU0 MAG0 initial yaw alignment complete,STABILIZE,,,
2026-07-06T16:37:28.437758+00:00,6.351654052734375,E3_fc_direct_gps_input_positive,injection,2,37.566512704038466,126.9780160273747,20.0,1.997752818609409,,,,,,,3,12,37.5665127,126.978016,20.0,,,,2.0,0.0,HEARTBEAT,EKF3 IMU0 MAG0 initial yaw alignment complete,STABILIZE,,,
2026-07-06T16:37:28.437933+00:00,6.351805210113525,E3_fc_direct_gps_input_positive,injection,2,37.566512704038466,126.9780160273747,20.0,1.997752818609409,37.5665127,126.978016,20.0,1.9957296931827684,0.00245419022910509,1,3,12,37.5665127,126.978016,20.0,0.0,0.0,-0.04,2.0,0.0,GLOBAL_POSITION_INT,EKF3 IMU0 MAG0 initial yaw alignment complete,STABILIZE,,,
2026-07-06T16:37:28.438311+00:00,6.352189064025879,E3_fc_direct_gps_input_positive,injection,2,37.566512704038466,126.9780160273747,20.0,1.997752818609409,,,,,,,3,12,37.5665127,126.978016,20.0,,,,2.0,0.0,GPS_RAW_INT,EKF3 IMU0 MAG0 initial yaw alignment complete,STABILIZE,,,
2026-07-06T16:37:28.654830+00:00,6.568725109100342,E3_fc_direct_gps_input_positive,injection,3,37.5665190560577,126.97802404106206,20.0,2.9966291649166483,,,,,,,3,12,37.5665127,126.978016,20.0,,,,2.0,4.440892098500626e-16,HEARTBEAT,EKF3 IMU0 MAG0 initial yaw alignment complete,STABILIZE,,,
2026-07-06T16:37:28.655198+00:00,6.56907844543457,E3_fc_direct_gps_input_positive,injection,3,37.5665190560577,126.97802404106206,20.0,2.9966291649166483,37.566519,126.978024,20.0,2.989662989559788,0.007207813323002627,1,3,12,37.5665127,126.978016,20.0,0.0,0.0,-0.04,2.0,4.440892098500626e-16,GLOBAL_POSITION_INT,EKF3 IMU0 MAG0 initial yaw alignment complete,STABILIZE,,,
2026-07-06T16:37:28.655916+00:00,6.569797515869141,E3_fc_direct_gps_input_positive,injection,3,37.5665190560577,126.97802404106206,20.0,2.9966291649166483,,,,,,,3,12,37.566519,126.978024,20.0,,,,2.0,4.440892098500626e-16,GPS_RAW_INT,EKF3 IMU0 MAG0 initial yaw alignment complete,STABILIZE,,,
2026-07-06T16:37:28.840231+00:00,6.754126787185669,E3_fc_direct_gps_input_positive,injection,3,37.5665190560577,126.97802404106206,20.0,2.9966291649166483,,,,,,,3,12,37.566519,126.978024,20.0,,,,2.0,4.440892098500626e-16,HEARTBEAT,EKF3 IMU0 MAG0 initial yaw alignment complete,STABILIZE,,,
2026-07-06T16:37:28.840457+00:00,6.754335165023804,E3_fc_direct_gps_input_positive,injection,3,37.5665190560577,126.97802404106206,20.0,2.9966291649166483,37.566519,126.978024,20.0,2.989662989559788,0.007207813323002627,1,3,12,37.566519,126.978024,20.0,0.0,0.0,-0.04,2.0,4.440892098500626e-16,GLOBAL_POSITION_INT,EKF3 IMU0 MAG0 initial yaw alignment complete,STABILIZE,,,
2026-07-06T16:37:28.840961+00:00,6.754838466644287,E3_fc_direct_gps_input_positive,injection,3,37.5665190560577,126.97802404106206,20.0,2.9966291649166483,,,,,,,3,12,37.566519,126.978024,20.0,,,,2.0,4.440892098500626e-16,GPS_RAW_INT,EKF3 IMU0 MAG0 initial yaw alignment complete,STABILIZE,,,
2026-07-06T16:37:29.042463+00:00,6.956359386444092,E3_fc_direct_gps_input_positive,injection,3,37.5665190560577,126.97802404106206,20.0,2.9966291649166483,,,,,,,3,12,37.566519,126.978024,20.0,,,,2.0,4.440892098500626e-16,HEARTBEAT,EKF3 IMU0 MAG0 initial yaw alignment complete,STABILIZE,,,
2026-07-06T16:37:29.042671+00:00,6.956550598144531,E3_fc_direct_gps_input_positive,injection,3,37.5665190560577,126.97802404106206,20.0,2.9966291649166483,37.566519,126.978024,20.0,2.989662989559788,0.007207813323002627,1,3,12,37.566519,126.978024,20.0,0.0,0.0,-0.04,2.0,4.440892098500626e-16,GLOBAL_POSITION_INT,EKF3 IMU0 MAG0 initial yaw alignment complete,STABILIZE,,,
2026-07-06T16:37:29.043159+00:00,6.957036733627319,E3_fc_direct_gps_input_positive,injection,3,37.5665190560577,126.97802404106206,20.0,2.9966291649166483,,,,,,,3,12,37.566519,126.978024,20.0,,,,2.0,4.440892098500626e-16,GPS_RAW_INT,EKF3 IMU0 MAG0 initial yaw alignment complete,STABILIZE,,,
2026-07-06T16:37:29.239953+00:00,7.153846740722656,E3_fc_direct_gps_input_positive,injection,4,37.566525408076934,126.9780320547494,20.0,3.9955054677494575,,,,,,,3,12,37.566519,126.978024,20.0,,,,1.9999999999999998,8.881784197001252e-16,HEARTBEAT,EKF3 IMU0 MAG0 initial yaw alignment complete,STABILIZE,,,
2026-07-06T16:37:29.240097+00:00,7.153967380523682,E3_fc_direct_gps_input_positive,injection,4,37.566525408076934,126.9780320547494,20.0,3.9955054677494575,37.5665254,126.978032,20.0,3.9914592170329293,0.00490838073606408,1,3,12,37.566519,126.978024,20.0,0.0,0.0,-0.04,1.9999999999999998,8.881784197001252e-16,GLOBAL_POSITION_INT,EKF3 IMU0 MAG0 initial yaw alignment complete,STABILIZE,,,
2026-07-06T16:37:29.240393+00:00,7.154264688491821,E3_fc_direct_gps_input_positive,injection,4,37.566525408076934,126.9780320547494,20.0,3.9955054677494575,,,,,,,3,12,37.5665254,126.978032,20.0,,,,1.9999999999999998,8.881784197001252e-16,GPS_RAW_INT,EKF3 IMU0 MAG0 initial yaw alignment complete,STABILIZE,,,
2026-07-06T16:37:29.446198+00:00,7.360095262527466,E3_fc_direct_gps_input_positive,injection,4,37.566525408076934,126.9780320547494,20.0,3.9955054677494575,,,,,,,3,12,37.5665254,126.978032,20.0,,,,1.9999999999999998,8.881784197001252e-16,HEARTBEAT,EKF3 IMU0 MAG0 initial yaw alignment complete,STABILIZE,,,
2026-07-06T16:37:29.446382+00:00,7.360260009765625,E3_fc_direct_gps_input_positive,injection,4,37.566525408076934,126.9780320547494,20.0,3.9955054677494575,37.5665254,126.978032,20.0,3.9914592170329293,0.00490838073606408,1,3,12,37.5665254,126.978032,20.0,0.0,0.0,-0.04,1.9999999999999998,8.881784197001252e-16,GLOBAL_POSITION_INT,EKF3 IMU0 MAG0 initial yaw alignment complete,STABILIZE,,,
2026-07-06T16:37:29.446803+00:00,7.3606812953948975,E3_fc_direct_gps_input_positive,injection,4,37.566525408076934,126.9780320547494,20.0,3.9955054677494575,,,,,,,3,12,37.5665254,126.978032,20.0,,,,1.9999999999999998,8.881784197001252e-16,GPS_RAW_INT,EKF3 IMU0 MAG0 initial yaw alignment complete,STABILIZE,,,
2026-07-06T16:37:29.644839+00:00,7.558715105056763,E3_fc_direct_gps_input_positive,injection,5,37.56653176009617,126.97804006843675,20.0,4.994381727993494,,,,,,,3,12,37.5665254,126.978032,20.0,,,,1.9999999999999998,0.0,HEARTBEAT,EKF3 IMU0 MAG0 initial yaw alignment complete,STABILIZE,,,
2026-07-06T16:37:29.645003+00:00,7.558880567550659,E3_fc_direct_gps_input_positive,injection,5,37.56653176009617,126.97804006843675,20.0,4.994381727993494,37.5665254,126.978032,20.0,3.9914592170329293,1.0029273210391334,1,3,12,37.5665254,126.978032,20.0,0.0,0.0,-0.04,1.9999999999999998,0.0,GLOBAL_POSITION_INT,EKF3 IMU0 MAG0 initial yaw alignment complete,STABILIZE,,,
2026-07-06T16:37:29.645358+00:00,7.559229850769043,E3_fc_direct_gps_input_positive,injection,5,37.56653176009617,126.97804006843675,20.0,4.994381727993494,,,,,,,3,12,37.5665254,126.978032,20.0,,,,1.9999999999999998,0.0,GPS_RAW_INT,EKF3 IMU0 MAG0 initial yaw alignment complete,STABILIZE,,,
2026-07-06T16:37:29.852464+00:00,7.766360521316528,E3_fc_direct_gps_input_positive,injection,5,37.56653176009617,126.97804006843675,20.0,4.994381727993494,,,,,,,3,12,37.5665254,126.978032,20.0,,,,1.9999999999999998,0.0,HEARTBEAT,EKF3 IMU0 MAG0 initial yaw alignment complete,STABILIZE,,,
2026-07-06T16:37:29.852637+00:00,7.766512632369995,E3_fc_direct_gps_input_positive,injection,5,37.56653176009617,126.97804006843675,20.0,4.994381727993494,37.5665317,126.97804,20.0,4.985391393888302,0.009002114317831598,1,3,12,37.5665254,126.978032,20.0,0.0,0.0,-0.03,1.9999999999999998,0.0,GLOBAL_POSITION_INT,EKF3 IMU0 MAG0 initial yaw alignment complete,STABILIZE,,,
2026-07-06T16:37:29.853183+00:00,7.76706337928772,E3_fc_direct_gps_input_positive,injection,5,37.56653176009617,126.97804006843675,20.0,4.994381727993494,,,,,,,3,12,37.5665317,126.97804,20.0,,,,1.9999999999999998,0.0,GPS_RAW_INT,EKF3 IMU0 MAG0 initial yaw alignment complete,STABILIZE,,,
2026-07-06T16:37:30.036177+00:00,7.950069904327393,E3_fc_direct_gps_input_positive,injection,5,37.56653176009617,126.97804006843675,20.0,4.994381727993494,,,,,,,3,12,37.5665317,126.97804,20.0,,,,1.9999999999999998,0.0,HEARTBEAT,EKF3 IMU0 MAG0 initial yaw alignment complete,STABILIZE,,,
2026-07-06T16:37:30.036601+00:00,7.95048189163208,E3_fc_direct_gps_input_positive,injection,5,37.56653176009617,126.97804006843675,20.0,4.994381727993494,37.5665317,126.97804,20.0,4.985391393888302,0.009002114317831598,1,3,12,37.5665317,126.97804,20.0,0.0,0.0,-0.03,1.9999999999999998,0.0,GLOBAL_POSITION_INT,EKF3 IMU0 MAG0 initial yaw alignment complete,STABILIZE,,,
2026-07-06T16:37:30.038614+00:00,7.952493190765381,E3_fc_direct_gps_input_positive,injection,5,37.56653176009617,126.97804006843675,20.0,4.994381727993494,,,,,,,3,12,37.5665317,126.97804,20.0,,,,1.9999999999999998,0.0,GPS_RAW_INT,EKF3 IMU0 MAG0 initial yaw alignment complete,STABILIZE,,,
2026-07-06T16:37:30.234286+00:00,8.148178577423096,E3_fc_direct_gps_input_positive,injection,6,37.5665381121154,126.9780480821241,20.0,5.993257945648749,,,,,,,3,12,37.5665317,126.97804,20.0,,,,2.0000000000000004,1.7763568394002505e-15,HEARTBEAT,EKF3 IMU0 MAG0 initial yaw alignment complete,STABILIZE,,,
2026-07-06T16:37:30.234449+00:00,8.14832067489624,E3_fc_direct_gps_input_positive,injection,6,37.5665381121154,126.9780480821241,20.0,5.993257945648749,37.5665381,126.978048,20.0,5.987188570432289,0.007362569347262746,1,3,12,37.5665317,126.97804,20.0,0.0,0.0,-0.03,2.0000000000000004,1.7763568394002505e-15,GLOBAL_POSITION_INT,EKF3 IMU0 MAG0 initial yaw alignment complete,STABILIZE,,,
2026-07-06T16:37:30.234798+00:00,8.14867115020752,E3_fc_direct_gps_input_positive,injection,6,37.5665381121154,126.9780480821241,20.0,5.993257945648749,,,,,,,3,12,37.5665381,126.978048,20.0,,,,2.0000000000000004,1.7763568394002505e-15,GPS_RAW_INT,EKF3 IMU0 MAG0 initial yaw alignment complete,STABILIZE,,,
2026-07-06T16:37:30.437532+00:00,8.351425409317017,E3_fc_direct_gps_input_positive,injection,6,37.5665381121154,126.9780480821241,20.0,5.993257945648749,,,,,,,3,12,37.5665381,126.978048,20.0,,,,2.0000000000000004,1.7763568394002505e-15,HEARTBEAT,EKF3 IMU0 MAG0 initial yaw alignment complete,STABILIZE,,,
2026-07-06T16:37:30.437697+00:00,8.360014915466309,E3_fc_direct_gps_input_positive,injection,6,37.5665381121154,126.9780480821241,20.0,5.993257945648749,37.5665381,126.978048,20.0,5.987188570432289,0.007362569347262746,1,3,12,37.5665381,126.978048,20.0,0.0,0.0,-0.03,2.0000000000000004,1.7763568394002505e-15,GLOBAL_POSITION_INT,EKF3 IMU0 MAG0 initial yaw alignment complete,STABILIZE,,,
2026-07-06T16:37:30.446679+00:00,8.360563516616821,E3_fc_direct_gps_input_positive,injection,6,37.5665381121154,126.9780480821241,20.0,5.993257945648749,,,,,,,3,12,37.5665381,126.978048,20.0,,,,2.0000000000000004,1.7763568394002505e-15,GPS_RAW_INT,EKF3 IMU0 MAG0 initial yaw alignment complete,STABILIZE,,,
2026-07-06T16:37:30.639323+00:00,8.55321741104126,E3_fc_direct_gps_input_positive,injection,6,37.5665381121154,126.9780480821241,20.0,5.993257945648749,,,,,,,3,12,37.5665381,126.978048,20.0,,,,2.0000000000000004,1.7763568394002505e-15,HEARTBEAT,EKF3 IMU0 MAG0 initial yaw alignment complete,STABILIZE,,,
2026-07-06T16:37:30.639483+00:00,8.55335521697998,E3_fc_direct_gps_input_positive,injection,6,37.5665381121154,126.9780480821241,20.0,5.993257945648749,37.5665381,126.978048,20.0,5.987188570432289,0.007362569347262746,1,3,12,37.5665381,126.978048,20.0,0.0,0.0,-0.03,2.0000000000000004,1.7763568394002505e-15,GLOBAL_POSITION_INT,EKF3 IMU0 MAG0 initial yaw alignment complete,STABILIZE,,,
2026-07-06T16:37:30.639839+00:00,8.553713321685791,E3_fc_direct_gps_input_positive,injection,6,37.5665381121154,126.9780480821241,20.0,5.993257945648749,,,,,,,3,12,37.5665381,126.978048,20.0,,,,2.0000000000000004,1.7763568394002505e-15,GPS_RAW_INT,EKF3 IMU0 MAG0 initial yaw alignment complete,STABILIZE,,,
2026-07-06T16:37:30.836530+00:00,8.750438213348389,E3_fc_direct_gps_input_positive,injection,7,37.56654446413464,126.97805609581145,20.0,6.992134120715214,,,,,,,3,12,37.5665381,126.978048,20.0,,,,1.9999999999999984,3.972054645195637e-15,HEARTBEAT,EKF3 IMU0 MAG0 initial yaw alignment complete,STABILIZE,,,
2026-07-06T16:37:30.836747+00:00,8.750621318817139,E3_fc_direct_gps_input_positive,injection,7,37.56654446413464,126.97805609581145,20.0,6.992134120715214,37.5665444,126.978056,20.0,6.981120219999487,0.011053036504831852,1,3,12,37.5665381,126.978048,20.0,0.0,0.0,-0.03,1.9999999999999984,3.972054645195637e-15,GLOBAL_POSITION_INT,EKF3 IMU0 MAG0 initial yaw alignment complete,STABILIZE,,,
2026-07-06T16:37:30.837148+00:00,8.751024723052979,E3_fc_direct_gps_input_positive,injection,7,37.56654446413464,126.97805609581145,20.0,6.992134120715214,,,,,,,3,12,37.5665444,126.978056,20.0,,,,1.9999999999999984,3.972054645195637e-15,GPS_RAW_INT,EKF3 IMU0 MAG0 initial yaw alignment complete,STABILIZE,,,
2026-07-06T16:37:31.039032+00:00,8.952928066253662,E3_fc_direct_gps_input_positive,injection,7,37.56654446413464,126.97805609581145,20.0,6.992134120715214,,,,,,,3,12,37.5665444,126.978056,20.0,,,,1.9999999999999984,3.972054645195637e-15,HEARTBEAT,EKF3 IMU0 MAG0 initial yaw alignment complete,STABILIZE,,,
2026-07-06T16:37:31.039191+00:00,8.953064441680908,E3_fc_direct_gps_input_positive,injection,7,37.56654446413464,126.97805609581145,20.0,6.992134120715214,37.5665444,126.978056,20.0,6.981120219999487,0.011053036504831852,1,3,12,37.5665444,126.978056,20.0,0.0,0.0,-0.03,1.9999999999999984,3.972054645195637e-15,GLOBAL_POSITION_INT,EKF3 IMU0 MAG0 initial yaw alignment complete,STABILIZE,,,
2026-07-06T16:37:31.039610+00:00,8.953487873077393,E3_fc_direct_gps_input_positive,injection,7,37.56654446413464,126.97805609581145,20.0,6.992134120715214,,,,,,,3,12,37.5665444,126.978056,20.0,,,,1.9999999999999984,3.972054645195637e-15,GPS_RAW_INT,EKF3 IMU0 MAG0 initial yaw alignment complete,STABILIZE,,,
2026-07-06T16:37:31.243135+00:00,9.159370422363281,E3_fc_direct_gps_input_positive,injection,8,37.56655081615387,126.9780641094988,20.0,7.991010253192881,,,,,,,3,12,37.5665444,126.978056,20.0,,,,2.000000000000001,5.0242958677880805e-15,HEARTBEAT,EKF3 IMU0 MAG0 initial yaw alignment complete,STABILIZE,,,
2026-07-06T16:37:31.245736+00:00,9.159615516662598,E3_fc_direct_gps_input_positive,injection,8,37.56655081615387,126.9780641094988,20.0,7.991010253192881,37.5665508,126.9780641,20.0,7.989148161816393,0.001981754890039203,1,3,12,37.5665444,126.978056,20.0,0.0,0.0,-0.02,2.000000000000001,5.0242958677880805e-15,GLOBAL_POSITION_INT,EKF3 IMU0 MAG0 initial yaw alignment complete,STABILIZE,,,
2026-07-06T16:37:31.246706+00:00,9.160590887069702,E3_fc_direct_gps_input_positive,injection,8,37.56655081615387,126.9780641094988,20.0,7.991010253192881,,,,,,,3,12,37.5665508,126.9780641,20.0,,,,2.000000000000001,5.0242958677880805e-15,GPS_RAW_INT,EKF3 IMU0 MAG0 initial yaw alignment complete,STABILIZE,,,
2026-07-06T16:37:31.438564+00:00,9.352461099624634,E3_fc_direct_gps_input_positive,injection,8,37.56655081615387,126.9780641094988,20.0,7.991010253192881,,,,,,,3,12,37.5665508,126.9780641,20.0,,,,2.000000000000001,5.0242958677880805e-15,HEARTBEAT,EKF3 IMU0 MAG0 initial yaw alignment complete,STABILIZE,,,
2026-07-06T16:37:31.438772+00:00,9.352651596069336,E3_fc_direct_gps_input_positive,injection,8,37.56655081615387,126.9780641094988,20.0,7.991010253192881,37.5665508,126.9780641,20.0,7.989148161816393,0.001981754890039203,1,3,12,37.5665508,126.9780641,20.0,0.0,0.0,-0.02,2.000000000000001,5.0242958677880805e-15,GLOBAL_POSITION_INT,EKF3 IMU0 MAG0 initial yaw alignment complete,STABILIZE,,,
2026-07-06T16:37:31.439206+00:00,9.353083848953247,E3_fc_direct_gps_input_positive,injection,8,37.56655081615387,126.9780641094988,20.0,7.991010253192881,,,,,,,3,12,37.5665508,126.9780641,20.0,,,,2.000000000000001,5.0242958677880805e-15,GPS_RAW_INT,EKF3 IMU0 MAG0 initial yaw alignment complete,STABILIZE,,,
2026-07-06T16:37:31.635763+00:00,9.549658298492432,E3_fc_direct_gps_input_positive,injection,8,37.56655081615387,126.9780641094988,20.0,7.991010253192881,,,,,,,3,12,37.5665508,126.9780641,20.0,,,,2.000000000000001,5.0242958677880805e-15,HEARTBEAT,EKF3 IMU0 MAG0 initial yaw alignment complete,STABILIZE,,,
2026-07-06T16:37:31.635933+00:00,9.549809455871582,E3_fc_direct_gps_input_positive,injection,8,37.56655081615387,126.9780641094988,20.0,7.991010253192881,37.5665508,126.9780641,20.0,7.989148161816393,0.001981754890039203,1,3,12,37.5665508,126.9780641,20.0,0.0,0.0,-0.02,2.000000000000001,5.0242958677880805e-15,GLOBAL_POSITION_INT,EKF3 IMU0 MAG0 initial yaw alignment complete,STABILIZE,,,
2026-07-06T16:37:31.639200+00:00,9.55308723449707,E3_fc_direct_gps_input_positive,injection,8,37.56655081615387,126.9780641094988,20.0,7.991010253192881,,,,,,,3,12,37.5665508,126.9780641,20.0,,,,2.000000000000001,5.0242958677880805e-15,GPS_RAW_INT,EKF3 IMU0 MAG0 initial yaw alignment complete,STABILIZE,,,
2026-07-06T16:37:31.840731+00:00,9.754626035690308,E3_fc_direct_gps_input_positive,injection,9,37.566557168173105,126.97807212318617,20.0,8.989886343967408,,,,,,,3,12,37.5665508,126.9780641,20.0,,,,2.000000000000001,0.0,HEARTBEAT,EKF3 IMU0 MAG0 initial yaw alignment complete,STABILIZE,,,
2026-07-06T16:37:31.840982+00:00,9.754863023757935,E3_fc_direct_gps_input_positive,injection,9,37.566557168173105,126.97807212318617,20.0,8.989886343967408,37.5665571,126.9780721,20.0,8.983081938897369,0.007851132416971527,1,3,12,37.5665508,126.9780641,20.0,0.0,0.0,-0.02,2.000000000000001,0.0,GLOBAL_POSITION_INT,EKF3 IMU0 MAG0 initial yaw alignment complete,STABILIZE,,,
2026-07-06T16:37:31.841407+00:00,9.755284309387207,E3_fc_direct_gps_input_positive,injection,9,37.566557168173105,126.97807212318617,20.0,8.989886343967408,,,,,,,3,12,37.5665571,126.9780721,20.0,,,,2.000000000000001,0.0,GPS_RAW_INT,EKF3 IMU0 MAG0 initial yaw alignment complete,STABILIZE,,,
2026-07-06T16:37:32.046222+00:00,9.960118532180786,E3_fc_direct_gps_input_positive,injection,9,37.566557168173105,126.97807212318617,20.0,8.989886343967408,,,,,,,3,12,37.5665571,126.9780721,20.0,,,,2.000000000000001,0.0,HEARTBEAT,EKF3 IMU0 MAG0 initial yaw alignment complete,STABILIZE,,,
2026-07-06T16:37:32.046421+00:00,9.960299968719482,E3_fc_direct_gps_input_positive,injection,9,37.566557168173105,126.97807212318617,20.0,8.989886343967408,37.5665571,126.9780721,20.0,8.983081938897369,0.007851132416971527,1,3,12,37.5665571,126.9780721,20.0,0.0,0.0,-0.02,2.000000000000001,0.0,GLOBAL_POSITION_INT,EKF3 IMU0 MAG0 initial yaw alignment complete,STABILIZE,,,
2026-07-06T16:37:32.046932+00:00,9.960809707641602,E3_fc_direct_gps_input_positive,injection,9,37.566557168173105,126.97807212318617,20.0,8.989886343967408,,,,,,,3,12,37.5665571,126.9780721,20.0,,,,2.000000000000001,0.0,GPS_RAW_INT,EKF3 IMU0 MAG0 initial yaw alignment complete,STABILIZE,,,
2026-07-06T16:37:32.247837+00:00,10.161736249923706,E3_fc_direct_gps_input_positive,injection,9,37.566557168173105,126.97807212318617,20.0,8.989886343967408,,,,,,,3,12,37.5665571,126.9780721,20.0,,,,2.000000000000001,0.0,HEARTBEAT,EKF3 IMU0 MAG0 initial yaw alignment complete,STABILIZE,,,
2026-07-06T16:37:32.248014+00:00,10.161887884140015,E3_fc_direct_gps_input_positive,injection,9,37.566557168173105,126.97807212318617,20.0,8.989886343967408,37.5665571,126.9780721,20.0,8.983081938897369,0.007851132416971527,1,3,12,37.5665571,126.9780721,20.0,0.0,0.0,-0.02,2.000000000000001,0.0,GLOBAL_POSITION_INT,EKF3 IMU0 MAG0 initial yaw alignment complete,STABILIZE,,,
2026-07-06T16:37:32.248447+00:00,10.162328958511353,E3_fc_direct_gps_input_positive,injection,9,37.566557168173105,126.97807212318617,20.0,8.989886343967408,,,,,,,3,12,37.5665571,126.9780721,20.0,,,,2.000000000000001,0.0,GPS_RAW_INT,EKF3 IMU0 MAG0 initial yaw alignment complete,STABILIZE,,,
2026-07-06T16:37:32.440387+00:00,10.3542799949646,E3_fc_direct_gps_input_positive,injection,10,37.56656352019235,126.97808013687352,20.0,9.988762391826127,,,,,,,3,12,37.5665571,126.9780721,20.0,,,,1.9999999999999984,5.0242958677880805e-15,HEARTBEAT,EKF3 IMU0 MAG0 initial yaw alignment complete,STABILIZE,,,
2026-07-06T16:37:32.440556+00:00,10.354427099227905,E3_fc_direct_gps_input_positive,injection,10,37.56656352019235,126.97808013687352,20.0,9.988762391826127,37.5665635,126.9780801,20.0,9.984876688081394,0.003950136384100554,1,3,12,37.5665571,126.9780721,20.0,0.0,0.0,-0.02,1.9999999999999984,5.0242958677880805e-15,GLOBAL_POSITION_INT,EKF3 IMU0 MAG0 initial yaw alignment complete,STABILIZE,,,
2026-07-06T16:37:32.466326+00:00,10.380221366882324,E3_fc_direct_gps_input_positive,injection,10,37.56656352019235,126.97808013687352,20.0,9.988762391826127,,,,,,,3,12,37.5665635,126.9780801,20.0,,,,1.9999999999999984,5.0242958677880805e-15,GPS_RAW_INT,EKF3 IMU0 MAG0 initial yaw alignment complete,STABILIZE,,,
2026-07-06T16:37:32.644686+00:00,10.558581829071045,E3_fc_direct_gps_input_positive,injection,10,37.56656352019235,126.97808013687352,20.0,9.988762391826127,,,,,,,3,12,37.5665635,126.9780801,20.0,,,,1.9999999999999984,5.0242958677880805e-15,HEARTBEAT,EKF3 IMU0 MAG0 initial yaw alignment complete,STABILIZE,,,
2026-07-06T16:37:32.644842+00:00,10.558712244033813,E3_fc_direct_gps_input_positive,injection,10,37.56656352019235,126.97808013687352,20.0,9.988762391826127,37.5665635,126.9780801,20.0,9.984876688081394,0.003950136384100554,1,3,12,37.5665635,126.9780801,20.0,0.0,0.0,-0.02,1.9999999999999984,5.0242958677880805e-15,GLOBAL_POSITION_INT,EKF3 IMU0 MAG0 initial yaw alignment complete,STABILIZE,,,
2026-07-06T16:37:32.645215+00:00,10.559089660644531,E3_fc_direct_gps_input_positive,injection,10,37.56656352019235,126.97808013687352,20.0,9.988762391826127,,,,,,,3,12,37.5665635,126.9780801,20.0,,,,1.9999999999999984,5.0242958677880805e-15,GPS_RAW_INT,EKF3 IMU0 MAG0 initial yaw alignment complete,STABILIZE,,,
2026-07-06T16:37:32.837215+00:00,10.751105308532715,E3_fc_direct_gps_input_positive,injection,11,37.56656987221158,126.97808815056086,20.0,10.987638396537346,,,,,,,3,12,37.5665635,126.9780801,20.0,,,,1.9999999999999998,3.552713678800501e-15,HEARTBEAT,EKF3 IMU0 MAG0 initial yaw alignment complete,STABILIZE,,,
2026-07-06T16:37:32.837392+00:00,10.751270055770874,E3_fc_direct_gps_input_positive,injection,11,37.56656987221158,126.97808815056086,20.0,10.987638396537346,37.5665698,126.9780881,20.0,10.978809821102969,0.00918329108405013,1,3,12,37.5665635,126.9780801,20.0,0.0,0.0,-0.02,1.9999999999999998,3.552713678800501e-15,GLOBAL_POSITION_INT,EKF3 IMU0 MAG0 initial yaw alignment complete,STABILIZE,,,
2026-07-06T16:37:32.837837+00:00,10.751713514328003,E3_fc_direct_gps_input_positive,injection,11,37.56656987221158,126.97808815056086,20.0,10.987638396537346,,,,,,,3,12,37.5665698,126.9780881,20.0,,,,1.9999999999999998,3.552713678800501e-15,GPS_RAW_INT,EKF3 IMU0 MAG0 initial yaw alignment complete,STABILIZE,,,
2026-07-06T16:37:32.854165+00:00,10.768058776855469,E3_fc_direct_gps_input_positive,injection,11,37.56656987221158,126.97808815056086,20.0,10.987638396537346,,,,,,,3,12,37.5665698,126.9780881,20.0,,,,1.9999999999999998,3.552713678800501e-15,STATUSTEXT,EKF3 IMU0 origin set,STABILIZE,,,
2026-07-06T16:37:32.866341+00:00,10.780240297317505,E3_fc_direct_gps_input_positive,injection,11,37.56656987221158,126.97808815056086,20.0,10.987638396537346,,,,,,,3,12,37.5665698,126.9780881,20.0,,,,1.9999999999999998,3.552713678800501e-15,STATUSTEXT,EKF3 IMU1 origin set,STABILIZE,,,
2026-07-06T16:37:32.903882+00:00,10.817775249481201,E3_fc_direct_gps_input_positive,injection,11,37.56656987221158,126.97808815056086,20.0,10.987638396537346,,,,,,,3,12,37.5665698,126.9780881,20.0,,,,1.9999999999999998,3.552713678800501e-15,STATUSTEXT,Field Elevation Set: 20m,STABILIZE,,,
2026-07-06T16:37:33.039628+00:00,10.953524112701416,E3_fc_direct_gps_input_positive,injection,11,37.56656987221158,126.97808815056086,20.0,10.987638396537346,,,,,,,3,12,37.5665698,126.9780881,20.0,,,,1.9999999999999998,3.552713678800501e-15,HEARTBEAT,Field Elevation Set: 20m,STABILIZE,,,
2026-07-06T16:37:33.039829+00:00,10.953707933425903,E3_fc_direct_gps_input_positive,injection,11,37.56656987221158,126.97808815056086,20.0,10.987638396537346,37.5665698,126.9780881,20.0,10.978809821102969,0.00918329108405013,1,3,12,37.5665698,126.9780881,20.0,0.0,0.0,0.0,1.9999999999999998,3.552713678800501e-15,GLOBAL_POSITION_INT,Field Elevation Set: 20m,STABILIZE,,,
2026-07-06T16:37:33.040289+00:00,10.954166650772095,E3_fc_direct_gps_input_positive,injection,11,37.56656987221158,126.97808815056086,20.0,10.987638396537346,,,,,,,3,12,37.5665698,126.9780881,20.0,,,,1.9999999999999998,3.552713678800501e-15,GPS_RAW_INT,Field Elevation Set: 20m,STABILIZE,,,
2026-07-06T16:37:33.258814+00:00,11.172708511352539,E3_fc_direct_gps_input_positive,injection,11,37.56656987221158,126.97808815056086,20.0,10.987638396537346,,,,,,,3,12,37.5665698,126.9780881,20.0,,,,1.9999999999999998,3.552713678800501e-15,HEARTBEAT,Field Elevation Set: 20m,STABILIZE,,,
2026-07-06T16:37:33.259076+00:00,11.172958135604858,E3_fc_direct_gps_input_positive,injection,11,37.56656987221158,126.97808815056086,20.0,10.987638396537346,37.5665698,126.9780881,20.0,10.978809821102969,0.00918329108405013,1,3,12,37.5665698,126.9780881,20.0,0.0,0.0,0.0,1.9999999999999998,3.552713678800501e-15,GLOBAL_POSITION_INT,Field Elevation Set: 20m,STABILIZE,,,
2026-07-06T16:37:33.259459+00:00,11.173337936401367,E3_fc_direct_gps_input_positive,injection,11,37.56656987221158,126.97808815056086,20.0,10.987638396537346,,,,,,,3,12,37.5665698,126.9780881,20.0,,,,1.9999999999999998,3.552713678800501e-15,GPS_RAW_INT,Field Elevation Set: 20m,STABILIZE,,,
2026-07-06T16:37:33.458874+00:00,11.372778177261353,E3_fc_direct_gps_input_positive,injection,12,37.566576224230815,126.97809616424821,20.0,11.986514358659738,,,,,,,3,12,37.5665698,126.9780881,20.0,,,,2.000000000000001,3.552713678800501e-15,HEARTBEAT,Field Elevation Set: 20m,STABILIZE,,,
2026-07-06T16:37:33.459054+00:00,11.372926473617554,E3_fc_direct_gps_input_positive,injection,12,37.566576224230815,126.97809616424821,20.0,11.986514358659738,37.5665762,126.9780961,20.0,11.980605206554753,0.006271034229535233,1,3,12,37.5665698,126.9780881,20.0,0.0,0.0,0.0,2.000000000000001,3.552713678800501e-15,GLOBAL_POSITION_INT,Field Elevation Set: 20m,STABILIZE,,,
2026-07-06T16:37:33.459406+00:00,11.373280048370361,E3_fc_direct_gps_input_positive,injection,12,37.566576224230815,126.97809616424821,20.0,11.986514358659738,,,,,,,3,12,37.5665762,126.9780961,20.0,,,,2.000000000000001,3.552713678800501e-15,GPS_RAW_INT,Field Elevation Set: 20m,STABILIZE,,,
2026-07-06T16:37:33.643008+00:00,11.556902885437012,E3_fc_direct_gps_input_positive,injection,12,37.566576224230815,126.97809616424821,20.0,11.986514358659738,,,,,,,3,12,37.5665762,126.9780961,20.0,,,,2.000000000000001,3.552713678800501e-15,HEARTBEAT,Field Elevation Set: 20m,STABILIZE,,,
2026-07-06T16:37:33.643204+00:00,11.557084560394287,E3_fc_direct_gps_input_positive,injection,12,37.566576224230815,126.97809616424821,20.0,11.986514358659738,37.5665762,126.9780961,20.0,11.980605206554753,0.006271034229535233,1,3,12,37.5665762,126.9780961,20.0,0.0,0.0,0.0,2.000000000000001,3.552713678800501e-15,GLOBAL_POSITION_INT,Field Elevation Set: 20m,STABILIZE,,,
2026-07-06T16:37:33.643595+00:00,11.557467699050903,E3_fc_direct_gps_input_positive,injection,12,37.566576224230815,126.97809616424821,20.0,11.986514358659738,,,,,,,3,12,37.5665762,126.9780961,20.0,,,,2.000000000000001,3.552713678800501e-15,GPS_RAW_INT,Field Elevation Set: 20m,STABILIZE,,,
2026-07-06T16:37:33.841655+00:00,11.755549669265747,E3_fc_direct_gps_input_positive,injection,12,37.566576224230815,126.97809616424821,20.0,11.986514358659738,,,,,,,3,12,37.5665762,126.9780961,20.0,,,,2.000000000000001,3.552713678800501e-15,HEARTBEAT,Field Elevation Set: 20m,STABILIZE,,,
2026-07-06T16:37:33.842010+00:00,11.755892038345337,E3_fc_direct_gps_input_positive,injection,12,37.566576224230815,126.97809616424821,20.0,11.986514358659738,37.5665762,126.9780961,20.0,11.980605206554753,0.006271034229535233,1,3,12,37.5665762,126.9780961,20.0,0.0,0.0,0.0,2.000000000000001,3.552713678800501e-15,GLOBAL_POSITION_INT,Field Elevation Set: 20m,STABILIZE,,,
2026-07-06T16:37:33.842395+00:00,11.75626826286316,E3_fc_direct_gps_input_positive,injection,12,37.566576224230815,126.97809616424821,20.0,11.986514358659738,,,,,,,3,12,37.5665762,126.9780961,20.0,,,,2.000000000000001,3.552713678800501e-15,GPS_RAW_INT,Field Elevation Set: 20m,STABILIZE,,,
2026-07-06T16:37:34.043718+00:00,11.957613706588745,E3_fc_direct_gps_input_positive,injection,13,37.56658257625005,126.97810417793556,20.0,12.985390278193282,,,,,,,3,12,37.5665762,126.9780961,20.0,,,,2.000000000000001,0.0,HEARTBEAT,Field Elevation Set: 20m,STABILIZE,,,
2026-07-06T16:37:34.043876+00:00,11.957747459411621,E3_fc_direct_gps_input_positive,injection,13,37.56658257625005,126.97810417793556,20.0,12.985390278193282,37.5665825,126.9781041,20.0,12.974537855381545,0.010911986608970164,1,3,12,37.5665762,126.9780961,20.0,0.0,0.0,0.0,2.000000000000001,0.0,GLOBAL_POSITION_INT,Field Elevation Set: 20m,STABILIZE,,,
2026-07-06T16:37:34.044220+00:00,11.958094120025635,E3_fc_direct_gps_input_positive,injection,13,37.56658257625005,126.97810417793556,20.0,12.985390278193282,,,,,,,3,12,37.5665825,126.9781041,20.0,,,,2.000000000000001,0.0,GPS_RAW_INT,Field Elevation Set: 20m,STABILIZE,,,
2026-07-06T16:37:34.244601+00:00,12.158495903015137,E3_fc_direct_gps_input_positive,injection,13,37.56658257625005,126.97810417793556,20.0,12.985390278193282,,,,,,,3,12,37.5665825,126.9781041,20.0,,,,2.000000000000001,0.0,HEARTBEAT,Field Elevation Set: 20m,STABILIZE,,,
2026-07-06T16:37:34.244802+00:00,12.15869426727295,E3_fc_direct_gps_input_positive,injection,13,37.56658257625005,126.97810417793556,20.0,12.985390278193282,37.5665825,126.9781041,20.0,12.974537855381545,0.010911986608970164,1,3,12,37.5665825,126.9781041,20.0,0.0,0.0,0.0,2.000000000000001,0.0,GLOBAL_POSITION_INT,Field Elevation Set: 20m,STABILIZE,,,
2026-07-06T16:37:34.245209+00:00,12.159085512161255,E3_fc_direct_gps_input_positive,injection,13,37.56658257625005,126.97810417793556,20.0,12.985390278193282,,,,,,,3,12,37.5665825,126.9781041,20.0,,,,2.000000000000001,0.0,GPS_RAW_INT,Field Elevation Set: 20m,STABILIZE,,,
2026-07-06T16:37:34.438344+00:00,12.35223388671875,E3_fc_direct_gps_input_positive,injection,13,37.56658257625005,126.97810417793556,20.0,12.985390278193282,,,,,,,3,12,37.5665825,126.9781041,20.0,,,,2.000000000000001,0.0,HEARTBEAT,Field Elevation Set: 20m,STABILIZE,,,
2026-07-06T16:37:34.438498+00:00,12.352369785308838,E3_fc_direct_gps_input_positive,injection,13,37.56658257625005,126.97810417793556,20.0,12.985390278193282,37.5665825,126.9781041,20.0,12.974537855381545,0.010911986608970164,1,3,12,37.5665825,126.9781041,20.0,0.0,0.0,0.0,2.000000000000001,0.0,GLOBAL_POSITION_INT,Field Elevation Set: 20m,STABILIZE,,,
2026-07-06T16:37:34.438848+00:00,12.35271954536438,E3_fc_direct_gps_input_positive,injection,13,37.56658257625005,126.97810417793556,20.0,12.985390278193282,,,,,,,3,12,37.5665825,126.9781041,20.0,,,,2.000000000000001,0.0,GPS_RAW_INT,Field Elevation Set: 20m,STABILIZE,,,
2026-07-06T16:37:34.640173+00:00,12.554067611694336,E3_fc_direct_gps_input_positive,injection,14,37.56658892826928,126.97811219162291,20.0,13.984266155137986,,,,,,,3,12,37.5665825,126.9781041,20.0,,,,1.999999999999996,1.0048591735576161e-14,HEARTBEAT,Field Elevation Set: 20m,STABILIZE,,,
2026-07-06T16:37:34.640364+00:00,12.554237365722656,E3_fc_direct_gps_input_positive,injection,14,37.56658892826928,126.97811219162291,20.0,13.984266155137986,37.5665889,126.9781121,20.0,13.976333647795823,0.008665692357385955,1,3,12,37.5665825,126.9781041,20.0,0.0,0.0,0.0,1.999999999999996,1.0048591735576161e-14,GLOBAL_POSITION_INT,Field Elevation Set: 20m,STABILIZE,,,
2026-07-06T16:37:34.640704+00:00,12.554576396942139,E3_fc_direct_gps_input_positive,injection,14,37.56658892826928,126.97811219162291,20.0,13.984266155137986,,,,,,,3,12,37.5665889,126.9781121,20.0,,,,1.999999999999996,1.0048591735576161e-14,GPS_RAW_INT,Field Elevation Set: 20m,STABILIZE,,,
2026-07-06T16:37:34.848318+00:00,12.762208700180054,E3_fc_direct_gps_input_positive,injection,14,37.56658892826928,126.97811219162291,20.0,13.984266155137986,,,,,,,3,12,37.5665889,126.9781121,20.0,,,,1.999999999999996,1.0048591735576161e-14,HEARTBEAT,Field Elevation Set: 20m,STABILIZE,,,
2026-07-06T16:37:34.848481+00:00,12.762353897094727,E3_fc_direct_gps_input_positive,injection,14,37.56658892826928,126.97811219162291,20.0,13.984266155137986,37.5665889,126.9781121,20.0,13.976333647795823,0.008665692357385955,1,3,12,37.5665889,126.9781121,20.0,0.0,0.0,0.0,1.999999999999996,1.0048591735576161e-14,GLOBAL_POSITION_INT,Field Elevation Set: 20m,STABILIZE,,,
2026-07-06T16:37:34.848884+00:00,12.762760877609253,E3_fc_direct_gps_input_positive,injection,14,37.56658892826928,126.97811219162291,20.0,13.984266155137986,,,,,,,3,12,37.5665889,126.9781121,20.0,,,,1.999999999999996,1.0048591735576161e-14,GPS_RAW_INT,Field Elevation Set: 20m,STABILIZE,,,
2026-07-06T16:37:35.045874+00:00,12.95976710319519,E3_fc_direct_gps_input_positive,injection,15,37.56659528028852,126.97812020531028,20.0,14.983141990379494,,,,,,,3,12,37.5665889,126.9781121,20.0,,,,2.000000000000001,1.0048591735576161e-14,HEARTBEAT,Field Elevation Set: 20m,STABILIZE,,,
2026-07-06T16:37:35.046030+00:00,12.959901571273804,E3_fc_direct_gps_input_positive,injection,15,37.56659528028852,126.97812020531028,20.0,14.983141990379494,37.5665952,126.9781202,20.0,14.976499414685911,0.008939935687301058,1,3,12,37.5665889,126.9781121,20.0,0.0,0.0,0.0,2.000000000000001,1.0048591735576161e-14,GLOBAL_POSITION_INT,Field Elevation Set: 20m,STABILIZE,,,
2026-07-06T16:37:35.046364+00:00,12.960237741470337,E3_fc_direct_gps_input_positive,injection,15,37.56659528028852,126.97812020531028,20.0,14.983141990379494,,,,,,,3,12,37.5665952,126.9781202,20.0,,,,2.000000000000001,1.0048591735576161e-14,GPS_RAW_INT,Field Elevation Set: 20m,STABILIZE,,,
2026-07-06T16:37:35.247748+00:00,13.161646127700806,E3_fc_direct_gps_input_positive,injection,15,37.56659528028852,126.97812020531028,20.0,14.983141990379494,,,,,,,3,12,37.5665952,126.9781202,20.0,,,,2.000000000000001,1.0048591735576161e-14,HEARTBEAT,Field Elevation Set: 20m,STABILIZE,,,
2026-07-06T16:37:35.247912+00:00,13.161785364151001,E3_fc_direct_gps_input_positive,injection,15,37.56659528028852,126.97812020531028,20.0,14.983141990379494,37.5665952,126.9781202,20.0,14.976499414685911,0.008939935687301058,1,3,12,37.5665952,126.9781202,20.0,0.0,0.0,0.0,2.000000000000001,1.0048591735576161e-14,GLOBAL_POSITION_INT,Field Elevation Set: 20m,STABILIZE,,,
2026-07-06T16:37:35.248250+00:00,13.162124156951904,E3_fc_direct_gps_input_positive,injection,15,37.56659528028852,126.97812020531028,20.0,14.983141990379494,,,,,,,3,12,37.5665952,126.9781202,20.0,,,,2.000000000000001,1.0048591735576161e-14,GPS_RAW_INT,Field Elevation Set: 20m,STABILIZE,,,
2026-07-06T16:37:35.467341+00:00,13.381235361099243,E3_fc_direct_gps_input_positive,injection,15,37.56659528028852,126.97812020531028,20.0,14.983141990379494,,,,,,,3,12,37.5665952,126.9781202,20.0,,,,2.000000000000001,1.0048591735576161e-14,HEARTBEAT,Field Elevation Set: 20m,STABILIZE,,,
2026-07-06T16:37:35.467528+00:00,13.381407022476196,E3_fc_direct_gps_input_positive,injection,15,37.56659528028852,126.97812020531028,20.0,14.983141990379494,37.5665952,126.9781202,20.0,14.976499414685911,0.008939935687301058,1,3,12,37.5665952,126.9781202,20.0,0.0,0.0,0.0,2.000000000000001,1.0048591735576161e-14,GLOBAL_POSITION_INT,Field Elevation Set: 20m,STABILIZE,,,
