timestamp,elapsed_s,experiment,phase,sample_index,target_lat,target_lon,target_alt,target_drift_m,obs_lat,obs_lon,obs_alt,official_drift_m,target_error_m,reflected,gps_fix_type,gps_satellites,gps_raw_lat,gps_raw_lon,gps_raw_alt,vn,ve,vd,commanded_speed_mps,commanded_accel_mps2,message_type,status_text,mode,mission_seq,fence_breach_status,fence_breach_count,fence_breach_type
2026-07-07T02:27:44.122391+00:00,0.008974075317382812,E19_mode_command,RTL_warmup,0,37.5665,126.978,20.0,0.0,,,,,,,,,,,,,,,0.0,0.0,STATUSTEXT,GPS 1: detected MAV,,,,,
2026-07-07T02:27:44.215643+00:00,0.10222506523132324,E19_mode_command,RTL_warmup,0,37.5665,126.978,20.0,0.0,,,,,,,,,,,,,,,0.0,0.0,HEARTBEAT,GPS 1: detected MAV,STABILIZE,,,,
2026-07-07T02:27:44.215863+00:00,0.1024317741394043,E19_mode_command,RTL_warmup,0,37.5665,126.978,20.0,0.0,37.5665,126.978,20.0,0.0,0.0,0,,,,,,0.0,0.0,-0.02,0.0,0.0,GLOBAL_POSITION_INT,GPS 1: detected MAV,STABILIZE,,,,
2026-07-07T02:27:44.216013+00:00,0.10257363319396973,E19_mode_command,RTL_warmup,0,37.5665,126.978,20.0,0.0,,,,,,,,,,,,,,,0.0,0.0,MISSION_CURRENT,GPS 1: detected MAV,STABILIZE,0,,,
2026-07-07T02:27:44.216248+00:00,0.1028127670288086,E19_mode_command,RTL_warmup,0,37.5665,126.978,20.0,0.0,,,,,,,3,12,37.5665,126.978,20.0,,,,0.0,0.0,GPS_RAW_INT,GPS 1: detected MAV,STABILIZE,0,,,
2026-07-07T02:27:44.216323+00:00,0.10288643836975098,E19_mode_command,RTL_warmup,0,37.5665,126.978,20.0,0.0,,,,,,,3,12,37.5665,126.978,20.0,,,,0.0,0.0,FENCE_STATUS,GPS 1: detected MAV,STABILIZE,0,0,0,0
2026-07-07T02:27:44.413814+00:00,0.3003983497619629,E19_mode_command,RTL_warmup,0,37.5665,126.978,20.0,0.0,,,,,,,3,12,37.5665,126.978,20.0,,,,0.0,0.0,HEARTBEAT,GPS 1: detected MAV,STABILIZE,0,0,0,0
2026-07-07T02:27:44.414011+00:00,0.30057835578918457,E19_mode_command,RTL_warmup,0,37.5665,126.978,20.0,0.0,37.5665,126.978,20.0,0.0,0.0,0,3,12,37.5665,126.978,20.0,0.0,0.0,-0.02,0.0,0.0,GLOBAL_POSITION_INT,GPS 1: detected MAV,STABILIZE,0,0,0,0
2026-07-07T02:27:44.414211+00:00,0.30077600479125977,E19_mode_command,RTL_warmup,0,37.5665,126.978,20.0,0.0,,,,,,,3,12,37.5665,126.978,20.0,,,,0.0,0.0,MISSION_CURRENT,GPS 1: detected MAV,STABILIZE,0,0,0,0
2026-07-07T02:27:44.414525+00:00,0.3010890483856201,E19_mode_command,RTL_warmup,0,37.5665,126.978,20.0,0.0,,,,,,,3,12,37.5665,126.978,20.0,,,,0.0,0.0,GPS_RAW_INT,GPS 1: detected MAV,STABILIZE,0,0,0,0
2026-07-07T02:27:44.414596+00:00,0.30115509033203125,E19_mode_command,RTL_warmup,0,37.5665,126.978,20.0,0.0,,,,,,,3,12,37.5665,126.978,20.0,,,,0.0,0.0,FENCE_STATUS,GPS 1: detected MAV,STABILIZE,0,0,0,0
2026-07-07T02:27:44.612357+00:00,0.4989447593688965,E19_mode_command,RTL_warmup,0,37.5665,126.978,20.0,0.0,,,,,,,3,12,37.5665,126.978,20.0,,,,0.0,0.0,HEARTBEAT,GPS 1: detected MAV,STABILIZE,0,0,0,0
2026-07-07T02:27:44.612540+00:00,0.4991018772125244,E19_mode_command,RTL_warmup,0,37.5665,126.978,20.0,0.0,37.5665,126.978,20.0,0.0,0.0,0,3,12,37.5665,126.978,20.0,0.0,0.0,-0.02,0.0,0.0,GLOBAL_POSITION_INT,GPS 1: detected MAV,STABILIZE,0,0,0,0
2026-07-07T02:27:44.612659+00:00,0.49921751022338867,E19_mode_command,RTL_warmup,0,37.5665,126.978,20.0,0.0,,,,,,,3,12,37.5665,126.978,20.0,,,,0.0,0.0,MISSION_CURRENT,GPS 1: detected MAV,STABILIZE,0,0,0,0
2026-07-07T02:27:44.612853+00:00,0.49941349029541016,E19_mode_command,RTL_warmup,0,37.5665,126.978,20.0,0.0,,,,,,,3,12,37.5665,126.978,20.0,,,,0.0,0.0,GPS_RAW_INT,GPS 1: detected MAV,STABILIZE,0,0,0,0
2026-07-07T02:27:44.612892+00:00,0.4994497299194336,E19_mode_command,RTL_warmup,0,37.5665,126.978,20.0,0.0,,,,,,,3,12,37.5665,126.978,20.0,,,,0.0,0.0,FENCE_STATUS,GPS 1: detected MAV,STABILIZE,0,0,0,0
2026-07-07T02:27:44.816251+00:00,0.7028341293334961,E19_mode_command,RTL_warmup,0,37.5665,126.978,20.0,0.0,,,,,,,3,12,37.5665,126.978,20.0,,,,0.0,0.0,HEARTBEAT,GPS 1: detected MAV,STABILIZE,0,0,0,0
2026-07-07T02:27:44.816450+00:00,0.7030203342437744,E19_mode_command,RTL_warmup,0,37.5665,126.978,20.0,0.0,37.5665,126.978,20.0,0.0,0.0,0,3,12,37.5665,126.978,20.0,0.0,0.0,-0.03,0.0,0.0,GLOBAL_POSITION_INT,GPS 1: detected MAV,STABILIZE,0,0,0,0
2026-07-07T02:27:44.816633+00:00,0.7031984329223633,E19_mode_command,RTL_warmup,0,37.5665,126.978,20.0,0.0,,,,,,,3,12,37.5665,126.978,20.0,,,,0.0,0.0,MISSION_CURRENT,GPS 1: detected MAV,STABILIZE,0,0,0,0
2026-07-07T02:27:44.816944+00:00,0.7035083770751953,E19_mode_command,RTL_warmup,0,37.5665,126.978,20.0,0.0,,,,,,,3,12,37.5665,126.978,20.0,,,,0.0,0.0,GPS_RAW_INT,GPS 1: detected MAV,STABILIZE,0,0,0,0
2026-07-07T02:27:44.816989+00:00,0.7035477161407471,E19_mode_command,RTL_warmup,0,37.5665,126.978,20.0,0.0,,,,,,,3,12,37.5665,126.978,20.0,,,,0.0,0.0,FENCE_STATUS,GPS 1: detected MAV,STABILIZE,0,0,0,0
2026-07-07T02:27:45.014592+00:00,0.9011743068695068,E19_mode_command,RTL_warmup,0,37.5665,126.978,20.0,0.0,,,,,,,3,12,37.5665,126.978,20.0,,,,0.0,0.0,HEARTBEAT,GPS 1: detected MAV,STABILIZE,0,0,0,0
2026-07-07T02:27:45.014791+00:00,0.9013590812683105,E19_mode_command,RTL_warmup,0,37.5665,126.978,20.0,0.0,37.5665,126.978,20.0,0.0,0.0,0,3,12,37.5665,126.978,20.0,0.0,0.0,-0.03,0.0,0.0,GLOBAL_POSITION_INT,GPS 1: detected MAV,STABILIZE,0,0,0,0
2026-07-07T02:27:45.014931+00:00,0.9014911651611328,E19_mode_command,RTL_warmup,0,37.5665,126.978,20.0,0.0,,,,,,,3,12,37.5665,126.978,20.0,,,,0.0,0.0,MISSION_CURRENT,GPS 1: detected MAV,STABILIZE,0,0,0,0
2026-07-07T02:27:45.015139+00:00,0.9017002582550049,E19_mode_command,RTL_warmup,0,37.5665,126.978,20.0,0.0,,,,,,,3,12,37.5665,126.978,20.0,,,,0.0,0.0,GPS_RAW_INT,GPS 1: detected MAV,STABILIZE,0,0,0,0
2026-07-07T02:27:45.015183+00:00,0.9017417430877686,E19_mode_command,RTL_warmup,0,37.5665,126.978,20.0,0.0,,,,,,,3,12,37.5665,126.978,20.0,,,,0.0,0.0,FENCE_STATUS,GPS 1: detected MAV,STABILIZE,0,0,0,0
2026-07-07T02:27:45.212842+00:00,1.0994253158569336,E19_mode_command,RTL_warmup,0,37.5665,126.978,20.0,0.0,,,,,,,3,12,37.5665,126.978,20.0,,,,0.0,0.0,HEARTBEAT,GPS 1: detected MAV,STABILIZE,0,0,0,0
2026-07-07T02:27:45.213104+00:00,1.0996685028076172,E19_mode_command,RTL_warmup,0,37.5665,126.978,20.0,0.0,37.5665,126.978,20.0,0.0,0.0,0,3,12,37.5665,126.978,20.0,0.0,0.0,-0.03,0.0,0.0,GLOBAL_POSITION_INT,GPS 1: detected MAV,STABILIZE,0,0,0,0
2026-07-07T02:27:45.213294+00:00,1.099860668182373,E19_mode_command,RTL_warmup,0,37.5665,126.978,20.0,0.0,,,,,,,3,12,37.5665,126.978,20.0,,,,0.0,0.0,MISSION_CURRENT,GPS 1: detected MAV,STABILIZE,0,0,0,0
2026-07-07T02:27:45.213518+00:00,1.100078821182251,E19_mode_command,RTL_warmup,0,37.5665,126.978,20.0,0.0,,,,,,,3,12,37.5665,126.978,20.0,,,,0.0,0.0,GPS_RAW_INT,GPS 1: detected MAV,STABILIZE,0,0,0,0
2026-07-07T02:27:45.213561+00:00,1.1001193523406982,E19_mode_command,RTL_warmup,0,37.5665,126.978,20.0,0.0,,,,,,,3,12,37.5665,126.978,20.0,,,,0.0,0.0,FENCE_STATUS,GPS 1: detected MAV,STABILIZE,0,0,0,0
2026-07-07T02:27:45.416703+00:00,1.3032851219177246,E19_mode_command,RTL_warmup,0,37.5665,126.978,20.0,0.0,,,,,,,3,12,37.5665,126.978,20.0,,,,0.0,0.0,HEARTBEAT,GPS 1: detected MAV,STABILIZE,0,0,0,0
2026-07-07T02:27:45.416856+00:00,1.3034193515777588,E19_mode_command,RTL_warmup,0,37.5665,126.978,20.0,0.0,37.5665,126.978,20.0,0.0,0.0,0,3,12,37.5665,126.978,20.0,0.0,0.0,-0.03,0.0,0.0,GLOBAL_POSITION_INT,GPS 1: detected MAV,STABILIZE,0,0,0,0
2026-07-07T02:27:45.416978+00:00,1.303537368774414,E19_mode_command,RTL_warmup,0,37.5665,126.978,20.0,0.0,,,,,,,3,12,37.5665,126.978,20.0,,,,0.0,0.0,MISSION_CURRENT,GPS 1: detected MAV,STABILIZE,0,0,0,0
2026-07-07T02:27:45.417216+00:00,1.3037805557250977,E19_mode_command,RTL_warmup,0,37.5665,126.978,20.0,0.0,,,,,,,3,12,37.5665,126.978,20.0,,,,0.0,0.0,GPS_RAW_INT,GPS 1: detected MAV,STABILIZE,0,0,0,0
2026-07-07T02:27:45.417287+00:00,1.3038456439971924,E19_mode_command,RTL_warmup,0,37.5665,126.978,20.0,0.0,,,,,,,3,12,37.5665,126.978,20.0,,,,0.0,0.0,FENCE_STATUS,GPS 1: detected MAV,STABILIZE,0,0,0,0
2026-07-07T02:27:45.615227+00:00,1.5018091201782227,E19_mode_command,RTL_warmup,0,37.5665,126.978,20.0,0.0,,,,,,,3,12,37.5665,126.978,20.0,,,,0.0,0.0,HEARTBEAT,GPS 1: detected MAV,STABILIZE,0,0,0,0
2026-07-07T02:27:45.615398+00:00,1.5019640922546387,E19_mode_command,RTL_warmup,0,37.5665,126.978,20.0,0.0,37.5665,126.978,20.0,0.0,0.0,0,3,12,37.5665,126.978,20.0,0.0,0.0,-0.04,0.0,0.0,GLOBAL_POSITION_INT,GPS 1: detected MAV,STABILIZE,0,0,0,0
2026-07-07T02:27:45.615611+00:00,1.5021774768829346,E19_mode_command,RTL_warmup,0,37.5665,126.978,20.0,0.0,,,,,,,3,12,37.5665,126.978,20.0,,,,0.0,0.0,MISSION_CURRENT,GPS 1: detected MAV,STABILIZE,0,0,0,0
2026-07-07T02:27:45.615853+00:00,1.5024163722991943,E19_mode_command,RTL_warmup,0,37.5665,126.978,20.0,0.0,,,,,,,3,12,37.5665,126.978,20.0,,,,0.0,0.0,GPS_RAW_INT,GPS 1: detected MAV,STABILIZE,0,0,0,0
2026-07-07T02:27:45.615899+00:00,1.502458095550537,E19_mode_command,RTL_warmup,0,37.5665,126.978,20.0,0.0,,,,,,,3,12,37.5665,126.978,20.0,,,,0.0,0.0,FENCE_STATUS,GPS 1: detected MAV,STABILIZE,0,0,0,0
2026-07-07T02:27:45.813532+00:00,1.7001147270202637,E19_mode_command,RTL_warmup,0,37.5665,126.978,20.0,0.0,,,,,,,3,12,37.5665,126.978,20.0,,,,0.0,0.0,HEARTBEAT,GPS 1: detected MAV,STABILIZE,0,0,0,0
2026-07-07T02:27:45.813720+00:00,1.700286626815796,E19_mode_command,RTL_warmup,0,37.5665,126.978,20.0,0.0,37.5665,126.978,20.0,0.0,0.0,0,3,12,37.5665,126.978,20.0,0.0,0.0,-0.04,0.0,0.0,GLOBAL_POSITION_INT,GPS 1: detected MAV,STABILIZE,0,0,0,0
2026-07-07T02:27:45.813851+00:00,1.7004125118255615,E19_mode_command,RTL_warmup,0,37.5665,126.978,20.0,0.0,,,,,,,3,12,37.5665,126.978,20.0,,,,0.0,0.0,MISSION_CURRENT,GPS 1: detected MAV,STABILIZE,0,0,0,0
2026-07-07T02:27:45.814055+00:00,1.7006151676177979,E19_mode_command,RTL_warmup,0,37.5665,126.978,20.0,0.0,,,,,,,3,12,37.5665,126.978,20.0,,,,0.0,0.0,GPS_RAW_INT,GPS 1: detected MAV,STABILIZE,0,0,0,0
2026-07-07T02:27:45.814096+00:00,1.7006537914276123,E19_mode_command,RTL_warmup,0,37.5665,126.978,20.0,0.0,,,,,,,3,12,37.5665,126.978,20.0,,,,0.0,0.0,FENCE_STATUS,GPS 1: detected MAV,STABILIZE,0,0,0,0
2026-07-07T02:27:46.011971+00:00,1.8985528945922852,E19_mode_command,RTL_warmup,0,37.5665,126.978,20.0,0.0,,,,,,,3,12,37.5665,126.978,20.0,,,,0.0,0.0,HEARTBEAT,GPS 1: detected MAV,STABILIZE,0,0,0,0
2026-07-07T02:27:46.012129+00:00,1.8986964225769043,E19_mode_command,RTL_warmup,0,37.5665,126.978,20.0,0.0,37.5665,126.978,20.0,0.0,0.0,0,3,12,37.5665,126.978,20.0,0.0,0.0,-0.04,0.0,0.0,GLOBAL_POSITION_INT,GPS 1: detected MAV,STABILIZE,0,0,0,0
2026-07-07T02:27:46.012287+00:00,1.8988513946533203,E19_mode_command,RTL_warmup,0,37.5665,126.978,20.0,0.0,,,,,,,3,12,37.5665,126.978,20.0,,,,0.0,0.0,MISSION_CURRENT,GPS 1: detected MAV,STABILIZE,0,0,0,0
2026-07-07T02:27:46.012490+00:00,1.8990514278411865,E19_mode_command,RTL_warmup,0,37.5665,126.978,20.0,0.0,,,,,,,3,12,37.5665,126.978,20.0,,,,0.0,0.0,GPS_RAW_INT,GPS 1: detected MAV,STABILIZE,0,0,0,0
2026-07-07T02:27:46.012531+00:00,1.8990898132324219,E19_mode_command,RTL_warmup,0,37.5665,126.978,20.0,0.0,,,,,,,3,12,37.5665,126.978,20.0,,,,0.0,0.0,FENCE_STATUS,GPS 1: detected MAV,STABILIZE,0,0,0,0
2026-07-07T02:27:46.215894+00:00,2.1024773120880127,E19_mode_command,RTL_warmup,0,37.5665,126.978,20.0,0.0,,,,,,,3,12,37.5665,126.978,20.0,,,,0.0,0.0,HEARTBEAT,GPS 1: detected MAV,STABILIZE,0,0,0,0
2026-07-07T02:27:46.216056+00:00,2.1026182174682617,E19_mode_command,RTL_warmup,0,37.5665,126.978,20.0,0.0,37.5665,126.978,20.0,0.0,0.0,0,3,12,37.5665,126.978,20.0,0.0,0.0,-0.04,0.0,0.0,GLOBAL_POSITION_INT,GPS 1: detected MAV,STABILIZE,0,0,0,0
2026-07-07T02:27:46.216181+00:00,2.102740526199341,E19_mode_command,RTL_warmup,0,37.5665,126.978,20.0,0.0,,,,,,,3,12,37.5665,126.978,20.0,,,,0.0,0.0,MISSION_CURRENT,GPS 1: detected MAV,STABILIZE,0,0,0,0
2026-07-07T02:27:46.216389+00:00,2.1029489040374756,E19_mode_command,RTL_warmup,0,37.5665,126.978,20.0,0.0,,,,,,,3,12,37.5665,126.978,20.0,,,,0.0,0.0,GPS_RAW_INT,GPS 1: detected MAV,STABILIZE,0,0,0,0
2026-07-07T02:27:46.216430+00:00,2.1029882431030273,E19_mode_command,RTL_warmup,0,37.5665,126.978,20.0,0.0,,,,,,,3,12,37.5665,126.978,20.0,,,,0.0,0.0,FENCE_STATUS,GPS 1: detected MAV,STABILIZE,0,0,0,0
2026-07-07T02:27:57.017618+00:00,12.90420150756836,E19_mode_command,RTL_command,0,,,,,,,,,,,3,12,37.5665,126.978,20.0,,,,,,HEARTBEAT,GPS 1: detected MAV,RTL,0,0,0,0
2026-07-07T02:27:57.017883+00:00,12.904453992843628,E19_mode_command,RTL_command,0,,,,,0.0,0.0,0.0,13173877.35106569,,,3,12,37.5665,126.978,20.0,0.0,0.0,0.0,,,GLOBAL_POSITION_INT,GPS 1: detected MAV,RTL,0,0,0,0
2026-07-07T02:27:57.018094+00:00,12.90466046333313,E19_mode_command,RTL_command,0,,,,,,,,,,,3,12,37.5665,126.978,20.0,,,,,,MISSION_CURRENT,GPS 1: detected MAV,RTL,0,0,0,0
2026-07-07T02:27:57.018404+00:00,12.904968738555908,E19_mode_command,RTL_command,0,,,,,,,,,,,1,0,0.0,0.0,0.0,,,,,,GPS_RAW_INT,GPS 1: detected MAV,RTL,0,0,0,0
2026-07-07T02:27:57.018450+00:00,12.905008792877197,E19_mode_command,RTL_command,0,,,,,,,,,,,1,0,0.0,0.0,0.0,,,,,,FENCE_STATUS,GPS 1: detected MAV,RTL,0,0,0,0
2026-07-07T02:27:57.216212+00:00,13.102792739868164,E19_mode_command,RTL_command,0,,,,,,,,,,,1,0,0.0,0.0,0.0,,,,,,HEARTBEAT,GPS 1: detected MAV,RTL,0,0,0,0
2026-07-07T02:27:57.216358+00:00,13.102919578552246,E19_mode_command,RTL_command,0,,,,,0.0,0.0,0.0,13173877.35106569,,,1,0,0.0,0.0,0.0,0.0,0.0,0.0,,,GLOBAL_POSITION_INT,GPS 1: detected MAV,RTL,0,0,0,0
2026-07-07T02:27:57.216468+00:00,13.103027582168579,E19_mode_command,RTL_command,0,,,,,,,,,,,1,0,0.0,0.0,0.0,,,,,,MISSION_CURRENT,GPS 1: detected MAV,RTL,0,0,0,0
2026-07-07T02:27:57.216654+00:00,13.103216171264648,E19_mode_command,RTL_command,0,,,,,,,,,,,1,0,0.0,0.0,0.0,,,,,,GPS_RAW_INT,GPS 1: detected MAV,RTL,0,0,0,0
2026-07-07T02:27:57.216694+00:00,13.103251695632935,E19_mode_command,RTL_command,0,,,,,,,,,,,1,0,0.0,0.0,0.0,,,,,,FENCE_STATUS,GPS 1: detected MAV,RTL,0,0,0,0
2026-07-07T02:27:57.414478+00:00,13.301060199737549,E19_mode_command,RTL_command,0,,,,,,,,,,,1,0,0.0,0.0,0.0,,,,,,HEARTBEAT,GPS 1: detected MAV,RTL,0,0,0,0
2026-07-07T02:27:57.414617+00:00,13.301177263259888,E19_mode_command,RTL_command,0,,,,,0.0,0.0,0.0,13173877.35106569,,,1,0,0.0,0.0,0.0,0.0,0.0,0.0,,,GLOBAL_POSITION_INT,GPS 1: detected MAV,RTL,0,0,0,0
2026-07-07T02:27:57.414725+00:00,13.301283359527588,E19_mode_command,RTL_command,0,,,,,,,,,,,1,0,0.0,0.0,0.0,,,,,,MISSION_CURRENT,GPS 1: detected MAV,RTL,0,0,0,0
2026-07-07T02:27:57.414915+00:00,13.30147385597229,E19_mode_command,RTL_command,0,,,,,,,,,,,1,0,0.0,0.0,0.0,,,,,,GPS_RAW_INT,GPS 1: detected MAV,RTL,0,0,0,0
2026-07-07T02:27:57.414951+00:00,13.301510095596313,E19_mode_command,RTL_command,0,,,,,,,,,,,1,0,0.0,0.0,0.0,,,,,,FENCE_STATUS,GPS 1: detected MAV,RTL,0,0,0,0
2026-07-07T02:27:57.618246+00:00,13.504830360412598,E19_mode_command,RTL_command,0,,,,,,,,,,,1,0,0.0,0.0,0.0,,,,,,HEARTBEAT,GPS 1: detected MAV,RTL,0,0,0,0
2026-07-07T02:27:57.618440+00:00,13.505010843276978,E19_mode_command,RTL_command,0,,,,,0.0,0.0,0.0,13173877.35106569,,,1,0,0.0,0.0,0.0,0.0,0.0,0.0,,,GLOBAL_POSITION_INT,GPS 1: detected MAV,RTL,0,0,0,0
2026-07-07T02:27:57.618667+00:00,13.505233764648438,E19_mode_command,RTL_command,0,,,,,,,,,,,1,0,0.0,0.0,0.0,,,,,,MISSION_CURRENT,GPS 1: detected MAV,RTL,0,0,0,0
2026-07-07T02:27:57.619006+00:00,13.505570650100708,E19_mode_command,RTL_command,0,,,,,,,,,,,1,0,0.0,0.0,0.0,,,,,,GPS_RAW_INT,GPS 1: detected MAV,RTL,0,0,0,0
2026-07-07T02:27:57.619085+00:00,13.505648612976074,E19_mode_command,RTL_command,0,,,,,,,,,,,1,0,0.0,0.0,0.0,,,,,,FENCE_STATUS,GPS 1: detected MAV,RTL,0,0,0,0
2026-07-07T02:27:57.816735+00:00,13.703318119049072,E19_mode_command,RTL_command,0,,,,,,,,,,,1,0,0.0,0.0,0.0,,,,,,HEARTBEAT,GPS 1: detected MAV,RTL,0,0,0,0
2026-07-07T02:27:57.816969+00:00,13.703537940979004,E19_mode_command,RTL_command,0,,,,,0.0,0.0,0.0,13173877.35106569,,,1,0,0.0,0.0,0.0,0.0,0.0,0.0,,,GLOBAL_POSITION_INT,GPS 1: detected MAV,RTL,0,0,0,0
2026-07-07T02:27:57.817170+00:00,13.703735828399658,E19_mode_command,RTL_command,0,,,,,,,,,,,1,0,0.0,0.0,0.0,,,,,,MISSION_CURRENT,GPS 1: detected MAV,RTL,0,0,0,0
2026-07-07T02:27:57.817497+00:00,13.704061508178711,E19_mode_command,RTL_command,0,,,,,,,,,,,1,0,0.0,0.0,0.0,,,,,,GPS_RAW_INT,GPS 1: detected MAV,RTL,0,0,0,0
2026-07-07T02:27:57.817575+00:00,13.704138278961182,E19_mode_command,RTL_command,0,,,,,,,,,,,1,0,0.0,0.0,0.0,,,,,,FENCE_STATUS,GPS 1: detected MAV,RTL,0,0,0,0
2026-07-07T02:27:58.015070+00:00,13.901653051376343,E19_mode_command,RTL_command,0,,,,,,,,,,,1,0,0.0,0.0,0.0,,,,,,HEARTBEAT,GPS 1: detected MAV,RTL,0,0,0,0
2026-07-07T02:27:58.015207+00:00,13.901766538619995,E19_mode_command,RTL_command,0,,,,,0.0,0.0,0.0,13173877.35106569,,,1,0,0.0,0.0,0.0,0.0,0.0,0.0,,,GLOBAL_POSITION_INT,GPS 1: detected MAV,RTL,0,0,0,0
2026-07-07T02:27:58.015366+00:00,13.901932954788208,E19_mode_command,RTL_command,0,,,,,,,,,,,1,0,0.0,0.0,0.0,,,,,,MISSION_CURRENT,GPS 1: detected MAV,RTL,0,0,0,0
2026-07-07T02:27:58.015710+00:00,13.902274131774902,E19_mode_command,RTL_command,0,,,,,,,,,,,1,0,0.0,0.0,0.0,,,,,,GPS_RAW_INT,GPS 1: detected MAV,RTL,0,0,0,0
2026-07-07T02:27:58.015757+00:00,13.902316093444824,E19_mode_command,RTL_command,0,,,,,,,,,,,1,0,0.0,0.0,0.0,,,,,,FENCE_STATUS,GPS 1: detected MAV,RTL,0,0,0,0
2026-07-07T02:27:58.213381+00:00,14.099964618682861,E19_mode_command,RTL_command,0,,,,,,,,,,,1,0,0.0,0.0,0.0,,,,,,HEARTBEAT,GPS 1: detected MAV,RTL,0,0,0,0
2026-07-07T02:27:58.213541+00:00,14.10010838508606,E19_mode_command,RTL_command,0,,,,,0.0,0.0,0.0,13173877.35106569,,,1,0,0.0,0.0,0.0,0.0,0.0,0.0,,,GLOBAL_POSITION_INT,GPS 1: detected MAV,RTL,0,0,0,0
2026-07-07T02:27:58.213734+00:00,14.100297927856445,E19_mode_command,RTL_command,0,,,,,,,,,,,1,0,0.0,0.0,0.0,,,,,,MISSION_CURRENT,GPS 1: detected MAV,RTL,0,0,0,0
2026-07-07T02:27:58.213956+00:00,14.10051965713501,E19_mode_command,RTL_command,0,,,,,,,,,,,1,0,0.0,0.0,0.0,,,,,,GPS_RAW_INT,GPS 1: detected MAV,RTL,0,0,0,0
2026-07-07T02:27:58.214031+00:00,14.100593566894531,E19_mode_command,RTL_command,0,,,,,,,,,,,1,0,0.0,0.0,0.0,,,,,,FENCE_STATUS,GPS 1: detected MAV,RTL,0,0,0,0
2026-07-07T02:27:58.417482+00:00,14.304066896438599,E19_mode_command,RTL_command,0,,,,,,,,,,,1,0,0.0,0.0,0.0,,,,,,HEARTBEAT,GPS 1: detected MAV,RTL,0,0,0,0
2026-07-07T02:27:58.417680+00:00,14.304246664047241,E19_mode_command,RTL_command,0,,,,,0.0,0.0,0.0,13173877.35106569,,,1,0,0.0,0.0,0.0,0.0,0.01,0.0,,,GLOBAL_POSITION_INT,GPS 1: detected MAV,RTL,0,0,0,0
2026-07-07T02:27:58.417838+00:00,14.304402589797974,E19_mode_command,RTL_command,0,,,,,,,,,,,1,0,0.0,0.0,0.0,,,,,,MISSION_CURRENT,GPS 1: detected MAV,RTL,0,0,0,0
2026-07-07T02:27:58.418097+00:00,14.30466079711914,E19_mode_command,RTL_command,0,,,,,,,,,,,1,0,0.0,0.0,0.0,,,,,,GPS_RAW_INT,GPS 1: detected MAV,RTL,0,0,0,0
2026-07-07T02:27:58.418142+00:00,14.30470085144043,E19_mode_command,RTL_command,0,,,,,,,,,,,1,0,0.0,0.0,0.0,,,,,,FENCE_STATUS,GPS 1: detected MAV,RTL,0,0,0,0
2026-07-07T02:27:58.615768+00:00,14.502349853515625,E19_mode_command,RTL_command,0,,,,,,,,,,,1,0,0.0,0.0,0.0,,,,,,HEARTBEAT,GPS 1: detected MAV,RTL,0,0,0,0
2026-07-07T02:27:58.615920+00:00,14.502482891082764,E19_mode_command,RTL_command,0,,,,,0.0,0.0,0.0,13173877.35106569,,,1,0,0.0,0.0,0.0,-0.01,0.01,0.0,,,GLOBAL_POSITION_INT,GPS 1: detected MAV,RTL,0,0,0,0
2026-07-07T02:27:58.616043+00:00,14.502603530883789,E19_mode_command,RTL_command,0,,,,,,,,,,,1,0,0.0,0.0,0.0,,,,,,MISSION_CURRENT,GPS 1: detected MAV,RTL,0,0,0,0
2026-07-07T02:27:58.616275+00:00,14.502839088439941,E19_mode_command,RTL_command,0,,,,,,,,,,,1,0,0.0,0.0,0.0,,,,,,GPS_RAW_INT,GPS 1: detected MAV,RTL,0,0,0,0
2026-07-07T02:27:58.616324+00:00,14.502882719039917,E19_mode_command,RTL_command,0,,,,,,,,,,,1,0,0.0,0.0,0.0,,,,,,FENCE_STATUS,GPS 1: detected MAV,RTL,0,0,0,0
2026-07-07T02:27:58.814017+00:00,14.700598239898682,E19_mode_command,RTL_command,0,,,,,,,,,,,1,0,0.0,0.0,0.0,,,,,,HEARTBEAT,GPS 1: detected MAV,RTL,0,0,0,0
2026-07-07T02:27:58.814170+00:00,14.700736999511719,E19_mode_command,RTL_command,0,,,,,0.0,0.0,0.0,13173877.35106569,,,1,0,0.0,0.0,0.0,-0.01,0.01,0.0,,,GLOBAL_POSITION_INT,GPS 1: detected MAV,RTL,0,0,0,0
2026-07-07T02:27:58.814356+00:00,14.700920104980469,E19_mode_command,RTL_command,0,,,,,,,,,,,1,0,0.0,0.0,0.0,,,,,,MISSION_CURRENT,GPS 1: detected MAV,RTL,0,0,0,0
2026-07-07T02:27:58.814551+00:00,14.701110363006592,E19_mode_command,RTL_command,0,,,,,,,,,,,1,0,0.0,0.0,0.0,,,,,,GPS_RAW_INT,GPS 1: detected MAV,RTL,0,0,0,0
2026-07-07T02:27:58.814588+00:00,14.701146125793457,E19_mode_command,RTL_command,0,,,,,,,,,,,1,0,0.0,0.0,0.0,,,,,,FENCE_STATUS,GPS 1: detected MAV,RTL,0,0,0,0
2026-07-07T02:27:59.017905+00:00,14.90448808670044,E19_mode_command,RTL_command,0,,,,,,,,,,,1,0,0.0,0.0,0.0,,,,,,HEARTBEAT,GPS 1: detected MAV,RTL,0,0,0,0
2026-07-07T02:27:59.018101+00:00,14.904672384262085,E19_mode_command,RTL_command,0,,,,,0.0,0.0,0.0,13173877.35106569,,,1,0,0.0,0.0,0.0,-0.01,0.01,0.0,,,GLOBAL_POSITION_INT,GPS 1: detected MAV,RTL,0,0,0,0
2026-07-07T02:27:59.018232+00:00,14.904796361923218,E19_mode_command,RTL_command,0,,,,,,,,,,,1,0,0.0,0.0,0.0,,,,,,MISSION_CURRENT,GPS 1: detected MAV,RTL,0,0,0,0
2026-07-07T02:27:59.018458+00:00,14.90501856803894,E19_mode_command,RTL_command,0,,,,,,,,,,,1,0,0.0,0.0,0.0,,,,,,GPS_RAW_INT,GPS 1: detected MAV,RTL,0,0,0,0
2026-07-07T02:27:59.018502+00:00,14.905060291290283,E19_mode_command,RTL_command,0,,,,,,,,,,,1,0,0.0,0.0,0.0,,,,,,FENCE_STATUS,GPS 1: detected MAV,RTL,0,0,0,0
2026-07-07T02:27:59.216412+00:00,15.102993488311768,E19_mode_command,RTL_command,0,,,,,,,,,,,1,0,0.0,0.0,0.0,,,,,,HEARTBEAT,GPS 1: detected MAV,RTL,0,0,0,0
2026-07-07T02:27:59.216597+00:00,15.103164672851562,E19_mode_command,RTL_command,0,,,,,0.0,0.0,0.0,13173877.35106569,,,1,0,0.0,0.0,0.0,-0.01,0.01,0.0,,,GLOBAL_POSITION_INT,GPS 1: detected MAV,RTL,0,0,0,0
2026-07-07T02:27:59.216733+00:00,15.103296756744385,E19_mode_command,RTL_command,0,,,,,,,,,,,1,0,0.0,0.0,0.0,,,,,,MISSION_CURRENT,GPS 1: detected MAV,RTL,0,0,0,0
2026-07-07T02:27:59.216975+00:00,15.10353946685791,E19_mode_command,RTL_command,0,,,,,,,,,,,1,0,0.0,0.0,0.0,,,,,,GPS_RAW_INT,GPS 1: detected MAV,RTL,0,0,0,0
2026-07-07T02:27:59.217030+00:00,15.103589296340942,E19_mode_command,RTL_command,0,,,,,,,,,,,1,0,0.0,0.0,0.0,,,,,,FENCE_STATUS,GPS 1: detected MAV,RTL,0,0,0,0
2026-07-07T02:27:59.414807+00:00,15.301392078399658,E19_mode_command,RTL_command,0,,,,,,,,,,,1,0,0.0,0.0,0.0,,,,,,HEARTBEAT,GPS 1: detected MAV,RTL,0,0,0,0
2026-07-07T02:27:59.414999+00:00,15.301571607589722,E19_mode_command,RTL_command,0,,,,,0.0,0.0,0.0,13173877.35106569,,,1,0,0.0,0.0,0.0,-0.01,0.01,0.0,,,GLOBAL_POSITION_INT,GPS 1: detected MAV,RTL,0,0,0,0
2026-07-07T02:27:59.415226+00:00,15.301794528961182,E19_mode_command,RTL_command,0,,,,,,,,,,,1,0,0.0,0.0,0.0,,,,,,MISSION_CURRENT,GPS 1: detected MAV,RTL,0,0,0,0
2026-07-07T02:27:59.415557+00:00,15.302123785018921,E19_mode_command,RTL_command,0,,,,,,,,,,,1,0,0.0,0.0,0.0,,,,,,GPS_RAW_INT,GPS 1: detected MAV,RTL,0,0,0,0
2026-07-07T02:27:59.415629+00:00,15.302191495895386,E19_mode_command,RTL_command,0,,,,,,,,,,,1,0,0.0,0.0,0.0,,,,,,FENCE_STATUS,GPS 1: detected MAV,RTL,0,0,0,0
2026-07-07T02:27:59.618553+00:00,15.505134105682373,E19_mode_command,RTL_command,0,,,,,,,,,,,1,0,0.0,0.0,0.0,,,,,,HEARTBEAT,GPS 1: detected MAV,RTL,0,0,0,0
2026-07-07T02:27:59.618720+00:00,15.50528359413147,E19_mode_command,RTL_command,0,,,,,0.0,0.0,0.0,13173877.35106569,,,1,0,0.0,0.0,0.0,-0.01,0.01,0.0,,,GLOBAL_POSITION_INT,GPS 1: detected MAV,RTL,0,0,0,0
2026-07-07T02:27:59.618866+00:00,15.505430459976196,E19_mode_command,RTL_command,0,,,,,,,,,,,1,0,0.0,0.0,0.0,,,,,,MISSION_CURRENT,GPS 1: detected MAV,RTL,0,0,0,0
2026-07-07T02:27:59.619123+00:00,15.505686521530151,E19_mode_command,RTL_command,0,,,,,,,,,,,1,0,0.0,0.0,0.0,,,,,,GPS_RAW_INT,GPS 1: detected MAV,RTL,0,0,0,0
2026-07-07T02:27:59.619169+00:00,15.505727529525757,E19_mode_command,RTL_command,0,,,,,,,,,,,1,0,0.0,0.0,0.0,,,,,,FENCE_STATUS,GPS 1: detected MAV,RTL,0,0,0,0
2026-07-07T02:27:59.817076+00:00,15.703659057617188,E19_mode_command,RTL_command,0,,,,,,,,,,,1,0,0.0,0.0,0.0,,,,,,HEARTBEAT,GPS 1: detected MAV,RTL,0,0,0,0
2026-07-07T02:27:59.817265+00:00,15.703835487365723,E19_mode_command,RTL_command,0,,,,,0.0,0.0,0.0,13173877.35106569,,,1,0,0.0,0.0,0.0,-0.01,0.01,0.0,,,GLOBAL_POSITION_INT,GPS 1: detected MAV,RTL,0,0,0,0
2026-07-07T02:27:59.817469+00:00,15.704034328460693,E19_mode_command,RTL_command,0,,,,,,,,,,,1,0,0.0,0.0,0.0,,,,,,MISSION_CURRENT,GPS 1: detected MAV,RTL,0,0,0,0
2026-07-07T02:27:59.817722+00:00,15.704286098480225,E19_mode_command,RTL_command,0,,,,,,,,,,,1,0,0.0,0.0,0.0,,,,,,GPS_RAW_INT,GPS 1: detected MAV,RTL,0,0,0,0
2026-07-07T02:27:59.817770+00:00,15.704328536987305,E19_mode_command,RTL_command,0,,,,,,,,,,,1,0,0.0,0.0,0.0,,,,,,FENCE_STATUS,GPS 1: detected MAV,RTL,0,0,0,0
2026-07-07T02:28:16.625686+00:00,0.021406173706054688,E19_mode_command,LAND_warmup,0,37.5665,126.978,20.0,0.0,,,,,,,,,,,,,,,0.0,0.0,STATUSTEXT,GPS 1: detected MAV,,,,,
2026-07-07T02:28:16.701336+00:00,0.09705877304077148,E19_mode_command,LAND_warmup,0,37.5665,126.978,20.0,0.0,,,,,,,,,,,,,,,0.0,0.0,HEARTBEAT,GPS 1: detected MAV,STABILIZE,,,,
2026-07-07T02:28:16.701529+00:00,0.09723854064941406,E19_mode_command,LAND_warmup,0,37.5665,126.978,20.0,0.0,37.5665,126.978,20.0,0.0,0.0,0,,,,,,0.0,0.0,-0.02,0.0,0.0,GLOBAL_POSITION_INT,GPS 1: detected MAV,STABILIZE,,,,
2026-07-07T02:28:16.701709+00:00,0.09741616249084473,E19_mode_command,LAND_warmup,0,37.5665,126.978,20.0,0.0,,,,,,,,,,,,,,,0.0,0.0,MISSION_CURRENT,GPS 1: detected MAV,STABILIZE,0,,,
2026-07-07T02:28:16.701992+00:00,0.09769606590270996,E19_mode_command,LAND_warmup,0,37.5665,126.978,20.0,0.0,,,,,,,3,12,37.5665,126.978,20.0,,,,0.0,0.0,GPS_RAW_INT,GPS 1: detected MAV,STABILIZE,0,,,
2026-07-07T02:28:16.702040+00:00,0.09773826599121094,E19_mode_command,LAND_warmup,0,37.5665,126.978,20.0,0.0,,,,,,,3,12,37.5665,126.978,20.0,,,,0.0,0.0,FENCE_STATUS,GPS 1: detected MAV,STABILIZE,0,0,0,0
2026-07-07T02:28:16.905456+00:00,0.301180362701416,E19_mode_command,LAND_warmup,0,37.5665,126.978,20.0,0.0,,,,,,,3,12,37.5665,126.978,20.0,,,,0.0,0.0,HEARTBEAT,GPS 1: detected MAV,STABILIZE,0,0,0,0
2026-07-07T02:28:16.905613+00:00,0.301314115524292,E19_mode_command,LAND_warmup,0,37.5665,126.978,20.0,0.0,37.5665,126.978,20.0,0.0,0.0,0,3,12,37.5665,126.978,20.0,0.0,0.0,-0.02,0.0,0.0,GLOBAL_POSITION_INT,GPS 1: detected MAV,STABILIZE,0,0,0,0
2026-07-07T02:28:16.905726+00:00,0.3014249801635742,E19_mode_command,LAND_warmup,0,37.5665,126.978,20.0,0.0,,,,,,,3,12,37.5665,126.978,20.0,,,,0.0,0.0,MISSION_CURRENT,GPS 1: detected MAV,STABILIZE,0,0,0,0
2026-07-07T02:28:16.905909+00:00,0.3016090393066406,E19_mode_command,LAND_warmup,0,37.5665,126.978,20.0,0.0,,,,,,,3,12,37.5665,126.978,20.0,,,,0.0,0.0,GPS_RAW_INT,GPS 1: detected MAV,STABILIZE,0,0,0,0
2026-07-07T02:28:16.905948+00:00,0.30164623260498047,E19_mode_command,LAND_warmup,0,37.5665,126.978,20.0,0.0,,,,,,,3,12,37.5665,126.978,20.0,,,,0.0,0.0,FENCE_STATUS,GPS 1: detected MAV,STABILIZE,0,0,0,0
2026-07-07T02:28:17.103860+00:00,0.49959373474121094,E19_mode_command,LAND_warmup,0,37.5665,126.978,20.0,0.0,,,,,,,3,12,37.5665,126.978,20.0,,,,0.0,0.0,HEARTBEAT,GPS 1: detected MAV,STABILIZE,0,0,0,0
2026-07-07T02:28:17.104036+00:00,0.4997398853302002,E19_mode_command,LAND_warmup,0,37.5665,126.978,20.0,0.0,37.5665,126.978,20.0,0.0,0.0,0,3,12,37.5665,126.978,20.0,0.0,0.0,-0.03,0.0,0.0,GLOBAL_POSITION_INT,GPS 1: detected MAV,STABILIZE,0,0,0,0
2026-07-07T02:28:17.104194+00:00,0.49989891052246094,E19_mode_command,LAND_warmup,0,37.5665,126.978,20.0,0.0,,,,,,,3,12,37.5665,126.978,20.0,,,,0.0,0.0,MISSION_CURRENT,GPS 1: detected MAV,STABILIZE,0,0,0,0
2026-07-07T02:28:17.104421+00:00,0.5001254081726074,E19_mode_command,LAND_warmup,0,37.5665,126.978,20.0,0.0,,,,,,,3,12,37.5665,126.978,20.0,,,,0.0,0.0,GPS_RAW_INT,GPS 1: detected MAV,STABILIZE,0,0,0,0
2026-07-07T02:28:17.104492+00:00,0.5001904964447021,E19_mode_command,LAND_warmup,0,37.5665,126.978,20.0,0.0,,,,,,,3,12,37.5665,126.978,20.0,,,,0.0,0.0,FENCE_STATUS,GPS 1: detected MAV,STABILIZE,0,0,0,0
2026-07-07T02:28:17.302072+00:00,0.6977953910827637,E19_mode_command,LAND_warmup,0,37.5665,126.978,20.0,0.0,,,,,,,3,12,37.5665,126.978,20.0,,,,0.0,0.0,HEARTBEAT,GPS 1: detected MAV,STABILIZE,0,0,0,0
2026-07-07T02:28:17.302248+00:00,0.6979513168334961,E19_mode_command,LAND_warmup,0,37.5665,126.978,20.0,0.0,37.5665,126.978,20.0,0.0,0.0,0,3,12,37.5665,126.978,20.0,0.0,0.0,-0.03,0.0,0.0,GLOBAL_POSITION_INT,GPS 1: detected MAV,STABILIZE,0,0,0,0
2026-07-07T02:28:17.302372+00:00,0.6980724334716797,E19_mode_command,LAND_warmup,0,37.5665,126.978,20.0,0.0,,,,,,,3,12,37.5665,126.978,20.0,,,,0.0,0.0,MISSION_CURRENT,GPS 1: detected MAV,STABILIZE,0,0,0,0
2026-07-07T02:28:17.302574+00:00,0.6982741355895996,E19_mode_command,LAND_warmup,0,37.5665,126.978,20.0,0.0,,,,,,,3,12,37.5665,126.978,20.0,,,,0.0,0.0,GPS_RAW_INT,GPS 1: detected MAV,STABILIZE,0,0,0,0
2026-07-07T02:28:17.302614+00:00,0.6983115673065186,E19_mode_command,LAND_warmup,0,37.5665,126.978,20.0,0.0,,,,,,,3,12,37.5665,126.978,20.0,,,,0.0,0.0,FENCE_STATUS,GPS 1: detected MAV,STABILIZE,0,0,0,0
2026-07-07T02:28:17.500361+00:00,0.8960833549499512,E19_mode_command,LAND_warmup,0,37.5665,126.978,20.0,0.0,,,,,,,3,12,37.5665,126.978,20.0,,,,0.0,0.0,HEARTBEAT,GPS 1: detected MAV,STABILIZE,0,0,0,0
2026-07-07T02:28:17.500503+00:00,0.8962008953094482,E19_mode_command,LAND_warmup,0,37.5665,126.978,20.0,0.0,37.5665,126.978,20.0,0.0,0.0,0,3,12,37.5665,126.978,20.0,0.0,0.0,-0.03,0.0,0.0,GLOBAL_POSITION_INT,GPS 1: detected MAV,STABILIZE,0,0,0,0
2026-07-07T02:28:17.500648+00:00,0.896353006362915,E19_mode_command,LAND_warmup,0,37.5665,126.978,20.0,0.0,,,,,,,3,12,37.5665,126.978,20.0,,,,0.0,0.0,MISSION_CURRENT,GPS 1: detected MAV,STABILIZE,0,0,0,0
2026-07-07T02:28:17.500843+00:00,0.8965427875518799,E19_mode_command,LAND_warmup,0,37.5665,126.978,20.0,0.0,,,,,,,3,12,37.5665,126.978,20.0,,,,0.0,0.0,GPS_RAW_INT,GPS 1: detected MAV,STABILIZE,0,0,0,0
2026-07-07T02:28:17.500880+00:00,0.8965773582458496,E19_mode_command,LAND_warmup,0,37.5665,126.978,20.0,0.0,,,,,,,3,12,37.5665,126.978,20.0,,,,0.0,0.0,FENCE_STATUS,GPS 1: detected MAV,STABILIZE,0,0,0,0
2026-07-07T02:28:17.704245+00:00,1.0999693870544434,E19_mode_command,LAND_warmup,0,37.5665,126.978,20.0,0.0,,,,,,,3,12,37.5665,126.978,20.0,,,,0.0,0.0,HEARTBEAT,GPS 1: detected MAV,STABILIZE,0,0,0,0
2026-07-07T02:28:17.704457+00:00,1.1001651287078857,E19_mode_command,LAND_warmup,0,37.5665,126.978,20.0,0.0,37.5665,126.978,20.0,0.0,0.0,0,3,12,37.5665,126.978,20.0,0.0,0.0,-0.03,0.0,0.0,GLOBAL_POSITION_INT,GPS 1: detected MAV,STABILIZE,0,0,0,0
2026-07-07T02:28:17.704633+00:00,1.1003401279449463,E19_mode_command,LAND_warmup,0,37.5665,126.978,20.0,0.0,,,,,,,3,12,37.5665,126.978,20.0,,,,0.0,0.0,MISSION_CURRENT,GPS 1: detected MAV,STABILIZE,0,0,0,0
2026-07-07T02:28:17.704938+00:00,1.1006429195404053,E19_mode_command,LAND_warmup,0,37.5665,126.978,20.0,0.0,,,,,,,3,12,37.5665,126.978,20.0,,,,0.0,0.0,GPS_RAW_INT,GPS 1: detected MAV,STABILIZE,0,0,0,0
2026-07-07T02:28:17.705011+00:00,1.1007139682769775,E19_mode_command,LAND_warmup,0,37.5665,126.978,20.0,0.0,,,,,,,3,12,37.5665,126.978,20.0,,,,0.0,0.0,FENCE_STATUS,GPS 1: detected MAV,STABILIZE,0,0,0,0
2026-07-07T02:28:17.902765+00:00,1.2984888553619385,E19_mode_command,LAND_warmup,0,37.5665,126.978,20.0,0.0,,,,,,,3,12,37.5665,126.978,20.0,,,,0.0,0.0,HEARTBEAT,GPS 1: detected MAV,STABILIZE,0,0,0,0
2026-07-07T02:28:17.902964+00:00,1.2986729145050049,E19_mode_command,LAND_warmup,0,37.5665,126.978,20.0,0.0,37.5665,126.978,20.0,0.0,0.0,0,3,12,37.5665,126.978,20.0,0.0,0.0,-0.03,0.0,0.0,GLOBAL_POSITION_INT,GPS 1: detected MAV,STABILIZE,0,0,0,0
2026-07-07T02:28:17.903143+00:00,1.298849105834961,E19_mode_command,LAND_warmup,0,37.5665,126.978,20.0,0.0,,,,,,,3,12,37.5665,126.978,20.0,,,,0.0,0.0,MISSION_CURRENT,GPS 1: detected MAV,STABILIZE,0,0,0,0
2026-07-07T02:28:17.903377+00:00,1.2990782260894775,E19_mode_command,LAND_warmup,0,37.5665,126.978,20.0,0.0,,,,,,,3,12,37.5665,126.978,20.0,,,,0.0,0.0,GPS_RAW_INT,GPS 1: detected MAV,STABILIZE,0,0,0,0
2026-07-07T02:28:17.903429+00:00,1.299130916595459,E19_mode_command,LAND_warmup,0,37.5665,126.978,20.0,0.0,,,,,,,3,12,37.5665,126.978,20.0,,,,0.0,0.0,FENCE_STATUS,GPS 1: detected MAV,STABILIZE,0,0,0,0
2026-07-07T02:28:18.106582+00:00,1.5023045539855957,E19_mode_command,LAND_warmup,0,37.5665,126.978,20.0,0.0,,,,,,,3,12,37.5665,126.978,20.0,,,,0.0,0.0,HEARTBEAT,GPS 1: detected MAV,STABILIZE,0,0,0,0
2026-07-07T02:28:18.106748+00:00,1.5024549961090088,E19_mode_command,LAND_warmup,0,37.5665,126.978,20.0,0.0,37.5665,126.978,20.0,0.0,0.0,0,3,12,37.5665,126.978,20.0,0.0,0.0,-0.04,0.0,0.0,GLOBAL_POSITION_INT,GPS 1: detected MAV,STABILIZE,0,0,0,0
2026-07-07T02:28:18.106894+00:00,1.5025944709777832,E19_mode_command,LAND_warmup,0,37.5665,126.978,20.0,0.0,,,,,,,3,12,37.5665,126.978,20.0,,,,0.0,0.0,MISSION_CURRENT,GPS 1: detected MAV,STABILIZE,0,0,0,0
2026-07-07T02:28:18.107132+00:00,1.502835750579834,E19_mode_command,LAND_warmup,0,37.5665,126.978,20.0,0.0,,,,,,,3,12,37.5665,126.978,20.0,,,,0.0,0.0,GPS_RAW_INT,GPS 1: detected MAV,STABILIZE,0,0,0,0
2026-07-07T02:28:18.107179+00:00,1.5028769969940186,E19_mode_command,LAND_warmup,0,37.5665,126.978,20.0,0.0,,,,,,,3,12,37.5665,126.978,20.0,,,,0.0,0.0,FENCE_STATUS,GPS 1: detected MAV,STABILIZE,0,0,0,0
2026-07-07T02:28:18.305074+00:00,1.7007970809936523,E19_mode_command,LAND_warmup,0,37.5665,126.978,20.0,0.0,,,,,,,3,12,37.5665,126.978,20.0,,,,0.0,0.0,HEARTBEAT,GPS 1: detected MAV,STABILIZE,0,0,0,0
2026-07-07T02:28:18.305245+00:00,1.7009482383728027,E19_mode_command,LAND_warmup,0,37.5665,126.978,20.0,0.0,37.5665,126.978,20.0,0.0,0.0,0,3,12,37.5665,126.978,20.0,0.0,0.0,-0.04,0.0,0.0,GLOBAL_POSITION_INT,GPS 1: detected MAV,STABILIZE,0,0,0,0
2026-07-07T02:28:18.305367+00:00,1.701066255569458,E19_mode_command,LAND_warmup,0,37.5665,126.978,20.0,0.0,,,,,,,3,12,37.5665,126.978,20.0,,,,0.0,0.0,MISSION_CURRENT,GPS 1: detected MAV,STABILIZE,0,0,0,0
2026-07-07T02:28:18.305563+00:00,1.7012629508972168,E19_mode_command,LAND_warmup,0,37.5665,126.978,20.0,0.0,,,,,,,3,12,37.5665,126.978,20.0,,,,0.0,0.0,GPS_RAW_INT,GPS 1: detected MAV,STABILIZE,0,0,0,0
2026-07-07T02:28:18.305600+00:00,1.7012975215911865,E19_mode_command,LAND_warmup,0,37.5665,126.978,20.0,0.0,,,,,,,3,12,37.5665,126.978,20.0,,,,0.0,0.0,FENCE_STATUS,GPS 1: detected MAV,STABILIZE,0,0,0,0
2026-07-07T02:28:18.503414+00:00,1.899139165878296,E19_mode_command,LAND_warmup,0,37.5665,126.978,20.0,0.0,,,,,,,3,12,37.5665,126.978,20.0,,,,0.0,0.0,HEARTBEAT,GPS 1: detected MAV,STABILIZE,0,0,0,0
2026-07-07T02:28:18.503691+00:00,1.8993995189666748,E19_mode_command,LAND_warmup,0,37.5665,126.978,20.0,0.0,37.5665,126.978,20.0,0.0,0.0,0,3,12,37.5665,126.978,20.0,0.0,0.0,-0.04,0.0,0.0,GLOBAL_POSITION_INT,GPS 1: detected MAV,STABILIZE,0,0,0,0
2026-07-07T02:28:18.503875+00:00,1.899580478668213,E19_mode_command,LAND_warmup,0,37.5665,126.978,20.0,0.0,,,,,,,3,12,37.5665,126.978,20.0,,,,0.0,0.0,MISSION_CURRENT,GPS 1: detected MAV,STABILIZE,0,0,0,0
2026-07-07T02:28:18.504166+00:00,1.8998706340789795,E19_mode_command,LAND_warmup,0,37.5665,126.978,20.0,0.0,,,,,,,3,12,37.5665,126.978,20.0,,,,0.0,0.0,GPS_RAW_INT,GPS 1: detected MAV,STABILIZE,0,0,0,0
2026-07-07T02:28:18.504233+00:00,1.8999323844909668,E19_mode_command,LAND_warmup,0,37.5665,126.978,20.0,0.0,,,,,,,3,12,37.5665,126.978,20.0,,,,0.0,0.0,FENCE_STATUS,GPS 1: detected MAV,STABILIZE,0,0,0,0
2026-07-07T02:28:18.701589+00:00,2.0973117351531982,E19_mode_command,LAND_warmup,0,37.5665,126.978,20.0,0.0,,,,,,,3,12,37.5665,126.978,20.0,,,,0.0,0.0,HEARTBEAT,GPS 1: detected MAV,STABILIZE,0,0,0,0
2026-07-07T02:28:18.701741+00:00,2.0974457263946533,E19_mode_command,LAND_warmup,0,37.5665,126.978,20.0,0.0,37.5665,126.978,20.0,0.0,0.0,0,3,12,37.5665,126.978,20.0,0.0,0.0,-0.04,0.0,0.0,GLOBAL_POSITION_INT,GPS 1: detected MAV,STABILIZE,0,0,0,0
2026-07-07T02:28:18.701888+00:00,2.09759259223938,E19_mode_command,LAND_warmup,0,37.5665,126.978,20.0,0.0,,,,,,,3,12,37.5665,126.978,20.0,,,,0.0,0.0,MISSION_CURRENT,GPS 1: detected MAV,STABILIZE,0,0,0,0
2026-07-07T02:28:18.702142+00:00,2.0978457927703857,E19_mode_command,LAND_warmup,0,37.5665,126.978,20.0,0.0,,,,,,,3,12,37.5665,126.978,20.0,,,,0.0,0.0,GPS_RAW_INT,GPS 1: detected MAV,STABILIZE,0,0,0,0
2026-07-07T02:28:18.702189+00:00,2.0978872776031494,E19_mode_command,LAND_warmup,0,37.5665,126.978,20.0,0.0,,,,,,,3,12,37.5665,126.978,20.0,,,,0.0,0.0,FENCE_STATUS,GPS 1: detected MAV,STABILIZE,0,0,0,0
2026-07-07T02:28:18.905611+00:00,2.301331043243408,E19_mode_command,LAND_warmup,0,37.5665,126.978,20.0,0.0,,,,,,,3,12,37.5665,126.978,20.0,,,,0.0,0.0,HEARTBEAT,GPS 1: detected MAV,STABILIZE,0,0,0,0
2026-07-07T02:28:18.905805+00:00,2.3015120029449463,E19_mode_command,LAND_warmup,0,37.5665,126.978,20.0,0.0,37.5665,126.978,20.0,0.0,0.0,0,3,12,37.5665,126.978,20.0,0.0,0.0,-0.04,0.0,0.0,GLOBAL_POSITION_INT,GPS 1: detected MAV,STABILIZE,0,0,0,0
2026-07-07T02:28:18.905983+00:00,2.301687240600586,E19_mode_command,LAND_warmup,0,37.5665,126.978,20.0,0.0,,,,,,,3,12,37.5665,126.978,20.0,,,,0.0,0.0,MISSION_CURRENT,GPS 1: detected MAV,STABILIZE,0,0,0,0
2026-07-07T02:28:18.906187+00:00,2.301886558532715,E19_mode_command,LAND_warmup,0,37.5665,126.978,20.0,0.0,,,,,,,3,12,37.5665,126.978,20.0,,,,0.0,0.0,GPS_RAW_INT,GPS 1: detected MAV,STABILIZE,0,0,0,0
2026-07-07T02:28:18.906227+00:00,2.30192494392395,E19_mode_command,LAND_warmup,0,37.5665,126.978,20.0,0.0,,,,,,,3,12,37.5665,126.978,20.0,,,,0.0,0.0,FENCE_STATUS,GPS 1: detected MAV,STABILIZE,0,0,0,0
2026-07-07T02:28:29.504369+00:00,12.900091171264648,E19_mode_command,LAND_command,0,,,,,,,,,,,3,12,37.5665,126.978,20.0,,,,,,HEARTBEAT,GPS 1: detected MAV,LAND,0,0,0,0
2026-07-07T02:28:29.504521+00:00,12.900223016738892,E19_mode_command,LAND_command,0,,,,,0.0,0.0,0.0,13173877.35106569,,,3,12,37.5665,126.978,20.0,0.0,0.0,0.0,,,GLOBAL_POSITION_INT,GPS 1: detected MAV,LAND,0,0,0,0
2026-07-07T02:28:29.504711+00:00,12.900415182113647,E19_mode_command,LAND_command,0,,,,,,,,,,,3,12,37.5665,126.978,20.0,,,,,,MISSION_CURRENT,GPS 1: detected MAV,LAND,0,0,0,0
2026-07-07T02:28:29.505009+00:00,12.900713443756104,E19_mode_command,LAND_command,0,,,,,,,,,,,1,0,0.0,0.0,0.0,,,,,,GPS_RAW_INT,GPS 1: detected MAV,LAND,0,0,0,0
2026-07-07T02:28:29.505107+00:00,12.900810956954956,E19_mode_command,LAND_command,0,,,,,,,,,,,1,0,0.0,0.0,0.0,,,,,,FENCE_STATUS,GPS 1: detected MAV,LAND,0,0,0,0
2026-07-07T02:28:29.702704+00:00,13.098426580429077,E19_mode_command,LAND_command,0,,,,,,,,,,,1,0,0.0,0.0,0.0,,,,,,HEARTBEAT,GPS 1: detected MAV,LAND,0,0,0,0
2026-07-07T02:28:29.702904+00:00,13.098612308502197,E19_mode_command,LAND_command,0,,,,,0.0,0.0,0.0,13173877.35106569,,,1,0,0.0,0.0,0.0,0.0,0.0,0.0,,,GLOBAL_POSITION_INT,GPS 1: detected MAV,LAND,0,0,0,0
2026-07-07T02:28:29.703135+00:00,13.098840951919556,E19_mode_command,LAND_command,0,,,,,,,,,,,1,0,0.0,0.0,0.0,,,,,,MISSION_CURRENT,GPS 1: detected MAV,LAND,0,0,0,0
2026-07-07T02:28:29.703515+00:00,13.09921908378601,E19_mode_command,LAND_command,0,,,,,,,,,,,1,0,0.0,0.0,0.0,,,,,,GPS_RAW_INT,GPS 1: detected MAV,LAND,0,0,0,0
2026-07-07T02:28:29.703587+00:00,13.099289417266846,E19_mode_command,LAND_command,0,,,,,,,,,,,1,0,0.0,0.0,0.0,,,,,,FENCE_STATUS,GPS 1: detected MAV,LAND,0,0,0,0
2026-07-07T02:28:29.900859+00:00,13.29658055305481,E19_mode_command,LAND_command,0,,,,,,,,,,,1,0,0.0,0.0,0.0,,,,,,HEARTBEAT,GPS 1: detected MAV,LAND,0,0,0,0
2026-07-07T02:28:29.901044+00:00,13.296753168106079,E19_mode_command,LAND_command,0,,,,,0.0,0.0,0.0,13173877.35106569,,,1,0,0.0,0.0,0.0,0.0,0.0,0.0,,,GLOBAL_POSITION_INT,GPS 1: detected MAV,LAND,0,0,0,0
2026-07-07T02:28:29.901225+00:00,13.296929836273193,E19_mode_command,LAND_command,0,,,,,,,,,,,1,0,0.0,0.0,0.0,,,,,,MISSION_CURRENT,GPS 1: detected MAV,LAND,0,0,0,0
2026-07-07T02:28:29.901509+00:00,13.297212362289429,E19_mode_command,LAND_command,0,,,,,,,,,,,1,0,0.0,0.0,0.0,,,,,,GPS_RAW_INT,GPS 1: detected MAV,LAND,0,0,0,0
2026-07-07T02:28:29.901571+00:00,13.2972731590271,E19_mode_command,LAND_command,0,,,,,,,,,,,1,0,0.0,0.0,0.0,,,,,,FENCE_STATUS,GPS 1: detected MAV,LAND,0,0,0,0
2026-07-07T02:28:30.105006+00:00,13.500725984573364,E19_mode_command,LAND_command,0,,,,,,,,,,,1,0,0.0,0.0,0.0,,,,,,HEARTBEAT,GPS 1: detected MAV,LAND,0,0,0,0
2026-07-07T02:28:30.105169+00:00,13.500872135162354,E19_mode_command,LAND_command,0,,,,,0.0,0.0,0.0,13173877.35106569,,,1,0,0.0,0.0,0.0,0.0,0.0,0.0,,,GLOBAL_POSITION_INT,GPS 1: detected MAV,LAND,0,0,0,0
2026-07-07T02:28:30.105284+00:00,13.500983715057373,E19_mode_command,LAND_command,0,,,,,,,,,,,1,0,0.0,0.0,0.0,,,,,,MISSION_CURRENT,GPS 1: detected MAV,LAND,0,0,0,0
2026-07-07T02:28:30.105471+00:00,13.501173496246338,E19_mode_command,LAND_command,0,,,,,,,,,,,1,0,0.0,0.0,0.0,,,,,,GPS_RAW_INT,GPS 1: detected MAV,LAND,0,0,0,0
2026-07-07T02:28:30.105509+00:00,13.50120759010315,E19_mode_command,LAND_command,0,,,,,,,,,,,1,0,0.0,0.0,0.0,,,,,,FENCE_STATUS,GPS 1: detected MAV,LAND,0,0,0,0
2026-07-07T02:28:30.303311+00:00,13.699032306671143,E19_mode_command,LAND_command,0,,,,,,,,,,,1,0,0.0,0.0,0.0,,,,,,HEARTBEAT,GPS 1: detected MAV,LAND,0,0,0,0
2026-07-07T02:28:30.303514+00:00,13.699224472045898,E19_mode_command,LAND_command,0,,,,,0.0,0.0,0.0,13173877.35106569,,,1,0,0.0,0.0,0.0,0.0,0.0,0.0,,,GLOBAL_POSITION_INT,GPS 1: detected MAV,LAND,0,0,0,0
2026-07-07T02:28:30.303668+00:00,13.69937014579773,E19_mode_command,LAND_command,0,,,,,,,,,,,1,0,0.0,0.0,0.0,,,,,,MISSION_CURRENT,GPS 1: detected MAV,LAND,0,0,0,0
2026-07-07T02:28:30.303856+00:00,13.699556589126587,E19_mode_command,LAND_command,0,,,,,,,,,,,1,0,0.0,0.0,0.0,,,,,,GPS_RAW_INT,GPS 1: detected MAV,LAND,0,0,0,0
2026-07-07T02:28:30.303895+00:00,13.69959306716919,E19_mode_command,LAND_command,0,,,,,,,,,,,1,0,0.0,0.0,0.0,,,,,,FENCE_STATUS,GPS 1: detected MAV,LAND,0,0,0,0
2026-07-07T02:28:30.507364+00:00,13.903083562850952,E19_mode_command,LAND_command,0,,,,,,,,,,,1,0,0.0,0.0,0.0,,,,,,HEARTBEAT,GPS 1: detected MAV,LAND,0,0,0,0
2026-07-07T02:28:30.507614+00:00,13.903324842453003,E19_mode_command,LAND_command,0,,,,,0.0,0.0,0.0,13173877.35106569,,,1,0,0.0,0.0,0.0,0.0,0.0,0.0,,,GLOBAL_POSITION_INT,GPS 1: detected MAV,LAND,0,0,0,0
2026-07-07T02:28:30.507770+00:00,13.903475046157837,E19_mode_command,LAND_command,0,,,,,,,,,,,1,0,0.0,0.0,0.0,,,,,,MISSION_CURRENT,GPS 1: detected MAV,LAND,0,0,0,0
2026-07-07T02:28:30.508012+00:00,13.903716325759888,E19_mode_command,LAND_command,0,,,,,,,,,,,1,0,0.0,0.0,0.0,,,,,,GPS_RAW_INT,GPS 1: detected MAV,LAND,0,0,0,0
2026-07-07T02:28:30.508059+00:00,13.903757810592651,E19_mode_command,LAND_command,0,,,,,,,,,,,1,0,0.0,0.0,0.0,,,,,,FENCE_STATUS,GPS 1: detected MAV,LAND,0,0,0,0
2026-07-07T02:28:30.705650+00:00,14.10137128829956,E19_mode_command,LAND_command,0,,,,,,,,,,,1,0,0.0,0.0,0.0,,,,,,HEARTBEAT,GPS 1: detected MAV,LAND,0,0,0,0
2026-07-07T02:28:30.705786+00:00,14.101486682891846,E19_mode_command,LAND_command,0,,,,,0.0,0.0,0.0,13173877.35106569,,,1,0,0.0,0.0,0.0,0.0,0.01,0.0,,,GLOBAL_POSITION_INT,GPS 1: detected MAV,LAND,0,0,0,0
2026-07-07T02:28:30.705899+00:00,14.101598262786865,E19_mode_command,LAND_command,0,,,,,,,,,,,1,0,0.0,0.0,0.0,,,,,,MISSION_CURRENT,GPS 1: detected MAV,LAND,0,0,0,0
2026-07-07T02:28:30.706090+00:00,14.101792097091675,E19_mode_command,LAND_command,0,,,,,,,,,,,1,0,0.0,0.0,0.0,,,,,,GPS_RAW_INT,GPS 1: detected MAV,LAND,0,0,0,0
2026-07-07T02:28:30.706129+00:00,14.101827383041382,E19_mode_command,LAND_command,0,,,,,,,,,,,1,0,0.0,0.0,0.0,,,,,,FENCE_STATUS,GPS 1: detected MAV,LAND,0,0,0,0
2026-07-07T02:28:30.904057+00:00,14.299779653549194,E19_mode_command,LAND_command,0,,,,,,,,,,,1,0,0.0,0.0,0.0,,,,,,HEARTBEAT,GPS 1: detected MAV,LAND,0,0,0,0
2026-07-07T02:28:30.904220+00:00,14.2999267578125,E19_mode_command,LAND_command,0,,,,,0.0,0.0,0.0,13173877.35106569,,,1,0,0.0,0.0,0.0,-0.01,0.01,0.0,,,GLOBAL_POSITION_INT,GPS 1: detected MAV,LAND,0,0,0,0
2026-07-07T02:28:30.904378+00:00,14.30008316040039,E19_mode_command,LAND_command,0,,,,,,,,,,,1,0,0.0,0.0,0.0,,,,,,MISSION_CURRENT,GPS 1: detected MAV,LAND,0,0,0,0
2026-07-07T02:28:30.904648+00:00,14.300352096557617,E19_mode_command,LAND_command,0,,,,,,,,,,,1,0,0.0,0.0,0.0,,,,,,GPS_RAW_INT,GPS 1: detected MAV,LAND,0,0,0,0
2026-07-07T02:28:30.904694+00:00,14.300393104553223,E19_mode_command,LAND_command,0,,,,,,,,,,,1,0,0.0,0.0,0.0,,,,,,FENCE_STATUS,GPS 1: detected MAV,LAND,0,0,0,0
2026-07-07T02:28:31.107808+00:00,14.503528356552124,E19_mode_command,LAND_command,0,,,,,,,,,,,1,0,0.0,0.0,0.0,,,,,,HEARTBEAT,GPS 1: detected MAV,LAND,0,0,0,0
2026-07-07T02:28:31.108005+00:00,14.503712892532349,E19_mode_command,LAND_command,0,,,,,0.0,0.0,0.0,13173877.35106569,,,1,0,0.0,0.0,0.0,-0.01,0.01,0.0,,,GLOBAL_POSITION_INT,GPS 1: detected MAV,LAND,0,0,0,0
2026-07-07T02:28:31.108199+00:00,14.503903865814209,E19_mode_command,LAND_command,0,,,,,,,,,,,1,0,0.0,0.0,0.0,,,,,,MISSION_CURRENT,GPS 1: detected MAV,LAND,0,0,0,0
2026-07-07T02:28:31.108512+00:00,14.504215955734253,E19_mode_command,LAND_command,0,,,,,,,,,,,1,0,0.0,0.0,0.0,,,,,,GPS_RAW_INT,GPS 1: detected MAV,LAND,0,0,0,0
2026-07-07T02:28:31.108587+00:00,14.504289388656616,E19_mode_command,LAND_command,0,,,,,,,,,,,1,0,0.0,0.0,0.0,,,,,,FENCE_STATUS,GPS 1: detected MAV,LAND,0,0,0,0
2026-07-07T02:28:31.306336+00:00,14.702056646347046,E19_mode_command,LAND_command,0,,,,,,,,,,,1,0,0.0,0.0,0.0,,,,,,HEARTBEAT,GPS 1: detected MAV,LAND,0,0,0,0
2026-07-07T02:28:31.306480+00:00,14.702181100845337,E19_mode_command,LAND_command,0,,,,,0.0,0.0,0.0,13173877.35106569,,,1,0,0.0,0.0,0.0,-0.01,0.01,0.0,,,GLOBAL_POSITION_INT,GPS 1: detected MAV,LAND,0,0,0,0
2026-07-07T02:28:31.306596+00:00,14.702297687530518,E19_mode_command,LAND_command,0,,,,,,,,,,,1,0,0.0,0.0,0.0,,,,,,MISSION_CURRENT,GPS 1: detected MAV,LAND,0,0,0,0
2026-07-07T02:28:31.306868+00:00,14.702571392059326,E19_mode_command,LAND_command,0,,,,,,,,,,,1,0,0.0,0.0,0.0,,,,,,GPS_RAW_INT,GPS 1: detected MAV,LAND,0,0,0,0
2026-07-07T02:28:31.306929+00:00,14.702626943588257,E19_mode_command,LAND_command,0,,,,,,,,,,,1,0,0.0,0.0,0.0,,,,,,FENCE_STATUS,GPS 1: detected MAV,LAND,0,0,0,0
2026-07-07T02:28:31.504662+00:00,14.90038537979126,E19_mode_command,LAND_command,0,,,,,,,,,,,1,0,0.0,0.0,0.0,,,,,,HEARTBEAT,GPS 1: detected MAV,LAND,0,0,0,0
2026-07-07T02:28:31.504847+00:00,14.900553464889526,E19_mode_command,LAND_command,0,,,,,0.0,0.0,0.0,13173877.35106569,,,1,0,0.0,0.0,0.0,-0.01,0.01,0.0,,,GLOBAL_POSITION_INT,GPS 1: detected MAV,LAND,0,0,0,0
2026-07-07T02:28:31.504971+00:00,14.900670766830444,E19_mode_command,LAND_command,0,,,,,,,,,,,1,0,0.0,0.0,0.0,,,,,,MISSION_CURRENT,GPS 1: detected MAV,LAND,0,0,0,0
2026-07-07T02:28:31.505330+00:00,14.901034593582153,E19_mode_command,LAND_command,0,,,,,,,,,,,1,0,0.0,0.0,0.0,,,,,,GPS_RAW_INT,GPS 1: detected MAV,LAND,0,0,0,0
2026-07-07T02:28:31.505411+00:00,14.901113748550415,E19_mode_command,LAND_command,0,,,,,,,,,,,1,0,0.0,0.0,0.0,,,,,,FENCE_STATUS,GPS 1: detected MAV,LAND,0,0,0,0
2026-07-07T02:28:31.702888+00:00,15.098609685897827,E19_mode_command,LAND_command,0,,,,,,,,,,,1,0,0.0,0.0,0.0,,,,,,HEARTBEAT,GPS 1: detected MAV,LAND,0,0,0,0
2026-07-07T02:28:31.703052+00:00,15.098757982254028,E19_mode_command,LAND_command,0,,,,,0.0,0.0,0.0,13173877.35106569,,,1,0,0.0,0.0,0.0,-0.01,0.01,0.0,,,GLOBAL_POSITION_INT,GPS 1: detected MAV,LAND,0,0,0,0
2026-07-07T02:28:31.703195+00:00,15.09889531135559,E19_mode_command,LAND_command,0,,,,,,,,,,,1,0,0.0,0.0,0.0,,,,,,MISSION_CURRENT,GPS 1: detected MAV,LAND,0,0,0,0
2026-07-07T02:28:31.703523+00:00,15.099226474761963,E19_mode_command,LAND_command,0,,,,,,,,,,,1,0,0.0,0.0,0.0,,,,,,GPS_RAW_INT,GPS 1: detected MAV,LAND,0,0,0,0
2026-07-07T02:28:31.703611+00:00,15.099313974380493,E19_mode_command,LAND_command,0,,,,,,,,,,,1,0,0.0,0.0,0.0,,,,,,FENCE_STATUS,GPS 1: detected MAV,LAND,0,0,0,0
2026-07-07T02:28:31.901165+00:00,15.296886682510376,E19_mode_command,LAND_command,0,,,,,,,,,,,1,0,0.0,0.0,0.0,,,,,,HEARTBEAT,GPS 1: detected MAV,LAND,0,0,0,0
2026-07-07T02:28:31.901372+00:00,15.297078847885132,E19_mode_command,LAND_command,0,,,,,0.0,0.0,0.0,13173877.35106569,,,1,0,0.0,0.0,0.0,-0.01,0.01,0.0,,,GLOBAL_POSITION_INT,GPS 1: detected MAV,LAND,0,0,0,0
2026-07-07T02:28:31.901493+00:00,15.297193050384521,E19_mode_command,LAND_command,0,,,,,,,,,,,1,0,0.0,0.0,0.0,,,,,,MISSION_CURRENT,GPS 1: detected MAV,LAND,0,0,0,0
2026-07-07T02:28:31.901678+00:00,15.297378063201904,E19_mode_command,LAND_command,0,,,,,,,,,,,1,0,0.0,0.0,0.0,,,,,,GPS_RAW_INT,GPS 1: detected MAV,LAND,0,0,0,0
2026-07-07T02:28:31.901716+00:00,15.297414302825928,E19_mode_command,LAND_command,0,,,,,,,,,,,1,0,0.0,0.0,0.0,,,,,,FENCE_STATUS,GPS 1: detected MAV,LAND,0,0,0,0
2026-07-07T02:28:32.105197+00:00,15.5009183883667,E19_mode_command,LAND_command,0,,,,,,,,,,,1,0,0.0,0.0,0.0,,,,,,HEARTBEAT,GPS 1: detected MAV,LAND,0,0,0,0
2026-07-07T02:28:32.105345+00:00,15.501047134399414,E19_mode_command,LAND_command,0,,,,,0.0,0.0,0.0,13173877.35106569,,,1,0,0.0,0.0,0.0,-0.01,0.01,0.0,,,GLOBAL_POSITION_INT,GPS 1: detected MAV,LAND,0,0,0,0
2026-07-07T02:28:32.105465+00:00,15.501165390014648,E19_mode_command,LAND_command,0,,,,,,,,,,,1,0,0.0,0.0,0.0,,,,,,MISSION_CURRENT,GPS 1: detected MAV,LAND,0,0,0,0
2026-07-07T02:28:32.105660+00:00,15.501360416412354,E19_mode_command,LAND_command,0,,,,,,,,,,,1,0,0.0,0.0,0.0,,,,,,GPS_RAW_INT,GPS 1: detected MAV,LAND,0,0,0,0
2026-07-07T02:28:32.105701+00:00,15.501398801803589,E19_mode_command,LAND_command,0,,,,,,,,,,,1,0,0.0,0.0,0.0,,,,,,FENCE_STATUS,GPS 1: detected MAV,LAND,0,0,0,0
2026-07-07T02:28:32.303555+00:00,15.699278354644775,E19_mode_command,LAND_command,0,,,,,,,,,,,1,0,0.0,0.0,0.0,,,,,,HEARTBEAT,GPS 1: detected MAV,LAND,0,0,0,0
2026-07-07T02:28:32.303738+00:00,15.699443578720093,E19_mode_command,LAND_command,0,,,,,0.0,0.0,0.0,13173877.35106569,,,1,0,0.0,0.0,0.0,-0.01,0.01,0.0,,,GLOBAL_POSITION_INT,GPS 1: detected MAV,LAND,0,0,0,0
2026-07-07T02:28:32.303875+00:00,15.699574947357178,E19_mode_command,LAND_command,0,,,,,,,,,,,1,0,0.0,0.0,0.0,,,,,,MISSION_CURRENT,GPS 1: detected MAV,LAND,0,0,0,0
2026-07-07T02:28:32.304058+00:00,15.699756622314453,E19_mode_command,LAND_command,0,,,,,,,,,,,1,0,0.0,0.0,0.0,,,,,,GPS_RAW_INT,GPS 1: detected MAV,LAND,0,0,0,0
2026-07-07T02:28:32.304094+00:00,15.699792861938477,E19_mode_command,LAND_command,0,,,,,,,,,,,1,0,0.0,0.0,0.0,,,,,,FENCE_STATUS,GPS 1: detected MAV,LAND,0,0,0,0
2026-07-07T02:28:48.901034+00:00,0.008929252624511719,E19_mode_command,BRAKE_warmup,0,37.5665,126.978,20.0,0.0,,,,,,,,,,,,,,,0.0,0.0,STATUSTEXT,GPS 1: detected MAV,,,,,
2026-07-07T02:28:48.994282+00:00,0.10217738151550293,E19_mode_command,BRAKE_warmup,0,37.5665,126.978,20.0,0.0,,,,,,,,,,,,,,,0.0,0.0,HEARTBEAT,GPS 1: detected MAV,STABILIZE,,,,
2026-07-07T02:28:48.994490+00:00,0.10237336158752441,E19_mode_command,BRAKE_warmup,0,37.5665,126.978,20.0,0.0,37.5665,126.978,20.0,0.0,0.0,0,,,,,,0.0,0.0,-0.01,0.0,0.0,GLOBAL_POSITION_INT,GPS 1: detected MAV,STABILIZE,,,,
2026-07-07T02:28:48.994647+00:00,0.1025242805480957,E19_mode_command,BRAKE_warmup,0,37.5665,126.978,20.0,0.0,,,,,,,,,,,,,,,0.0,0.0,MISSION_CURRENT,GPS 1: detected MAV,STABILIZE,0,,,
2026-07-07T02:28:48.994896+00:00,0.10277628898620605,E19_mode_command,BRAKE_warmup,0,37.5665,126.978,20.0,0.0,,,,,,,3,12,37.5665,126.978,20.0,,,,0.0,0.0,GPS_RAW_INT,GPS 1: detected MAV,STABILIZE,0,,,
2026-07-07T02:28:48.994951+00:00,0.10282230377197266,E19_mode_command,BRAKE_warmup,0,37.5665,126.978,20.0,0.0,,,,,,,3,12,37.5665,126.978,20.0,,,,0.0,0.0,FENCE_STATUS,GPS 1: detected MAV,STABILIZE,0,0,0,0
2026-07-07T02:28:49.192486+00:00,0.3003811836242676,E19_mode_command,BRAKE_warmup,0,37.5665,126.978,20.0,0.0,,,,,,,3,12,37.5665,126.978,20.0,,,,0.0,0.0,HEARTBEAT,GPS 1: detected MAV,STABILIZE,0,0,0,0
2026-07-07T02:28:49.192632+00:00,0.3005080223083496,E19_mode_command,BRAKE_warmup,0,37.5665,126.978,20.0,0.0,37.5665,126.978,20.0,0.0,0.0,0,3,12,37.5665,126.978,20.0,0.0,0.0,-0.02,0.0,0.0,GLOBAL_POSITION_INT,GPS 1: detected MAV,STABILIZE,0,0,0,0
2026-07-07T02:28:49.192798+00:00,0.3006768226623535,E19_mode_command,BRAKE_warmup,0,37.5665,126.978,20.0,0.0,,,,,,,3,12,37.5665,126.978,20.0,,,,0.0,0.0,MISSION_CURRENT,GPS 1: detected MAV,STABILIZE,0,0,0,0
2026-07-07T02:28:49.193077+00:00,0.30095458030700684,E19_mode_command,BRAKE_warmup,0,37.5665,126.978,20.0,0.0,,,,,,,3,12,37.5665,126.978,20.0,,,,0.0,0.0,GPS_RAW_INT,GPS 1: detected MAV,STABILIZE,0,0,0,0
2026-07-07T02:28:49.193124+00:00,0.3009955883026123,E19_mode_command,BRAKE_warmup,0,37.5665,126.978,20.0,0.0,,,,,,,3,12,37.5665,126.978,20.0,,,,0.0,0.0,FENCE_STATUS,GPS 1: detected MAV,STABILIZE,0,0,0,0
2026-07-07T02:28:49.390886+00:00,0.4987788200378418,E19_mode_command,BRAKE_warmup,0,37.5665,126.978,20.0,0.0,,,,,,,3,12,37.5665,126.978,20.0,,,,0.0,0.0,HEARTBEAT,GPS 1: detected MAV,STABILIZE,0,0,0,0
2026-07-07T02:28:49.391012+00:00,0.4988877773284912,E19_mode_command,BRAKE_warmup,0,37.5665,126.978,20.0,0.0,37.5665,126.978,20.0,0.0,0.0,0,3,12,37.5665,126.978,20.0,0.0,0.0,-0.02,0.0,0.0,GLOBAL_POSITION_INT,GPS 1: detected MAV,STABILIZE,0,0,0,0
2026-07-07T02:28:49.391205+00:00,0.4990830421447754,E19_mode_command,BRAKE_warmup,0,37.5665,126.978,20.0,0.0,,,,,,,3,12,37.5665,126.978,20.0,,,,0.0,0.0,MISSION_CURRENT,GPS 1: detected MAV,STABILIZE,0,0,0,0
2026-07-07T02:28:49.391465+00:00,0.4993417263031006,E19_mode_command,BRAKE_warmup,0,37.5665,126.978,20.0,0.0,,,,,,,3,12,37.5665,126.978,20.0,,,,0.0,0.0,GPS_RAW_INT,GPS 1: detected MAV,STABILIZE,0,0,0,0
2026-07-07T02:28:49.391590+00:00,0.4994657039642334,E19_mode_command,BRAKE_warmup,0,37.5665,126.978,20.0,0.0,,,,,,,3,12,37.5665,126.978,20.0,,,,0.0,0.0,FENCE_STATUS,GPS 1: detected MAV,STABILIZE,0,0,0,0
2026-07-07T02:28:49.589316+00:00,0.6972110271453857,E19_mode_command,BRAKE_warmup,0,37.5665,126.978,20.0,0.0,,,,,,,3,12,37.5665,126.978,20.0,,,,0.0,0.0,HEARTBEAT,GPS 1: detected MAV,STABILIZE,0,0,0,0
2026-07-07T02:28:49.589466+00:00,0.6973419189453125,E19_mode_command,BRAKE_warmup,0,37.5665,126.978,20.0,0.0,37.5665,126.978,20.0,0.0,0.0,0,3,12,37.5665,126.978,20.0,0.0,0.0,-0.03,0.0,0.0,GLOBAL_POSITION_INT,GPS 1: detected MAV,STABILIZE,0,0,0,0
2026-07-07T02:28:49.589581+00:00,0.6974527835845947,E19_mode_command,BRAKE_warmup,0,37.5665,126.978,20.0,0.0,,,,,,,3,12,37.5665,126.978,20.0,,,,0.0,0.0,MISSION_CURRENT,GPS 1: detected MAV,STABILIZE,0,0,0,0
2026-07-07T02:28:49.589775+00:00,0.697648286819458,E19_mode_command,BRAKE_warmup,0,37.5665,126.978,20.0,0.0,,,,,,,3,12,37.5665,126.978,20.0,,,,0.0,0.0,GPS_RAW_INT,GPS 1: detected MAV,STABILIZE,0,0,0,0
2026-07-07T02:28:49.589815+00:00,0.6976861953735352,E19_mode_command,BRAKE_warmup,0,37.5665,126.978,20.0,0.0,,,,,,,3,12,37.5665,126.978,20.0,,,,0.0,0.0,FENCE_STATUS,GPS 1: detected MAV,STABILIZE,0,0,0,0
2026-07-07T02:28:49.793115+00:00,0.9010109901428223,E19_mode_command,BRAKE_warmup,0,37.5665,126.978,20.0,0.0,,,,,,,3,12,37.5665,126.978,20.0,,,,0.0,0.0,HEARTBEAT,GPS 1: detected MAV,STABILIZE,0,0,0,0
2026-07-07T02:28:49.793308+00:00,0.9011898040771484,E19_mode_command,BRAKE_warmup,0,37.5665,126.978,20.0,0.0,37.5665,126.978,20.0,0.0,0.0,0,3,12,37.5665,126.978,20.0,0.0,0.0,-0.03,0.0,0.0,GLOBAL_POSITION_INT,GPS 1: detected MAV,STABILIZE,0,0,0,0
2026-07-07T02:28:49.793439+00:00,0.9013149738311768,E19_mode_command,BRAKE_warmup,0,37.5665,126.978,20.0,0.0,,,,,,,3,12,37.5665,126.978,20.0,,,,0.0,0.0,MISSION_CURRENT,GPS 1: detected MAV,STABILIZE,0,0,0,0
2026-07-07T02:28:49.793653+00:00,0.9015283584594727,E19_mode_command,BRAKE_warmup,0,37.5665,126.978,20.0,0.0,,,,,,,3,12,37.5665,126.978,20.0,,,,0.0,0.0,GPS_RAW_INT,GPS 1: detected MAV,STABILIZE,0,0,0,0
2026-07-07T02:28:49.793694+00:00,0.9015657901763916,E19_mode_command,BRAKE_warmup,0,37.5665,126.978,20.0,0.0,,,,,,,3,12,37.5665,126.978,20.0,,,,0.0,0.0,FENCE_STATUS,GPS 1: detected MAV,STABILIZE,0,0,0,0
2026-07-07T02:28:49.991622+00:00,1.099515438079834,E19_mode_command,BRAKE_warmup,0,37.5665,126.978,20.0,0.0,,,,,,,3,12,37.5665,126.978,20.0,,,,0.0,0.0,HEARTBEAT,GPS 1: detected MAV,STABILIZE,0,0,0,0
2026-07-07T02:28:49.991770+00:00,1.0996429920196533,E19_mode_command,BRAKE_warmup,0,37.5665,126.978,20.0,0.0,37.5665,126.978,20.0,0.0,0.0,0,3,12,37.5665,126.978,20.0,0.0,0.0,-0.03,0.0,0.0,GLOBAL_POSITION_INT,GPS 1: detected MAV,STABILIZE,0,0,0,0
2026-07-07T02:28:49.991882+00:00,1.0997536182403564,E19_mode_command,BRAKE_warmup,0,37.5665,126.978,20.0,0.0,,,,,,,3,12,37.5665,126.978,20.0,,,,0.0,0.0,MISSION_CURRENT,GPS 1: detected MAV,STABILIZE,0,0,0,0
2026-07-07T02:28:49.992069+00:00,1.0999412536621094,E19_mode_command,BRAKE_warmup,0,37.5665,126.978,20.0,0.0,,,,,,,3,12,37.5665,126.978,20.0,,,,0.0,0.0,GPS_RAW_INT,GPS 1: detected MAV,STABILIZE,0,0,0,0
2026-07-07T02:28:49.992105+00:00,1.099975824356079,E19_mode_command,BRAKE_warmup,0,37.5665,126.978,20.0,0.0,,,,,,,3,12,37.5665,126.978,20.0,,,,0.0,0.0,FENCE_STATUS,GPS 1: detected MAV,STABILIZE,0,0,0,0
2026-07-07T02:28:50.189902+00:00,1.2977988719940186,E19_mode_command,BRAKE_warmup,0,37.5665,126.978,20.0,0.0,,,,,,,3,12,37.5665,126.978,20.0,,,,0.0,0.0,HEARTBEAT,GPS 1: detected MAV,STABILIZE,0,0,0,0
2026-07-07T02:28:50.190062+00:00,1.2979378700256348,E19_mode_command,BRAKE_warmup,0,37.5665,126.978,20.0,0.0,37.5665,126.978,20.0,0.0,0.0,0,3,12,37.5665,126.978,20.0,0.0,0.0,-0.03,0.0,0.0,GLOBAL_POSITION_INT,GPS 1: detected MAV,STABILIZE,0,0,0,0
2026-07-07T02:28:50.190185+00:00,1.2980573177337646,E19_mode_command,BRAKE_warmup,0,37.5665,126.978,20.0,0.0,,,,,,,3,12,37.5665,126.978,20.0,,,,0.0,0.0,MISSION_CURRENT,GPS 1: detected MAV,STABILIZE,0,0,0,0
2026-07-07T02:28:50.190450+00:00,1.2983312606811523,E19_mode_command,BRAKE_warmup,0,37.5665,126.978,20.0,0.0,,,,,,,3,12,37.5665,126.978,20.0,,,,0.0,0.0,GPS_RAW_INT,GPS 1: detected MAV,STABILIZE,0,0,0,0
2026-07-07T02:28:50.190503+00:00,1.2983744144439697,E19_mode_command,BRAKE_warmup,0,37.5665,126.978,20.0,0.0,,,,,,,3,12,37.5665,126.978,20.0,,,,0.0,0.0,FENCE_STATUS,GPS 1: detected MAV,STABILIZE,0,0,0,0
2026-07-07T02:28:50.394277+00:00,1.5022087097167969,E19_mode_command,BRAKE_warmup,0,37.5665,126.978,20.0,0.0,,,,,,,3,12,37.5665,126.978,20.0,,,,0.0,0.0,HEARTBEAT,GPS 1: detected MAV,STABILIZE,0,0,0,0
2026-07-07T02:28:50.394488+00:00,1.502366304397583,E19_mode_command,BRAKE_warmup,0,37.5665,126.978,20.0,0.0,37.5665,126.978,20.0,0.0,0.0,0,3,12,37.5665,126.978,20.0,0.0,0.0,-0.04,0.0,0.0,GLOBAL_POSITION_INT,GPS 1: detected MAV,STABILIZE,0,0,0,0
2026-07-07T02:28:50.394638+00:00,1.5025155544281006,E19_mode_command,BRAKE_warmup,0,37.5665,126.978,20.0,0.0,,,,,,,3,12,37.5665,126.978,20.0,,,,0.0,0.0,MISSION_CURRENT,GPS 1: detected MAV,STABILIZE,0,0,0,0
2026-07-07T02:28:50.394882+00:00,1.5027599334716797,E19_mode_command,BRAKE_warmup,0,37.5665,126.978,20.0,0.0,,,,,,,3,12,37.5665,126.978,20.0,,,,0.0,0.0,GPS_RAW_INT,GPS 1: detected MAV,STABILIZE,0,0,0,0
2026-07-07T02:28:50.394930+00:00,1.5028016567230225,E19_mode_command,BRAKE_warmup,0,37.5665,126.978,20.0,0.0,,,,,,,3,12,37.5665,126.978,20.0,,,,0.0,0.0,FENCE_STATUS,GPS 1: detected MAV,STABILIZE,0,0,0,0
2026-07-07T02:28:50.592322+00:00,1.700216293334961,E19_mode_command,BRAKE_warmup,0,37.5665,126.978,20.0,0.0,,,,,,,3,12,37.5665,126.978,20.0,,,,0.0,0.0,HEARTBEAT,GPS 1: detected MAV,STABILIZE,0,0,0,0
2026-07-07T02:28:50.592458+00:00,1.700331449508667,E19_mode_command,BRAKE_warmup,0,37.5665,126.978,20.0,0.0,37.5665,126.978,20.0,0.0,0.0,0,3,12,37.5665,126.978,20.0,0.0,0.0,-0.04,0.0,0.0,GLOBAL_POSITION_INT,GPS 1: detected MAV,STABILIZE,0,0,0,0
2026-07-07T02:28:50.592560+00:00,1.7004318237304688,E19_mode_command,BRAKE_warmup,0,37.5665,126.978,20.0,0.0,,,,,,,3,12,37.5665,126.978,20.0,,,,0.0,0.0,MISSION_CURRENT,GPS 1: detected MAV,STABILIZE,0,0,0,0
2026-07-07T02:28:50.592745+00:00,1.7006185054779053,E19_mode_command,BRAKE_warmup,0,37.5665,126.978,20.0,0.0,,,,,,,3,12,37.5665,126.978,20.0,,,,0.0,0.0,GPS_RAW_INT,GPS 1: detected MAV,STABILIZE,0,0,0,0
2026-07-07T02:28:50.592808+00:00,1.7006824016571045,E19_mode_command,BRAKE_warmup,0,37.5665,126.978,20.0,0.0,,,,,,,3,12,37.5665,126.978,20.0,,,,0.0,0.0,FENCE_STATUS,GPS 1: detected MAV,STABILIZE,0,0,0,0
