timestamp,elapsed_s,experiment,phase,sample_index,target_lat,target_lon,target_alt,target_drift_m,obs_lat,obs_lon,obs_alt,official_drift_m,target_error_m,reflected,gps_fix_type,gps_satellites,gps_raw_lat,gps_raw_lon,gps_raw_alt,vn,ve,vd,commanded_speed_mps,commanded_accel_mps2,message_type,status_text,mode,mission_seq,fence_breach_status,fence_breach_count,fence_breach_type
2026-07-07T02:51:38.677042+00:00,0.011451482772827148,E20_mission_edit,warmup,0,37.5665,126.978,20.0,0.0,,,,,,,,,,,,,,,0.0,0.0,STATUSTEXT,GPS 1: detected MAV,,,,,
2026-07-07T02:51:38.846264+00:00,0.18067526817321777,E20_mission_edit,warmup,0,37.5665,126.978,20.0,0.0,,,,,,,,,,,,,,,0.0,0.0,HEARTBEAT,GPS 1: detected MAV,STABILIZE,,,,
2026-07-07T02:51:38.846371+00:00,0.18076300621032715,E20_mission_edit,warmup,0,37.5665,126.978,20.0,0.0,37.5665,126.978,20.0,0.0,0.0,0,,,,,,0.0,0.0,-0.02,0.0,0.0,GLOBAL_POSITION_INT,GPS 1: detected MAV,STABILIZE,,,,
2026-07-07T02:51:38.846453+00:00,0.18084478378295898,E20_mission_edit,warmup,0,37.5665,126.978,20.0,0.0,,,,,,,,,,,,,,,0.0,0.0,MISSION_CURRENT,GPS 1: detected MAV,STABILIZE,0,,,
2026-07-07T02:51:38.846591+00:00,0.18098211288452148,E20_mission_edit,warmup,0,37.5665,126.978,20.0,0.0,,,,,,,3,12,37.5665,126.978,20.0,,,,0.0,0.0,GPS_RAW_INT,GPS 1: detected MAV,STABILIZE,0,,,
2026-07-07T02:51:38.846616+00:00,0.18100738525390625,E20_mission_edit,warmup,0,37.5665,126.978,20.0,0.0,,,,,,,3,12,37.5665,126.978,20.0,,,,0.0,0.0,FENCE_STATUS,GPS 1: detected MAV,STABILIZE,0,0,0,0
2026-07-07T02:51:39.044526+00:00,0.378939151763916,E20_mission_edit,warmup,0,37.5665,126.978,20.0,0.0,,,,,,,3,12,37.5665,126.978,20.0,,,,0.0,0.0,HEARTBEAT,GPS 1: detected MAV,STABILIZE,0,0,0,0
2026-07-07T02:51:39.044662+00:00,0.3790574073791504,E20_mission_edit,warmup,0,37.5665,126.978,20.0,0.0,37.5665,126.978,20.0,0.0,0.0,0,3,12,37.5665,126.978,20.0,0.0,0.0,-0.02,0.0,0.0,GLOBAL_POSITION_INT,GPS 1: detected MAV,STABILIZE,0,0,0,0
2026-07-07T02:51:39.044781+00:00,0.37917447090148926,E20_mission_edit,warmup,0,37.5665,126.978,20.0,0.0,,,,,,,3,12,37.5665,126.978,20.0,,,,0.0,0.0,MISSION_CURRENT,GPS 1: detected MAV,STABILIZE,0,0,0,0
2026-07-07T02:51:39.044965+00:00,0.37935924530029297,E20_mission_edit,warmup,0,37.5665,126.978,20.0,0.0,,,,,,,3,12,37.5665,126.978,20.0,,,,0.0,0.0,GPS_RAW_INT,GPS 1: detected MAV,STABILIZE,0,0,0,0
2026-07-07T02:51:39.045002+00:00,0.3793938159942627,E20_mission_edit,warmup,0,37.5665,126.978,20.0,0.0,,,,,,,3,12,37.5665,126.978,20.0,,,,0.0,0.0,FENCE_STATUS,GPS 1: detected MAV,STABILIZE,0,0,0,0
2026-07-07T02:51:39.242915+00:00,0.5773305892944336,E20_mission_edit,warmup,0,37.5665,126.978,20.0,0.0,,,,,,,3,12,37.5665,126.978,20.0,,,,0.0,0.0,HEARTBEAT,GPS 1: detected MAV,STABILIZE,0,0,0,0
2026-07-07T02:51:39.243154+00:00,0.5775511264801025,E20_mission_edit,warmup,0,37.5665,126.978,20.0,0.0,37.5665,126.978,20.0,0.0,0.0,0,3,12,37.5665,126.978,20.0,0.0,0.0,-0.03,0.0,0.0,GLOBAL_POSITION_INT,GPS 1: detected MAV,STABILIZE,0,0,0,0
2026-07-07T02:51:39.243274+00:00,0.5776667594909668,E20_mission_edit,warmup,0,37.5665,126.978,20.0,0.0,,,,,,,3,12,37.5665,126.978,20.0,,,,0.0,0.0,MISSION_CURRENT,GPS 1: detected MAV,STABILIZE,0,0,0,0
2026-07-07T02:51:39.243464+00:00,0.5778570175170898,E20_mission_edit,warmup,0,37.5665,126.978,20.0,0.0,,,,,,,3,12,37.5665,126.978,20.0,,,,0.0,0.0,GPS_RAW_INT,GPS 1: detected MAV,STABILIZE,0,0,0,0
2026-07-07T02:51:39.243573+00:00,0.5779695510864258,E20_mission_edit,warmup,0,37.5665,126.978,20.0,0.0,,,,,,,3,12,37.5665,126.978,20.0,,,,0.0,0.0,FENCE_STATUS,GPS 1: detected MAV,STABILIZE,0,0,0,0
2026-07-07T02:51:39.446744+00:00,0.7811543941497803,E20_mission_edit,warmup,0,37.5665,126.978,20.0,0.0,,,,,,,3,12,37.5665,126.978,20.0,,,,0.0,0.0,HEARTBEAT,GPS 1: detected MAV,STABILIZE,0,0,0,0
2026-07-07T02:51:39.446851+00:00,0.7812433242797852,E20_mission_edit,warmup,0,37.5665,126.978,20.0,0.0,37.5665,126.978,20.0,0.0,0.0,0,3,12,37.5665,126.978,20.0,0.0,0.0,-0.03,0.0,0.0,GLOBAL_POSITION_INT,GPS 1: detected MAV,STABILIZE,0,0,0,0
2026-07-07T02:51:39.446934+00:00,0.781325101852417,E20_mission_edit,warmup,0,37.5665,126.978,20.0,0.0,,,,,,,3,12,37.5665,126.978,20.0,,,,0.0,0.0,MISSION_CURRENT,GPS 1: detected MAV,STABILIZE,0,0,0,0
2026-07-07T02:51:39.447075+00:00,0.7814667224884033,E20_mission_edit,warmup,0,37.5665,126.978,20.0,0.0,,,,,,,3,12,37.5665,126.978,20.0,,,,0.0,0.0,GPS_RAW_INT,GPS 1: detected MAV,STABILIZE,0,0,0,0
2026-07-07T02:51:39.447102+00:00,0.7814929485321045,E20_mission_edit,warmup,0,37.5665,126.978,20.0,0.0,,,,,,,3,12,37.5665,126.978,20.0,,,,0.0,0.0,FENCE_STATUS,GPS 1: detected MAV,STABILIZE,0,0,0,0
2026-07-07T02:51:39.645094+00:00,0.9795050621032715,E20_mission_edit,warmup,0,37.5665,126.978,20.0,0.0,,,,,,,3,12,37.5665,126.978,20.0,,,,0.0,0.0,HEARTBEAT,GPS 1: detected MAV,STABILIZE,0,0,0,0
2026-07-07T02:51:39.645201+00:00,0.9795932769775391,E20_mission_edit,warmup,0,37.5665,126.978,20.0,0.0,37.5665,126.978,20.0,0.0,0.0,0,3,12,37.5665,126.978,20.0,0.0,0.0,-0.03,0.0,0.0,GLOBAL_POSITION_INT,GPS 1: detected MAV,STABILIZE,0,0,0,0
2026-07-07T02:51:39.645283+00:00,0.9796750545501709,E20_mission_edit,warmup,0,37.5665,126.978,20.0,0.0,,,,,,,3,12,37.5665,126.978,20.0,,,,0.0,0.0,MISSION_CURRENT,GPS 1: detected MAV,STABILIZE,0,0,0,0
2026-07-07T02:51:39.645419+00:00,0.9798109531402588,E20_mission_edit,warmup,0,37.5665,126.978,20.0,0.0,,,,,,,3,12,37.5665,126.978,20.0,,,,0.0,0.0,GPS_RAW_INT,GPS 1: detected MAV,STABILIZE,0,0,0,0
2026-07-07T02:51:39.645445+00:00,0.9798359870910645,E20_mission_edit,warmup,0,37.5665,126.978,20.0,0.0,,,,,,,3,12,37.5665,126.978,20.0,,,,0.0,0.0,FENCE_STATUS,GPS 1: detected MAV,STABILIZE,0,0,0,0
2026-07-07T02:51:39.843417+00:00,1.177830457687378,E20_mission_edit,warmup,0,37.5665,126.978,20.0,0.0,,,,,,,3,12,37.5665,126.978,20.0,,,,0.0,0.0,HEARTBEAT,GPS 1: detected MAV,STABILIZE,0,0,0,0
2026-07-07T02:51:39.843579+00:00,1.1779749393463135,E20_mission_edit,warmup,0,37.5665,126.978,20.0,0.0,37.5665,126.978,20.0,0.0,0.0,0,3,12,37.5665,126.978,20.0,0.0,0.0,-0.03,0.0,0.0,GLOBAL_POSITION_INT,GPS 1: detected MAV,STABILIZE,0,0,0,0
2026-07-07T02:51:39.843695+00:00,1.178088665008545,E20_mission_edit,warmup,0,37.5665,126.978,20.0,0.0,,,,,,,3,12,37.5665,126.978,20.0,,,,0.0,0.0,MISSION_CURRENT,GPS 1: detected MAV,STABILIZE,0,0,0,0
2026-07-07T02:51:39.843935+00:00,1.1783323287963867,E20_mission_edit,warmup,0,37.5665,126.978,20.0,0.0,,,,,,,3,12,37.5665,126.978,20.0,,,,0.0,0.0,GPS_RAW_INT,GPS 1: detected MAV,STABILIZE,0,0,0,0
2026-07-07T02:51:39.843978+00:00,1.178370714187622,E20_mission_edit,warmup,0,37.5665,126.978,20.0,0.0,,,,,,,3,12,37.5665,126.978,20.0,,,,0.0,0.0,FENCE_STATUS,GPS 1: detected MAV,STABILIZE,0,0,0,0
2026-07-07T02:51:40.047420+00:00,1.3818309307098389,E20_mission_edit,warmup,0,37.5665,126.978,20.0,0.0,,,,,,,3,12,37.5665,126.978,20.0,,,,0.0,0.0,HEARTBEAT,GPS 1: detected MAV,STABILIZE,0,0,0,0
2026-07-07T02:51:40.047687+00:00,1.3820888996124268,E20_mission_edit,warmup,0,37.5665,126.978,20.0,0.0,37.5665,126.978,20.0,0.0,0.0,0,3,12,37.5665,126.978,20.0,0.0,0.0,-0.04,0.0,0.0,GLOBAL_POSITION_INT,GPS 1: detected MAV,STABILIZE,0,0,0,0
2026-07-07T02:51:40.047796+00:00,1.382187843322754,E20_mission_edit,warmup,0,37.5665,126.978,20.0,0.0,,,,,,,3,12,37.5665,126.978,20.0,,,,0.0,0.0,MISSION_CURRENT,GPS 1: detected MAV,STABILIZE,0,0,0,0
2026-07-07T02:51:40.047992+00:00,1.3823893070220947,E20_mission_edit,warmup,0,37.5665,126.978,20.0,0.0,,,,,,,3,12,37.5665,126.978,20.0,,,,0.0,0.0,GPS_RAW_INT,GPS 1: detected MAV,STABILIZE,0,0,0,0
2026-07-07T02:51:40.048027+00:00,1.3824195861816406,E20_mission_edit,warmup,0,37.5665,126.978,20.0,0.0,,,,,,,3,12,37.5665,126.978,20.0,,,,0.0,0.0,FENCE_STATUS,GPS 1: detected MAV,STABILIZE,0,0,0,0
2026-07-07T02:51:40.245757+00:00,1.580174207687378,E20_mission_edit,warmup,0,37.5665,126.978,20.0,0.0,,,,,,,3,12,37.5665,126.978,20.0,,,,0.0,0.0,HEARTBEAT,GPS 1: detected MAV,STABILIZE,0,0,0,0
2026-07-07T02:51:40.245924+00:00,1.580317497253418,E20_mission_edit,warmup,0,37.5665,126.978,20.0,0.0,37.5665,126.978,20.0,0.0,0.0,0,3,12,37.5665,126.978,20.0,0.0,0.0,-0.04,0.0,0.0,GLOBAL_POSITION_INT,GPS 1: detected MAV,STABILIZE,0,0,0,0
2026-07-07T02:51:40.246060+00:00,1.5804522037506104,E20_mission_edit,warmup,0,37.5665,126.978,20.0,0.0,,,,,,,3,12,37.5665,126.978,20.0,,,,0.0,0.0,MISSION_CURRENT,GPS 1: detected MAV,STABILIZE,0,0,0,0
2026-07-07T02:51:40.246350+00:00,1.5807511806488037,E20_mission_edit,warmup,0,37.5665,126.978,20.0,0.0,,,,,,,3,12,37.5665,126.978,20.0,,,,0.0,0.0,GPS_RAW_INT,GPS 1: detected MAV,STABILIZE,0,0,0,0
2026-07-07T02:51:40.246399+00:00,1.5807907581329346,E20_mission_edit,warmup,0,37.5665,126.978,20.0,0.0,,,,,,,3,12,37.5665,126.978,20.0,,,,0.0,0.0,FENCE_STATUS,GPS 1: detected MAV,STABILIZE,0,0,0,0
2026-07-07T02:51:40.444023+00:00,1.778437614440918,E20_mission_edit,warmup,0,37.5665,126.978,20.0,0.0,,,,,,,3,12,37.5665,126.978,20.0,,,,0.0,0.0,HEARTBEAT,GPS 1: detected MAV,STABILIZE,0,0,0,0
2026-07-07T02:51:40.444171+00:00,1.7785673141479492,E20_mission_edit,warmup,0,37.5665,126.978,20.0,0.0,37.5665,126.978,20.0,0.0,0.0,0,3,12,37.5665,126.978,20.0,0.0,0.0,-0.04,0.0,0.0,GLOBAL_POSITION_INT,GPS 1: detected MAV,STABILIZE,0,0,0,0
2026-07-07T02:51:40.444291+00:00,1.7786846160888672,E20_mission_edit,warmup,0,37.5665,126.978,20.0,0.0,,,,,,,3,12,37.5665,126.978,20.0,,,,0.0,0.0,MISSION_CURRENT,GPS 1: detected MAV,STABILIZE,0,0,0,0
2026-07-07T02:51:40.444501+00:00,1.7788949012756348,E20_mission_edit,warmup,0,37.5665,126.978,20.0,0.0,,,,,,,3,12,37.5665,126.978,20.0,,,,0.0,0.0,GPS_RAW_INT,GPS 1: detected MAV,STABILIZE,0,0,0,0
2026-07-07T02:51:40.444543+00:00,1.7789349555969238,E20_mission_edit,warmup,0,37.5665,126.978,20.0,0.0,,,,,,,3,12,37.5665,126.978,20.0,,,,0.0,0.0,FENCE_STATUS,GPS 1: detected MAV,STABILIZE,0,0,0,0
2026-07-07T02:51:40.647987+00:00,1.982395887374878,E20_mission_edit,warmup,0,37.5665,126.978,20.0,0.0,,,,,,,3,12,37.5665,126.978,20.0,,,,0.0,0.0,HEARTBEAT,GPS 1: detected MAV,STABILIZE,0,0,0,0
2026-07-07T02:51:40.648092+00:00,1.9824841022491455,E20_mission_edit,warmup,0,37.5665,126.978,20.0,0.0,37.5665,126.978,20.0,0.0,0.0,0,3,12,37.5665,126.978,20.0,0.0,0.0,-0.04,0.0,0.0,GLOBAL_POSITION_INT,GPS 1: detected MAV,STABILIZE,0,0,0,0
2026-07-07T02:51:40.648173+00:00,1.9825644493103027,E20_mission_edit,warmup,0,37.5665,126.978,20.0,0.0,,,,,,,3,12,37.5665,126.978,20.0,,,,0.0,0.0,MISSION_CURRENT,GPS 1: detected MAV,STABILIZE,0,0,0,0
2026-07-07T02:51:40.648307+00:00,1.9826991558074951,E20_mission_edit,warmup,0,37.5665,126.978,20.0,0.0,,,,,,,3,12,37.5665,126.978,20.0,,,,0.0,0.0,GPS_RAW_INT,GPS 1: detected MAV,STABILIZE,0,0,0,0
2026-07-07T02:51:40.648332+00:00,1.9827232360839844,E20_mission_edit,warmup,0,37.5665,126.978,20.0,0.0,,,,,,,3,12,37.5665,126.978,20.0,,,,0.0,0.0,FENCE_STATUS,GPS 1: detected MAV,STABILIZE,0,0,0,0
2026-07-07T02:51:40.846335+00:00,2.1807477474212646,E20_mission_edit,warmup,0,37.5665,126.978,20.0,0.0,,,,,,,3,12,37.5665,126.978,20.0,,,,0.0,0.0,HEARTBEAT,GPS 1: detected MAV,STABILIZE,0,0,0,0
2026-07-07T02:51:40.846475+00:00,2.180870532989502,E20_mission_edit,warmup,0,37.5665,126.978,20.0,0.0,37.5665,126.978,20.0,0.0,0.0,0,3,12,37.5665,126.978,20.0,0.0,0.0,-0.04,0.0,0.0,GLOBAL_POSITION_INT,GPS 1: detected MAV,STABILIZE,0,0,0,0
2026-07-07T02:51:40.846721+00:00,2.181119203567505,E20_mission_edit,warmup,0,37.5665,126.978,20.0,0.0,,,,,,,3,12,37.5665,126.978,20.0,,,,0.0,0.0,MISSION_CURRENT,GPS 1: detected MAV,STABILIZE,0,0,0,0
2026-07-07T02:51:40.846918+00:00,2.1813113689422607,E20_mission_edit,warmup,0,37.5665,126.978,20.0,0.0,,,,,,,3,12,37.5665,126.978,20.0,,,,0.0,0.0,GPS_RAW_INT,GPS 1: detected MAV,STABILIZE,0,0,0,0
2026-07-07T02:51:40.846956+00:00,2.1813480854034424,E20_mission_edit,warmup,0,37.5665,126.978,20.0,0.0,,,,,,,3,12,37.5665,126.978,20.0,,,,0.0,0.0,FENCE_STATUS,GPS 1: detected MAV,STABILIZE,0,0,0,0
2026-07-07T02:51:52.044134+00:00,13.378546953201294,E20_mission_edit,mission_edit_observe,0,,,,,,,,,,,3,12,37.5665,126.978,20.0,,,,,,HEARTBEAT,GPS 1: detected MAV,AUTO,0,0,0,0
2026-07-07T02:51:52.044245+00:00,13.378637313842773,E20_mission_edit,mission_edit_observe,0,,,,,0.0,0.0,0.0,13173877.35106569,,,3,12,37.5665,126.978,20.0,0.0,0.0,0.0,,,GLOBAL_POSITION_INT,GPS 1: detected MAV,AUTO,0,0,0,0
2026-07-07T02:51:52.044332+00:00,13.378723382949829,E20_mission_edit,mission_edit_observe,0,,,,,,,,,,,3,12,37.5665,126.978,20.0,,,,,,MISSION_CURRENT,GPS 1: detected MAV,AUTO,0,0,0,0
2026-07-07T02:51:52.044473+00:00,13.378864765167236,E20_mission_edit,mission_edit_observe,0,,,,,,,,,,,1,0,0.0,0.0,0.0,,,,,,GPS_RAW_INT,GPS 1: detected MAV,AUTO,0,0,0,0
2026-07-07T02:51:52.044499+00:00,13.37889051437378,E20_mission_edit,mission_edit_observe,0,,,,,,,,,,,1,0,0.0,0.0,0.0,,,,,,FENCE_STATUS,GPS 1: detected MAV,AUTO,0,0,0,0
2026-07-07T02:51:52.242385+00:00,13.576798915863037,E20_mission_edit,mission_edit_observe,0,,,,,,,,,,,1,0,0.0,0.0,0.0,,,,,,HEARTBEAT,GPS 1: detected MAV,AUTO,0,0,0,0
2026-07-07T02:51:52.242501+00:00,13.576893091201782,E20_mission_edit,mission_edit_observe,0,,,,,0.0,0.0,0.0,13173877.35106569,,,1,0,0.0,0.0,0.0,0.0,0.0,0.0,,,GLOBAL_POSITION_INT,GPS 1: detected MAV,AUTO,0,0,0,0
2026-07-07T02:51:52.242586+00:00,13.576977729797363,E20_mission_edit,mission_edit_observe,0,,,,,,,,,,,1,0,0.0,0.0,0.0,,,,,,MISSION_CURRENT,GPS 1: detected MAV,AUTO,0,0,0,0
2026-07-07T02:51:52.242731+00:00,13.577123641967773,E20_mission_edit,mission_edit_observe,0,,,,,,,,,,,1,0,0.0,0.0,0.0,,,,,,GPS_RAW_INT,GPS 1: detected MAV,AUTO,0,0,0,0
2026-07-07T02:51:52.242759+00:00,13.577150583267212,E20_mission_edit,mission_edit_observe,0,,,,,,,,,,,1,0,0.0,0.0,0.0,,,,,,FENCE_STATUS,GPS 1: detected MAV,AUTO,0,0,0,0
2026-07-07T02:51:52.446398+00:00,13.780808687210083,E20_mission_edit,mission_edit_observe,0,,,,,,,,,,,1,0,0.0,0.0,0.0,,,,,,HEARTBEAT,GPS 1: detected MAV,AUTO,0,0,0,0
2026-07-07T02:51:52.446504+00:00,13.780896425247192,E20_mission_edit,mission_edit_observe,0,,,,,0.0,0.0,0.0,13173877.35106569,,,1,0,0.0,0.0,0.0,0.0,0.0,0.0,,,GLOBAL_POSITION_INT,GPS 1: detected MAV,AUTO,0,0,0,0
2026-07-07T02:51:52.446595+00:00,13.780987024307251,E20_mission_edit,mission_edit_observe,0,,,,,,,,,,,1,0,0.0,0.0,0.0,,,,,,MISSION_CURRENT,GPS 1: detected MAV,AUTO,0,0,0,0
2026-07-07T02:51:52.446736+00:00,13.781128883361816,E20_mission_edit,mission_edit_observe,0,,,,,,,,,,,1,0,0.0,0.0,0.0,,,,,,GPS_RAW_INT,GPS 1: detected MAV,AUTO,0,0,0,0
2026-07-07T02:51:52.446763+00:00,13.78115439414978,E20_mission_edit,mission_edit_observe,0,,,,,,,,,,,1,0,0.0,0.0,0.0,,,,,,FENCE_STATUS,GPS 1: detected MAV,AUTO,0,0,0,0
2026-07-07T02:51:52.644745+00:00,13.979159116744995,E20_mission_edit,mission_edit_observe,0,,,,,,,,,,,1,0,0.0,0.0,0.0,,,,,,HEARTBEAT,GPS 1: detected MAV,AUTO,0,0,0,0
2026-07-07T02:51:52.644876+00:00,13.97926926612854,E20_mission_edit,mission_edit_observe,0,,,,,0.0,0.0,0.0,13173877.35106569,,,1,0,0.0,0.0,0.0,0.0,0.0,0.0,,,GLOBAL_POSITION_INT,GPS 1: detected MAV,AUTO,0,0,0,0
2026-07-07T02:51:52.645027+00:00,13.979426622390747,E20_mission_edit,mission_edit_observe,0,,,,,,,,,,,1,0,0.0,0.0,0.0,,,,,,MISSION_CURRENT,GPS 1: detected MAV,AUTO,0,0,0,0
2026-07-07T02:51:52.645239+00:00,13.979633808135986,E20_mission_edit,mission_edit_observe,0,,,,,,,,,,,1,0,0.0,0.0,0.0,,,,,,GPS_RAW_INT,GPS 1: detected MAV,AUTO,0,0,0,0
2026-07-07T02:51:52.645277+00:00,13.979669094085693,E20_mission_edit,mission_edit_observe,0,,,,,,,,,,,1,0,0.0,0.0,0.0,,,,,,FENCE_STATUS,GPS 1: detected MAV,AUTO,0,0,0,0
2026-07-07T02:51:52.848768+00:00,14.183179378509521,E20_mission_edit,mission_edit_observe,0,,,,,,,,,,,1,0,0.0,0.0,0.0,,,,,,HEARTBEAT,GPS 1: detected MAV,AUTO,0,0,0,0
2026-07-07T02:51:52.848876+00:00,14.183268308639526,E20_mission_edit,mission_edit_observe,0,,,,,0.0,0.0,0.0,13173877.35106569,,,1,0,0.0,0.0,0.0,0.0,0.01,0.0,,,GLOBAL_POSITION_INT,GPS 1: detected MAV,AUTO,0,0,0,0
2026-07-07T02:51:52.848962+00:00,14.183353185653687,E20_mission_edit,mission_edit_observe,0,,,,,,,,,,,1,0,0.0,0.0,0.0,,,,,,MISSION_CURRENT,GPS 1: detected MAV,AUTO,0,0,0,0
2026-07-07T02:51:52.849102+00:00,14.183494329452515,E20_mission_edit,mission_edit_observe,0,,,,,,,,,,,1,0,0.0,0.0,0.0,,,,,,GPS_RAW_INT,GPS 1: detected MAV,AUTO,0,0,0,0
2026-07-07T02:51:52.849128+00:00,14.183520317077637,E20_mission_edit,mission_edit_observe,0,,,,,,,,,,,1,0,0.0,0.0,0.0,,,,,,FENCE_STATUS,GPS 1: detected MAV,AUTO,0,0,0,0
2026-07-07T02:51:53.047147+00:00,14.381560564041138,E20_mission_edit,mission_edit_observe,0,,,,,,,,,,,1,0,0.0,0.0,0.0,,,,,,HEARTBEAT,GPS 1: detected MAV,AUTO,0,0,0,0
2026-07-07T02:51:53.047286+00:00,14.381681680679321,E20_mission_edit,mission_edit_observe,0,,,,,0.0,0.0,0.0,13173877.35106569,,,1,0,0.0,0.0,0.0,-0.01,0.01,0.0,,,GLOBAL_POSITION_INT,GPS 1: detected MAV,AUTO,0,0,0,0
2026-07-07T02:51:53.047415+00:00,14.381809711456299,E20_mission_edit,mission_edit_observe,0,,,,,,,,,,,1,0,0.0,0.0,0.0,,,,,,MISSION_CURRENT,GPS 1: detected MAV,AUTO,0,0,0,0
2026-07-07T02:51:53.047698+00:00,14.382095575332642,E20_mission_edit,mission_edit_observe,0,,,,,,,,,,,1,0,0.0,0.0,0.0,,,,,,GPS_RAW_INT,GPS 1: detected MAV,AUTO,0,0,0,0
2026-07-07T02:51:53.047743+00:00,14.382136583328247,E20_mission_edit,mission_edit_observe,0,,,,,,,,,,,1,0,0.0,0.0,0.0,,,,,,FENCE_STATUS,GPS 1: detected MAV,AUTO,0,0,0,0
2026-07-07T02:51:53.245339+00:00,14.57975149154663,E20_mission_edit,mission_edit_observe,0,,,,,,,,,,,1,0,0.0,0.0,0.0,,,,,,HEARTBEAT,GPS 1: detected MAV,AUTO,0,0,0,0
2026-07-07T02:51:53.245450+00:00,14.579842805862427,E20_mission_edit,mission_edit_observe,0,,,,,0.0,0.0,0.0,13173877.35106569,,,1,0,0.0,0.0,0.0,-0.01,0.01,0.0,,,GLOBAL_POSITION_INT,GPS 1: detected MAV,AUTO,0,0,0,0
2026-07-07T02:51:53.245531+00:00,14.579923152923584,E20_mission_edit,mission_edit_observe,0,,,,,,,,,,,1,0,0.0,0.0,0.0,,,,,,MISSION_CURRENT,GPS 1: detected MAV,AUTO,0,0,0,0
2026-07-07T02:51:53.245670+00:00,14.5800621509552,E20_mission_edit,mission_edit_observe,0,,,,,,,,,,,1,0,0.0,0.0,0.0,,,,,,GPS_RAW_INT,GPS 1: detected MAV,AUTO,0,0,0,0
2026-07-07T02:51:53.245695+00:00,14.58008623123169,E20_mission_edit,mission_edit_observe,0,,,,,,,,,,,1,0,0.0,0.0,0.0,,,,,,FENCE_STATUS,GPS 1: detected MAV,AUTO,0,0,0,0
2026-07-07T02:51:53.449294+00:00,14.783705472946167,E20_mission_edit,mission_edit_observe,0,,,,,,,,,,,1,0,0.0,0.0,0.0,,,,,,HEARTBEAT,GPS 1: detected MAV,AUTO,0,0,0,0
2026-07-07T02:51:53.449402+00:00,14.783793926239014,E20_mission_edit,mission_edit_observe,0,,,,,0.0,0.0,0.0,13173877.35106569,,,1,0,0.0,0.0,0.0,-0.01,0.01,0.0,,,GLOBAL_POSITION_INT,GPS 1: detected MAV,AUTO,0,0,0,0
2026-07-07T02:51:53.449548+00:00,14.783949136734009,E20_mission_edit,mission_edit_observe,0,,,,,,,,,,,1,0,0.0,0.0,0.0,,,,,,MISSION_CURRENT,GPS 1: detected MAV,AUTO,0,0,0,0
2026-07-07T02:51:53.449741+00:00,14.784135580062866,E20_mission_edit,mission_edit_observe,0,,,,,,,,,,,1,0,0.0,0.0,0.0,,,,,,GPS_RAW_INT,GPS 1: detected MAV,AUTO,0,0,0,0
2026-07-07T02:51:53.449787+00:00,14.784182786941528,E20_mission_edit,mission_edit_observe,0,,,,,,,,,,,1,0,0.0,0.0,0.0,,,,,,FENCE_STATUS,GPS 1: detected MAV,AUTO,0,0,0,0
2026-07-07T02:51:53.647726+00:00,14.982142925262451,E20_mission_edit,mission_edit_observe,0,,,,,,,,,,,1,0,0.0,0.0,0.0,,,,,,HEARTBEAT,GPS 1: detected MAV,AUTO,0,0,0,0
2026-07-07T02:51:53.647865+00:00,14.982261180877686,E20_mission_edit,mission_edit_observe,0,,,,,0.0,0.0,0.0,13173877.35106569,,,1,0,0.0,0.0,0.0,-0.01,0.01,0.0,,,GLOBAL_POSITION_INT,GPS 1: detected MAV,AUTO,0,0,0,0
2026-07-07T02:51:53.647962+00:00,14.982354402542114,E20_mission_edit,mission_edit_observe,0,,,,,,,,,,,1,0,0.0,0.0,0.0,,,,,,MISSION_CURRENT,GPS 1: detected MAV,AUTO,0,0,0,0
2026-07-07T02:51:53.648147+00:00,14.982539892196655,E20_mission_edit,mission_edit_observe,0,,,,,,,,,,,1,0,0.0,0.0,0.0,,,,,,GPS_RAW_INT,GPS 1: detected MAV,AUTO,0,0,0,0
2026-07-07T02:51:53.648183+00:00,14.982574939727783,E20_mission_edit,mission_edit_observe,0,,,,,,,,,,,1,0,0.0,0.0,0.0,,,,,,FENCE_STATUS,GPS 1: detected MAV,AUTO,0,0,0,0
2026-07-07T02:51:53.845986+00:00,15.180397510528564,E20_mission_edit,mission_edit_observe,0,,,,,,,,,,,1,0,0.0,0.0,0.0,,,,,,HEARTBEAT,GPS 1: detected MAV,AUTO,0,0,0,0
2026-07-07T02:51:53.846094+00:00,15.180485725402832,E20_mission_edit,mission_edit_observe,0,,,,,0.0,0.0,0.0,13173877.35106569,,,1,0,0.0,0.0,0.0,-0.01,0.01,0.0,,,GLOBAL_POSITION_INT,GPS 1: detected MAV,AUTO,0,0,0,0
2026-07-07T02:51:53.846177+00:00,15.18056869506836,E20_mission_edit,mission_edit_observe,0,,,,,,,,,,,1,0,0.0,0.0,0.0,,,,,,MISSION_CURRENT,GPS 1: detected MAV,AUTO,0,0,0,0
2026-07-07T02:51:53.846314+00:00,15.18070650100708,E20_mission_edit,mission_edit_observe,0,,,,,,,,,,,1,0,0.0,0.0,0.0,,,,,,GPS_RAW_INT,GPS 1: detected MAV,AUTO,0,0,0,0
2026-07-07T02:51:53.846341+00:00,15.180732488632202,E20_mission_edit,mission_edit_observe,0,,,,,,,,,,,1,0,0.0,0.0,0.0,,,,,,FENCE_STATUS,GPS 1: detected MAV,AUTO,0,0,0,0
2026-07-07T02:51:54.044196+00:00,15.378607749938965,E20_mission_edit,mission_edit_observe,0,,,,,,,,,,,1,0,0.0,0.0,0.0,,,,,,HEARTBEAT,GPS 1: detected MAV,AUTO,0,0,0,0
2026-07-07T02:51:54.044306+00:00,15.378697872161865,E20_mission_edit,mission_edit_observe,0,,,,,0.0,0.0,0.0,13173877.35106569,,,1,0,0.0,0.0,0.0,-0.01,0.01,0.0,,,GLOBAL_POSITION_INT,GPS 1: detected MAV,AUTO,0,0,0,0
2026-07-07T02:51:54.044388+00:00,15.378779411315918,E20_mission_edit,mission_edit_observe,0,,,,,,,,,,,1,0,0.0,0.0,0.0,,,,,,MISSION_CURRENT,GPS 1: detected MAV,AUTO,0,0,0,0
2026-07-07T02:51:54.044528+00:00,15.37891960144043,E20_mission_edit,mission_edit_observe,0,,,,,,,,,,,1,0,0.0,0.0,0.0,,,,,,GPS_RAW_INT,GPS 1: detected MAV,AUTO,0,0,0,0
2026-07-07T02:51:54.044552+00:00,15.37894344329834,E20_mission_edit,mission_edit_observe,0,,,,,,,,,,,1,0,0.0,0.0,0.0,,,,,,FENCE_STATUS,GPS 1: detected MAV,AUTO,0,0,0,0
2026-07-07T02:51:54.242547+00:00,15.57696008682251,E20_mission_edit,mission_edit_observe,0,,,,,,,,,,,1,0,0.0,0.0,0.0,,,,,,HEARTBEAT,GPS 1: detected MAV,AUTO,0,0,0,0
2026-07-07T02:51:54.242664+00:00,15.577056169509888,E20_mission_edit,mission_edit_observe,0,,,,,0.0,0.0,0.0,13173877.35106569,,,1,0,0.0,0.0,0.0,-0.01,0.01,0.0,,,GLOBAL_POSITION_INT,GPS 1: detected MAV,AUTO,0,0,0,0
2026-07-07T02:51:54.242747+00:00,15.577138900756836,E20_mission_edit,mission_edit_observe,0,,,,,,,,,,,1,0,0.0,0.0,0.0,,,,,,MISSION_CURRENT,GPS 1: detected MAV,AUTO,0,0,0,0
2026-07-07T02:51:54.242931+00:00,15.577330589294434,E20_mission_edit,mission_edit_observe,0,,,,,,,,,,,1,0,0.0,0.0,0.0,,,,,,GPS_RAW_INT,GPS 1: detected MAV,AUTO,0,0,0,0
2026-07-07T02:51:54.242998+00:00,15.577393770217896,E20_mission_edit,mission_edit_observe,0,,,,,,,,,,,1,0,0.0,0.0,0.0,,,,,,FENCE_STATUS,GPS 1: detected MAV,AUTO,0,0,0,0
2026-07-07T02:51:54.446526+00:00,15.78093695640564,E20_mission_edit,mission_edit_observe,0,,,,,,,,,,,1,0,0.0,0.0,0.0,,,,,,HEARTBEAT,GPS 1: detected MAV,AUTO,0,0,0,0
2026-07-07T02:51:54.446630+00:00,15.781022310256958,E20_mission_edit,mission_edit_observe,0,,,,,0.0,0.0,0.0,13173877.35106569,,,1,0,0.0,0.0,0.0,-0.01,0.01,0.0,,,GLOBAL_POSITION_INT,GPS 1: detected MAV,AUTO,0,0,0,0
2026-07-07T02:51:54.446713+00:00,15.781104803085327,E20_mission_edit,mission_edit_observe,0,,,,,,,,,,,1,0,0.0,0.0,0.0,,,,,,MISSION_CURRENT,GPS 1: detected MAV,AUTO,0,0,0,0
2026-07-07T02:51:54.446851+00:00,15.781242609024048,E20_mission_edit,mission_edit_observe,0,,,,,,,,,,,1,0,0.0,0.0,0.0,,,,,,GPS_RAW_INT,GPS 1: detected MAV,AUTO,0,0,0,0
2026-07-07T02:51:54.446877+00:00,15.781267881393433,E20_mission_edit,mission_edit_observe,0,,,,,,,,,,,1,0,0.0,0.0,0.0,,,,,,FENCE_STATUS,GPS 1: detected MAV,AUTO,0,0,0,0
2026-07-07T02:51:54.644943+00:00,15.979356288909912,E20_mission_edit,mission_edit_observe,0,,,,,,,,,,,1,0,0.0,0.0,0.0,,,,,,HEARTBEAT,GPS 1: detected MAV,AUTO,0,0,0,0
2026-07-07T02:51:54.645054+00:00,15.979445934295654,E20_mission_edit,mission_edit_observe,0,,,,,0.0,0.0,0.0,13173877.35106569,,,1,0,0.0,0.0,0.0,-0.01,0.01,0.0,,,GLOBAL_POSITION_INT,GPS 1: detected MAV,AUTO,0,0,0,0
2026-07-07T02:51:54.645137+00:00,15.97952914237976,E20_mission_edit,mission_edit_observe,0,,,,,,,,,,,1,0,0.0,0.0,0.0,,,,,,MISSION_CURRENT,GPS 1: detected MAV,AUTO,0,0,0,0
2026-07-07T02:51:54.645277+00:00,15.979669094085693,E20_mission_edit,mission_edit_observe,0,,,,,,,,,,,1,0,0.0,0.0,0.0,,,,,,GPS_RAW_INT,GPS 1: detected MAV,AUTO,0,0,0,0
2026-07-07T02:51:54.645303+00:00,15.979694128036499,E20_mission_edit,mission_edit_observe,0,,,,,,,,,,,1,0,0.0,0.0,0.0,,,,,,FENCE_STATUS,GPS 1: detected MAV,AUTO,0,0,0,0
2026-07-07T02:51:54.848945+00:00,16.183356285095215,E20_mission_edit,mission_edit_observe,0,,,,,,,,,,,1,0,0.0,0.0,0.0,,,,,,HEARTBEAT,GPS 1: detected MAV,AUTO,0,0,0,0
2026-07-07T02:51:54.849056+00:00,16.183449029922485,E20_mission_edit,mission_edit_observe,0,,,,,0.0,0.0,0.0,13173877.35106569,,,1,0,0.0,0.0,0.0,-0.01,0.01,0.0,,,GLOBAL_POSITION_INT,GPS 1: detected MAV,AUTO,0,0,0,0
2026-07-07T02:51:54.849141+00:00,16.18353271484375,E20_mission_edit,mission_edit_observe,0,,,,,,,,,,,1,0,0.0,0.0,0.0,,,,,,MISSION_CURRENT,GPS 1: detected MAV,AUTO,0,0,0,0
2026-07-07T02:51:54.849283+00:00,16.183675289154053,E20_mission_edit,mission_edit_observe,0,,,,,,,,,,,1,0,0.0,0.0,0.0,,,,,,GPS_RAW_INT,GPS 1: detected MAV,AUTO,0,0,0,0
2026-07-07T02:51:54.849309+00:00,16.183700561523438,E20_mission_edit,mission_edit_observe,0,,,,,,,,,,,1,0,0.0,0.0,0.0,,,,,,FENCE_STATUS,GPS 1: detected MAV,AUTO,0,0,0,0
2026-07-07T02:51:55.047243+00:00,16.38165307044983,E20_mission_edit,mission_edit_observe,0,,,,,,,,,,,1,0,0.0,0.0,0.0,,,,,,HEARTBEAT,GPS 1: detected MAV,AUTO,0,0,0,0
2026-07-07T02:51:55.047350+00:00,16.381742238998413,E20_mission_edit,mission_edit_observe,0,,,,,0.0,0.0,0.0,13173877.35106569,,,1,0,0.0,0.0,0.0,-0.01,0.01,0.0,,,GLOBAL_POSITION_INT,GPS 1: detected MAV,AUTO,0,0,0,0
2026-07-07T02:51:55.047436+00:00,16.38182759284973,E20_mission_edit,mission_edit_observe,0,,,,,,,,,,,1,0,0.0,0.0,0.0,,,,,,MISSION_CURRENT,GPS 1: detected MAV,AUTO,0,0,0,0
2026-07-07T02:51:55.047649+00:00,16.38204550743103,E20_mission_edit,mission_edit_observe,0,,,,,,,,,,,1,0,0.0,0.0,0.0,,,,,,GPS_RAW_INT,GPS 1: detected MAV,AUTO,0,0,0,0
2026-07-07T02:51:55.047684+00:00,16.382075548171997,E20_mission_edit,mission_edit_observe,0,,,,,,,,,,,1,0,0.0,0.0,0.0,,,,,,FENCE_STATUS,GPS 1: detected MAV,AUTO,0,0,0,0
2026-07-07T02:51:55.245518+00:00,16.579930305480957,E20_mission_edit,mission_edit_observe,0,,,,,,,,,,,1,0,0.0,0.0,0.0,,,,,,HEARTBEAT,GPS 1: detected MAV,AUTO,0,0,0,0
2026-07-07T02:51:55.245627+00:00,16.58001971244812,E20_mission_edit,mission_edit_observe,0,,,,,0.0,0.0,0.0,13173877.35106569,,,1,0,0.0,0.0,0.0,-0.01,0.01,0.0,,,GLOBAL_POSITION_INT,GPS 1: detected MAV,AUTO,0,0,0,0
2026-07-07T02:51:55.245714+00:00,16.58010506629944,E20_mission_edit,mission_edit_observe,0,,,,,,,,,,,1,0,0.0,0.0,0.0,,,,,,MISSION_CURRENT,GPS 1: detected MAV,AUTO,0,0,0,0
2026-07-07T02:51:55.245858+00:00,16.58025026321411,E20_mission_edit,mission_edit_observe,0,,,,,,,,,,,1,0,0.0,0.0,0.0,,,,,,GPS_RAW_INT,GPS 1: detected MAV,AUTO,0,0,0,0
2026-07-07T02:51:55.245886+00:00,16.58027744293213,E20_mission_edit,mission_edit_observe,0,,,,,,,,,,,1,0,0.0,0.0,0.0,,,,,,FENCE_STATUS,GPS 1: detected MAV,AUTO,0,0,0,0
2026-07-07T02:51:55.449492+00:00,16.78390407562256,E20_mission_edit,mission_edit_observe,0,,,,,,,,,,,1,0,0.0,0.0,0.0,,,,,,HEARTBEAT,GPS 1: detected MAV,AUTO,0,0,0,0
2026-07-07T02:51:55.449598+00:00,16.783990144729614,E20_mission_edit,mission_edit_observe,0,,,,,0.0,0.0,0.0,13173877.35106569,,,1,0,0.0,0.0,0.0,-0.01,0.01,0.0,,,GLOBAL_POSITION_INT,GPS 1: detected MAV,AUTO,0,0,0,0
2026-07-07T02:51:55.449682+00:00,16.78407382965088,E20_mission_edit,mission_edit_observe,0,,,,,,,,,,,1,0,0.0,0.0,0.0,,,,,,MISSION_CURRENT,GPS 1: detected MAV,AUTO,0,0,0,0
2026-07-07T02:51:55.449821+00:00,16.784213066101074,E20_mission_edit,mission_edit_observe,0,,,,,,,,,,,1,0,0.0,0.0,0.0,,,,,,GPS_RAW_INT,GPS 1: detected MAV,AUTO,0,0,0,0
2026-07-07T02:51:55.449847+00:00,16.78423833847046,E20_mission_edit,mission_edit_observe,0,,,,,,,,,,,1,0,0.0,0.0,0.0,,,,,,FENCE_STATUS,GPS 1: detected MAV,AUTO,0,0,0,0
2026-07-07T02:51:55.647849+00:00,16.982261180877686,E20_mission_edit,mission_edit_observe,0,,,,,,,,,,,1,0,0.0,0.0,0.0,,,,,,HEARTBEAT,GPS 1: detected MAV,AUTO,0,0,0,0
2026-07-07T02:51:55.647988+00:00,16.982383728027344,E20_mission_edit,mission_edit_observe,0,,,,,0.0,0.0,0.0,13173877.35106569,,,1,0,0.0,0.0,0.0,-0.01,0.01,0.0,,,GLOBAL_POSITION_INT,GPS 1: detected MAV,AUTO,0,0,0,0
2026-07-07T02:51:55.648085+00:00,16.98247718811035,E20_mission_edit,mission_edit_observe,0,,,,,,,,,,,1,0,0.0,0.0,0.0,,,,,,MISSION_CURRENT,GPS 1: detected MAV,AUTO,0,0,0,0
2026-07-07T02:51:55.648267+00:00,16.98266339302063,E20_mission_edit,mission_edit_observe,0,,,,,,,,,,,1,0,0.0,0.0,0.0,,,,,,GPS_RAW_INT,GPS 1: detected MAV,AUTO,0,0,0,0
2026-07-07T02:51:55.648301+00:00,16.98269248008728,E20_mission_edit,mission_edit_observe,0,,,,,,,,,,,1,0,0.0,0.0,0.0,,,,,,FENCE_STATUS,GPS 1: detected MAV,AUTO,0,0,0,0
2026-07-07T02:51:55.846208+00:00,17.180620670318604,E20_mission_edit,mission_edit_observe,0,,,,,,,,,,,1,0,0.0,0.0,0.0,,,,,,HEARTBEAT,GPS 1: detected MAV,AUTO,0,0,0,0
2026-07-07T02:51:55.846318+00:00,17.180710077285767,E20_mission_edit,mission_edit_observe,0,,,,,0.0,0.0,0.0,13173877.35106569,,,1,0,0.0,0.0,0.0,-0.01,0.01,0.0,,,GLOBAL_POSITION_INT,GPS 1: detected MAV,AUTO,0,0,0,0
2026-07-07T02:51:55.846401+00:00,17.180793285369873,E20_mission_edit,mission_edit_observe,0,,,,,,,,,,,1,0,0.0,0.0,0.0,,,,,,MISSION_CURRENT,GPS 1: detected MAV,AUTO,0,0,0,0
2026-07-07T02:51:55.846544+00:00,17.180935621261597,E20_mission_edit,mission_edit_observe,0,,,,,,,,,,,1,0,0.0,0.0,0.0,,,,,,GPS_RAW_INT,GPS 1: detected MAV,AUTO,0,0,0,0
2026-07-07T02:51:55.846569+00:00,17.18096089363098,E20_mission_edit,mission_edit_observe,0,,,,,,,,,,,1,0,0.0,0.0,0.0,,,,,,FENCE_STATUS,GPS 1: detected MAV,AUTO,0,0,0,0
2026-07-07T02:51:56.044413+00:00,17.378825187683105,E20_mission_edit,mission_edit_observe,0,,,,,,,,,,,1,0,0.0,0.0,0.0,,,,,,HEARTBEAT,GPS 1: detected MAV,AUTO,0,0,0,0
2026-07-07T02:51:56.044523+00:00,17.378915786743164,E20_mission_edit,mission_edit_observe,0,,,,,0.0,0.0,0.0,13173877.35106569,,,1,0,0.0,0.0,0.0,-0.01,0.01,0.0,,,GLOBAL_POSITION_INT,GPS 1: detected MAV,AUTO,0,0,0,0
2026-07-07T02:51:56.044608+00:00,17.379000425338745,E20_mission_edit,mission_edit_observe,0,,,,,,,,,,,1,0,0.0,0.0,0.0,,,,,,MISSION_CURRENT,GPS 1: detected MAV,AUTO,0,0,0,0
2026-07-07T02:51:56.044751+00:00,17.379142999649048,E20_mission_edit,mission_edit_observe,0,,,,,,,,,,,1,0,0.0,0.0,0.0,,,,,,GPS_RAW_INT,GPS 1: detected MAV,AUTO,0,0,0,0
2026-07-07T02:51:56.044778+00:00,17.379169702529907,E20_mission_edit,mission_edit_observe,0,,,,,,,,,,,1,0,0.0,0.0,0.0,,,,,,FENCE_STATUS,GPS 1: detected MAV,AUTO,0,0,0,0
2026-07-07T02:51:56.242677+00:00,17.577088594436646,E20_mission_edit,mission_edit_observe,0,,,,,,,,,,,1,0,0.0,0.0,0.0,,,,,,HEARTBEAT,GPS 1: detected MAV,AUTO,0,0,0,0
2026-07-07T02:51:56.242783+00:00,17.577175617218018,E20_mission_edit,mission_edit_observe,0,,,,,0.0,0.0,0.0,13173877.35106569,,,1,0,0.0,0.0,0.0,-0.01,0.01,0.0,,,GLOBAL_POSITION_INT,GPS 1: detected MAV,AUTO,0,0,0,0
2026-07-07T02:51:56.242867+00:00,17.577258825302124,E20_mission_edit,mission_edit_observe,0,,,,,,,,,,,1,0,0.0,0.0,0.0,,,,,,MISSION_CURRENT,GPS 1: detected MAV,AUTO,0,0,0,0
2026-07-07T02:51:56.243047+00:00,17.57744312286377,E20_mission_edit,mission_edit_observe,0,,,,,,,,,,,1,0,0.0,0.0,0.0,,,,,,GPS_RAW_INT,GPS 1: detected MAV,AUTO,0,0,0,0
2026-07-07T02:51:56.243081+00:00,17.577472925186157,E20_mission_edit,mission_edit_observe,0,,,,,,,,,,,1,0,0.0,0.0,0.0,,,,,,FENCE_STATUS,GPS 1: detected MAV,AUTO,0,0,0,0
2026-07-07T02:51:56.446711+00:00,17.7811222076416,E20_mission_edit,mission_edit_observe,0,,,,,,,,,,,1,0,0.0,0.0,0.0,,,,,,HEARTBEAT,GPS 1: detected MAV,AUTO,0,0,0,0
2026-07-07T02:51:56.446817+00:00,17.781209468841553,E20_mission_edit,mission_edit_observe,0,,,,,0.0,0.0,0.0,13173877.35106569,,,1,0,0.0,0.0,0.0,-0.01,0.01,0.0,,,GLOBAL_POSITION_INT,GPS 1: detected MAV,AUTO,0,0,0,0
2026-07-07T02:51:56.446900+00:00,17.781291484832764,E20_mission_edit,mission_edit_observe,0,,,,,,,,,,,1,0,0.0,0.0,0.0,,,,,,MISSION_CURRENT,GPS 1: detected MAV,AUTO,0,0,0,0
2026-07-07T02:51:56.447043+00:00,17.781434297561646,E20_mission_edit,mission_edit_observe,0,,,,,,,,,,,1,0,0.0,0.0,0.0,,,,,,GPS_RAW_INT,GPS 1: detected MAV,AUTO,0,0,0,0
2026-07-07T02:51:56.447068+00:00,17.78145980834961,E20_mission_edit,mission_edit_observe,0,,,,,,,,,,,1,0,0.0,0.0,0.0,,,,,,FENCE_STATUS,GPS 1: detected MAV,AUTO,0,0,0,0
2026-07-07T02:51:56.645065+00:00,17.97947669029236,E20_mission_edit,mission_edit_observe,0,,,,,,,,,,,1,0,0.0,0.0,0.0,,,,,,HEARTBEAT,GPS 1: detected MAV,AUTO,0,0,0,0
2026-07-07T02:51:56.645187+00:00,17.979578971862793,E20_mission_edit,mission_edit_observe,0,,,,,0.0,0.0,0.0,13173877.35106569,,,1,0,0.0,0.0,0.0,-0.01,0.01,0.0,,,GLOBAL_POSITION_INT,GPS 1: detected MAV,AUTO,0,0,0,0
2026-07-07T02:51:56.645272+00:00,17.979664087295532,E20_mission_edit,mission_edit_observe,0,,,,,,,,,,,1,0,0.0,0.0,0.0,,,,,,MISSION_CURRENT,GPS 1: detected MAV,AUTO,0,0,0,0
2026-07-07T02:51:56.645418+00:00,17.979809522628784,E20_mission_edit,mission_edit_observe,0,,,,,,,,,,,1,0,0.0,0.0,0.0,,,,,,GPS_RAW_INT,GPS 1: detected MAV,AUTO,0,0,0,0
2026-07-07T02:51:56.645444+00:00,17.979835033416748,E20_mission_edit,mission_edit_observe,0,,,,,,,,,,,1,0,0.0,0.0,0.0,,,,,,FENCE_STATUS,GPS 1: detected MAV,AUTO,0,0,0,0
2026-07-07T02:51:56.849051+00:00,18.183462381362915,E20_mission_edit,mission_edit_observe,0,,,,,,,,,,,1,0,0.0,0.0,0.0,,,,,,HEARTBEAT,GPS 1: detected MAV,AUTO,0,0,0,0
2026-07-07T02:51:56.849159+00:00,18.1835515499115,E20_mission_edit,mission_edit_observe,0,,,,,0.0,0.0,0.0,13173877.35106569,,,1,0,0.0,0.0,0.0,-0.01,0.01,0.0,,,GLOBAL_POSITION_INT,GPS 1: detected MAV,AUTO,0,0,0,0
2026-07-07T02:51:56.849241+00:00,18.18363308906555,E20_mission_edit,mission_edit_observe,0,,,,,,,,,,,1,0,0.0,0.0,0.0,,,,,,MISSION_CURRENT,GPS 1: detected MAV,AUTO,0,0,0,0
2026-07-07T02:51:56.849384+00:00,18.183775186538696,E20_mission_edit,mission_edit_observe,0,,,,,,,,,,,1,0,0.0,0.0,0.0,,,,,,GPS_RAW_INT,GPS 1: detected MAV,AUTO,0,0,0,0
2026-07-07T02:51:56.849409+00:00,18.183800220489502,E20_mission_edit,mission_edit_observe,0,,,,,,,,,,,1,0,0.0,0.0,0.0,,,,,,FENCE_STATUS,GPS 1: detected MAV,AUTO,0,0,0,0
2026-07-07T02:51:57.047381+00:00,18.38179349899292,E20_mission_edit,mission_edit_observe,0,,,,,,,,,,,1,0,0.0,0.0,0.0,,,,,,HEARTBEAT,GPS 1: detected MAV,AUTO,0,0,0,0
2026-07-07T02:51:57.047535+00:00,18.3819317817688,E20_mission_edit,mission_edit_observe,0,,,,,0.0,0.0,0.0,13173877.35106569,,,1,0,0.0,0.0,0.0,-0.01,0.01,0.0,,,GLOBAL_POSITION_INT,GPS 1: detected MAV,AUTO,0,0,0,0
2026-07-07T02:51:57.047655+00:00,18.382047176361084,E20_mission_edit,mission_edit_observe,0,,,,,,,,,,,1,0,0.0,0.0,0.0,,,,,,MISSION_CURRENT,GPS 1: detected MAV,AUTO,0,0,0,0
2026-07-07T02:51:57.047802+00:00,18.38219404220581,E20_mission_edit,mission_edit_observe,0,,,,,,,,,,,1,0,0.0,0.0,0.0,,,,,,GPS_RAW_INT,GPS 1: detected MAV,AUTO,0,0,0,0
2026-07-07T02:51:57.047830+00:00,18.382221221923828,E20_mission_edit,mission_edit_observe,0,,,,,,,,,,,1,0,0.0,0.0,0.0,,,,,,FENCE_STATUS,GPS 1: detected MAV,AUTO,0,0,0,0
2026-07-07T02:51:57.245678+00:00,18.58009147644043,E20_mission_edit,mission_edit_observe,0,,,,,,,,,,,1,0,0.0,0.0,0.0,,,,,,HEARTBEAT,GPS 1: detected MAV,AUTO,0,0,0,0
2026-07-07T02:51:57.245793+00:00,18.58018469810486,E20_mission_edit,mission_edit_observe,0,,,,,0.0,0.0,0.0,13173877.35106569,,,1,0,0.0,0.0,0.0,-0.01,0.01,0.0,,,GLOBAL_POSITION_INT,GPS 1: detected MAV,AUTO,0,0,0,0
2026-07-07T02:51:57.245878+00:00,18.580269813537598,E20_mission_edit,mission_edit_observe,0,,,,,,,,,,,1,0,0.0,0.0,0.0,,,,,,MISSION_CURRENT,GPS 1: detected MAV,AUTO,0,0,0,0
2026-07-07T02:51:57.246049+00:00,18.580442428588867,E20_mission_edit,mission_edit_observe,0,,,,,,,,,,,1,0,0.0,0.0,0.0,,,,,,GPS_RAW_INT,GPS 1: detected MAV,AUTO,0,0,0,0
2026-07-07T02:51:57.246079+00:00,18.580469846725464,E20_mission_edit,mission_edit_observe,0,,,,,,,,,,,1,0,0.0,0.0,0.0,,,,,,FENCE_STATUS,GPS 1: detected MAV,AUTO,0,0,0,0
2026-07-07T02:51:57.449643+00:00,18.784056901931763,E20_mission_edit,mission_edit_observe,0,,,,,,,,,,,1,0,0.0,0.0,0.0,,,,,,HEARTBEAT,GPS 1: detected MAV,AUTO,0,0,0,0
2026-07-07T02:51:57.449783+00:00,18.784177541732788,E20_mission_edit,mission_edit_observe,0,,,,,0.0,0.0,0.0,13173877.35106569,,,1,0,0.0,0.0,0.0,-0.01,0.01,0.0,,,GLOBAL_POSITION_INT,GPS 1: detected MAV,AUTO,0,0,0,0
2026-07-07T02:51:57.449898+00:00,18.78429102897644,E20_mission_edit,mission_edit_observe,0,,,,,,,,,,,1,0,0.0,0.0,0.0,,,,,,MISSION_CURRENT,GPS 1: detected MAV,AUTO,0,0,0,0
2026-07-07T02:51:57.450091+00:00,18.78448462486267,E20_mission_edit,mission_edit_observe,0,,,,,,,,,,,1,0,0.0,0.0,0.0,,,,,,GPS_RAW_INT,GPS 1: detected MAV,AUTO,0,0,0,0
2026-07-07T02:51:57.450128+00:00,18.784519910812378,E20_mission_edit,mission_edit_observe,0,,,,,,,,,,,1,0,0.0,0.0,0.0,,,,,,FENCE_STATUS,GPS 1: detected MAV,AUTO,0,0,0,0
2026-07-07T02:51:57.647977+00:00,18.982388973236084,E20_mission_edit,mission_edit_observe,0,,,,,,,,,,,1,0,0.0,0.0,0.0,,,,,,HEARTBEAT,GPS 1: detected MAV,AUTO,0,0,0,0
2026-07-07T02:51:57.648088+00:00,18.982479572296143,E20_mission_edit,mission_edit_observe,0,,,,,0.0,0.0,0.0,13173877.35106569,,,1,0,0.0,0.0,0.0,-0.01,0.01,0.0,,,GLOBAL_POSITION_INT,GPS 1: detected MAV,AUTO,0,0,0,0
2026-07-07T02:51:57.648172+00:00,18.982563734054565,E20_mission_edit,mission_edit_observe,0,,,,,,,,,,,1,0,0.0,0.0,0.0,,,,,,MISSION_CURRENT,GPS 1: detected MAV,AUTO,0,0,0,0
2026-07-07T02:51:57.648316+00:00,18.982707262039185,E20_mission_edit,mission_edit_observe,0,,,,,,,,,,,1,0,0.0,0.0,0.0,,,,,,GPS_RAW_INT,GPS 1: detected MAV,AUTO,0,0,0,0
2026-07-07T02:51:57.648341+00:00,18.98273229598999,E20_mission_edit,mission_edit_observe,0,,,,,,,,,,,1,0,0.0,0.0,0.0,,,,,,FENCE_STATUS,GPS 1: detected MAV,AUTO,0,0,0,0
2026-07-07T02:51:57.846218+00:00,19.18062925338745,E20_mission_edit,mission_edit_observe,0,,,,,,,,,,,1,0,0.0,0.0,0.0,,,,,,HEARTBEAT,GPS 1: detected MAV,AUTO,0,0,0,0
2026-07-07T02:51:57.846327+00:00,19.180718421936035,E20_mission_edit,mission_edit_observe,0,,,,,0.0,0.0,0.0,13173877.35106569,,,1,0,0.0,0.0,0.0,-0.01,0.01,0.0,,,GLOBAL_POSITION_INT,GPS 1: detected MAV,AUTO,0,0,0,0
2026-07-07T02:51:57.846408+00:00,19.18079924583435,E20_mission_edit,mission_edit_observe,0,,,,,,,,,,,1,0,0.0,0.0,0.0,,,,,,MISSION_CURRENT,GPS 1: detected MAV,AUTO,0,0,0,0
2026-07-07T02:51:57.846548+00:00,19.18093967437744,E20_mission_edit,mission_edit_observe,0,,,,,,,,,,,1,0,0.0,0.0,0.0,,,,,,GPS_RAW_INT,GPS 1: detected MAV,AUTO,0,0,0,0
2026-07-07T02:51:57.846574+00:00,19.180965900421143,E20_mission_edit,mission_edit_observe,0,,,,,,,,,,,1,0,0.0,0.0,0.0,,,,,,FENCE_STATUS,GPS 1: detected MAV,AUTO,0,0,0,0
2026-07-07T02:51:58.044528+00:00,19.37894034385681,E20_mission_edit,mission_edit_observe,0,,,,,,,,,,,1,0,0.0,0.0,0.0,,,,,,HEARTBEAT,GPS 1: detected MAV,AUTO,0,0,0,0
2026-07-07T02:51:58.044641+00:00,19.379032373428345,E20_mission_edit,mission_edit_observe,0,,,,,0.0,0.0,0.0,13173877.35106569,,,1,0,0.0,0.0,0.0,-0.01,0.01,0.0,,,GLOBAL_POSITION_INT,GPS 1: detected MAV,AUTO,0,0,0,0
2026-07-07T02:51:58.044733+00:00,19.379124879837036,E20_mission_edit,mission_edit_observe,0,,,,,,,,,,,1,0,0.0,0.0,0.0,,,,,,MISSION_CURRENT,GPS 1: detected MAV,AUTO,0,0,0,0
2026-07-07T02:51:58.044877+00:00,19.37928056716919,E20_mission_edit,mission_edit_observe,0,,,,,,,,,,,1,0,0.0,0.0,0.0,,,,,,GPS_RAW_INT,GPS 1: detected MAV,AUTO,0,0,0,0
2026-07-07T02:51:58.044945+00:00,19.37933850288391,E20_mission_edit,mission_edit_observe,0,,,,,,,,,,,1,0,0.0,0.0,0.0,,,,,,FENCE_STATUS,GPS 1: detected MAV,AUTO,0,0,0,0
2026-07-07T02:51:58.242907+00:00,19.57732129096985,E20_mission_edit,mission_edit_observe,0,,,,,,,,,,,1,0,0.0,0.0,0.0,,,,,,HEARTBEAT,GPS 1: detected MAV,AUTO,0,0,0,0
2026-07-07T02:51:58.243033+00:00,19.577425479888916,E20_mission_edit,mission_edit_observe,0,,,,,0.0,0.0,0.0,13173877.35106569,,,1,0,0.0,0.0,0.0,-0.01,0.01,0.0,,,GLOBAL_POSITION_INT,GPS 1: detected MAV,AUTO,0,0,0,0
2026-07-07T02:51:58.243161+00:00,19.57755756378174,E20_mission_edit,mission_edit_observe,0,,,,,,,,,,,1,0,0.0,0.0,0.0,,,,,,MISSION_CURRENT,GPS 1: detected MAV,AUTO,0,0,0,0
2026-07-07T02:51:58.243348+00:00,19.577741622924805,E20_mission_edit,mission_edit_observe,0,,,,,,,,,,,1,0,0.0,0.0,0.0,,,,,,GPS_RAW_INT,GPS 1: detected MAV,AUTO,0,0,0,0
2026-07-07T02:51:58.243384+00:00,19.577775716781616,E20_mission_edit,mission_edit_observe,0,,,,,,,,,,,1,0,0.0,0.0,0.0,,,,,,FENCE_STATUS,GPS 1: detected MAV,AUTO,0,0,0,0
2026-07-07T02:51:58.446813+00:00,19.781224250793457,E20_mission_edit,mission_edit_observe,0,,,,,,,,,,,1,0,0.0,0.0,0.0,,,,,,HEARTBEAT,GPS 1: detected MAV,AUTO,0,0,0,0
2026-07-07T02:51:58.446928+00:00,19.781320571899414,E20_mission_edit,mission_edit_observe,0,,,,,0.0,0.0,0.0,13173877.35106569,,,1,0,0.0,0.0,0.0,-0.01,0.01,0.0,,,GLOBAL_POSITION_INT,GPS 1: detected MAV,AUTO,0,0,0,0
2026-07-07T02:51:58.447011+00:00,19.781402826309204,E20_mission_edit,mission_edit_observe,0,,,,,,,,,,,1,0,0.0,0.0,0.0,,,,,,MISSION_CURRENT,GPS 1: detected MAV,AUTO,0,0,0,0
2026-07-07T02:51:58.447182+00:00,19.78157687187195,E20_mission_edit,mission_edit_observe,0,,,,,,,,,,,1,0,0.0,0.0,0.0,,,,,,GPS_RAW_INT,GPS 1: detected MAV,AUTO,0,0,0,0
2026-07-07T02:51:58.447221+00:00,19.781612873077393,E20_mission_edit,mission_edit_observe,0,,,,,,,,,,,1,0,0.0,0.0,0.0,,,,,,FENCE_STATUS,GPS 1: detected MAV,AUTO,0,0,0,0
2026-07-07T02:51:58.645126+00:00,19.97953724861145,E20_mission_edit,mission_edit_observe,0,,,,,,,,,,,1,0,0.0,0.0,0.0,,,,,,HEARTBEAT,GPS 1: detected MAV,AUTO,0,0,0,0
2026-07-07T02:51:58.645248+00:00,19.979640245437622,E20_mission_edit,mission_edit_observe,0,,,,,0.0,0.0,0.0,13173877.35106569,,,1,0,0.0,0.0,0.0,-0.01,0.01,0.0,,,GLOBAL_POSITION_INT,GPS 1: detected MAV,AUTO,0,0,0,0
2026-07-07T02:51:58.645331+00:00,19.979722261428833,E20_mission_edit,mission_edit_observe,0,,,,,,,,,,,1,0,0.0,0.0,0.0,,,,,,MISSION_CURRENT,GPS 1: detected MAV,AUTO,0,0,0,0
2026-07-07T02:51:58.645472+00:00,19.979864597320557,E20_mission_edit,mission_edit_observe,0,,,,,,,,,,,1,0,0.0,0.0,0.0,,,,,,GPS_RAW_INT,GPS 1: detected MAV,AUTO,0,0,0,0
2026-07-07T02:51:58.645500+00:00,19.979891538619995,E20_mission_edit,mission_edit_observe,0,,,,,,,,,,,1,0,0.0,0.0,0.0,,,,,,FENCE_STATUS,GPS 1: detected MAV,AUTO,0,0,0,0
2026-07-07T02:51:58.849168+00:00,20.183579206466675,E20_mission_edit,mission_edit_observe,0,,,,,,,,,,,1,0,0.0,0.0,0.0,,,,,,HEARTBEAT,GPS 1: detected MAV,AUTO,0,0,0,0
2026-07-07T02:51:58.849275+00:00,20.183666944503784,E20_mission_edit,mission_edit_observe,0,,,,,0.0,0.0,0.0,13173877.35106569,,,1,0,0.0,0.0,0.0,-0.01,0.01,0.0,,,GLOBAL_POSITION_INT,GPS 1: detected MAV,AUTO,0,0,0,0
2026-07-07T02:51:58.849356+00:00,20.183748245239258,E20_mission_edit,mission_edit_observe,0,,,,,,,,,,,1,0,0.0,0.0,0.0,,,,,,MISSION_CURRENT,GPS 1: detected MAV,AUTO,0,0,0,0
2026-07-07T02:51:58.849499+00:00,20.18389105796814,E20_mission_edit,mission_edit_observe,0,,,,,,,,,,,1,0,0.0,0.0,0.0,,,,,,GPS_RAW_INT,GPS 1: detected MAV,AUTO,0,0,0,0
2026-07-07T02:51:58.849524+00:00,20.183915853500366,E20_mission_edit,mission_edit_observe,0,,,,,,,,,,,1,0,0.0,0.0,0.0,,,,,,FENCE_STATUS,GPS 1: detected MAV,AUTO,0,0,0,0
2026-07-07T02:51:59.047537+00:00,20.381951332092285,E20_mission_edit,mission_edit_observe,0,,,,,,,,,,,1,0,0.0,0.0,0.0,,,,,,HEARTBEAT,GPS 1: detected MAV,AUTO,0,0,0,0
2026-07-07T02:51:59.047708+00:00,20.38210368156433,E20_mission_edit,mission_edit_observe,0,,,,,0.0,0.0,0.0,13173877.35106569,,,1,0,0.0,0.0,0.0,-0.01,0.02,0.0,,,GLOBAL_POSITION_INT,GPS 1: detected MAV,AUTO,0,0,0,0
2026-07-07T02:51:59.047859+00:00,20.38225746154785,E20_mission_edit,mission_edit_observe,0,,,,,,,,,,,1,0,0.0,0.0,0.0,,,,,,MISSION_CURRENT,GPS 1: detected MAV,AUTO,0,0,0,0
2026-07-07T02:51:59.048073+00:00,20.382467031478882,E20_mission_edit,mission_edit_observe,0,,,,,,,,,,,1,0,0.0,0.0,0.0,,,,,,GPS_RAW_INT,GPS 1: detected MAV,AUTO,0,0,0,0
2026-07-07T02:51:59.048114+00:00,20.382506370544434,E20_mission_edit,mission_edit_observe,0,,,,,,,,,,,1,0,0.0,0.0,0.0,,,,,,FENCE_STATUS,GPS 1: detected MAV,AUTO,0,0,0,0
2026-07-07T02:51:59.245768+00:00,20.580180168151855,E20_mission_edit,mission_edit_observe,0,,,,,,,,,,,1,0,0.0,0.0,0.0,,,,,,HEARTBEAT,GPS 1: detected MAV,AUTO,0,0,0,0
2026-07-07T02:51:59.245875+00:00,20.580267667770386,E20_mission_edit,mission_edit_observe,0,,,,,0.0,0.0,0.0,13173877.35106569,,,1,0,0.0,0.0,0.0,-0.02,0.02,0.0,,,GLOBAL_POSITION_INT,GPS 1: detected MAV,AUTO,0,0,0,0
2026-07-07T02:51:59.245956+00:00,20.580348253250122,E20_mission_edit,mission_edit_observe,0,,,,,,,,,,,1,0,0.0,0.0,0.0,,,,,,MISSION_CURRENT,GPS 1: detected MAV,AUTO,0,0,0,0
2026-07-07T02:51:59.246094+00:00,20.580486297607422,E20_mission_edit,mission_edit_observe,0,,,,,,,,,,,1,0,0.0,0.0,0.0,,,,,,GPS_RAW_INT,GPS 1: detected MAV,AUTO,0,0,0,0
2026-07-07T02:51:59.246151+00:00,20.580545902252197,E20_mission_edit,mission_edit_observe,0,,,,,,,,,,,1,0,0.0,0.0,0.0,,,,,,FENCE_STATUS,GPS 1: detected MAV,AUTO,0,0,0,0
2026-07-07T02:51:59.449761+00:00,20.78417706489563,E20_mission_edit,mission_edit_observe,0,,,,,,,,,,,1,0,0.0,0.0,0.0,,,,,,HEARTBEAT,GPS 1: detected MAV,AUTO,0,0,0,0
2026-07-07T02:51:59.449920+00:00,20.784311771392822,E20_mission_edit,mission_edit_observe,0,,,,,0.0,0.0,0.0,13173877.35106569,,,1,0,0.0,0.0,0.0,-0.02,0.02,0.0,,,GLOBAL_POSITION_INT,GPS 1: detected MAV,AUTO,0,0,0,0
2026-07-07T02:51:59.450003+00:00,20.78439474105835,E20_mission_edit,mission_edit_observe,0,,,,,,,,,,,1,0,0.0,0.0,0.0,,,,,,MISSION_CURRENT,GPS 1: detected MAV,AUTO,0,0,0,0
2026-07-07T02:51:59.450201+00:00,20.784599781036377,E20_mission_edit,mission_edit_observe,0,,,,,,,,,,,1,0,0.0,0.0,0.0,,,,,,GPS_RAW_INT,GPS 1: detected MAV,AUTO,0,0,0,0
2026-07-07T02:51:59.450239+00:00,20.784631729125977,E20_mission_edit,mission_edit_observe,0,,,,,,,,,,,1,0,0.0,0.0,0.0,,,,,,FENCE_STATUS,GPS 1: detected MAV,AUTO,0,0,0,0
2026-07-07T02:51:59.648115+00:00,20.98252773284912,E20_mission_edit,mission_edit_observe,0,,,,,,,,,,,1,0,0.0,0.0,0.0,,,,,,HEARTBEAT,GPS 1: detected MAV,AUTO,0,0,0,0
2026-07-07T02:51:59.648224+00:00,20.982616186141968,E20_mission_edit,mission_edit_observe,0,,,,,0.0,0.0,0.0,13173877.35106569,,,1,0,0.0,0.0,0.0,-0.02,0.02,0.0,,,GLOBAL_POSITION_INT,GPS 1: detected MAV,AUTO,0,0,0,0
2026-07-07T02:51:59.648306+00:00,20.98269748687744,E20_mission_edit,mission_edit_observe,0,,,,,,,,,,,1,0,0.0,0.0,0.0,,,,,,MISSION_CURRENT,GPS 1: detected MAV,AUTO,0,0,0,0
2026-07-07T02:51:59.648448+00:00,20.982840299606323,E20_mission_edit,mission_edit_observe,0,,,,,,,,,,,1,0,0.0,0.0,0.0,,,,,,GPS_RAW_INT,GPS 1: detected MAV,AUTO,0,0,0,0
2026-07-07T02:51:59.648474+00:00,20.982865810394287,E20_mission_edit,mission_edit_observe,0,,,,,,,,,,,1,0,0.0,0.0,0.0,,,,,,FENCE_STATUS,GPS 1: detected MAV,AUTO,0,0,0,0
2026-07-07T02:51:59.846380+00:00,21.180792331695557,E20_mission_edit,mission_edit_observe,0,,,,,,,,,,,1,0,0.0,0.0,0.0,,,,,,HEARTBEAT,GPS 1: detected MAV,AUTO,0,0,0,0
2026-07-07T02:51:59.846491+00:00,21.180883169174194,E20_mission_edit,mission_edit_observe,0,,,,,0.0,0.0,0.0,13173877.35106569,,,1,0,0.0,0.0,0.0,-0.02,0.02,0.0,,,GLOBAL_POSITION_INT,GPS 1: detected MAV,AUTO,0,0,0,0
2026-07-07T02:51:59.846573+00:00,21.18096423149109,E20_mission_edit,mission_edit_observe,0,,,,,,,,,,,1,0,0.0,0.0,0.0,,,,,,MISSION_CURRENT,GPS 1: detected MAV,AUTO,0,0,0,0
2026-07-07T02:51:59.846714+00:00,21.181105613708496,E20_mission_edit,mission_edit_observe,0,,,,,,,,,,,1,0,0.0,0.0,0.0,,,,,,GPS_RAW_INT,GPS 1: detected MAV,AUTO,0,0,0,0
2026-07-07T02:51:59.846742+00:00,21.181133270263672,E20_mission_edit,mission_edit_observe,0,,,,,,,,,,,1,0,0.0,0.0,0.0,,,,,,FENCE_STATUS,GPS 1: detected MAV,AUTO,0,0,0,0
