timestamp,elapsed_s,experiment,phase,sample_index,target_lat,target_lon,target_alt,target_drift_m,obs_lat,obs_lon,obs_alt,official_drift_m,target_error_m,reflected,gps_fix_type,gps_satellites,gps_raw_lat,gps_raw_lon,gps_raw_alt,vn,ve,vd,commanded_speed_mps,commanded_accel_mps2,message_type,status_text,mode,mission_seq,fence_breach_status,fence_breach_count,fence_breach_type
2026-07-06T22:37:43.701449+00:00,0.023402690887451172,E6_geofence_mission_impact,baseline_warmup,0,37.5665,126.978,20.0,0.0,,,,,,,,,,,,,,,0.0,0.0,STATUSTEXT,GPS 1: detected MAV,,,,,
2026-07-06T22:37:43.847248+00:00,0.16919684410095215,E6_geofence_mission_impact,baseline_warmup,0,37.5665,126.978,20.0,0.0,,,,,,,,,,,,,,,0.0,0.0,HEARTBEAT,GPS 1: detected MAV,STABILIZE,,,,
2026-07-06T22:37:43.847426+00:00,0.169358491897583,E6_geofence_mission_impact,baseline_warmup,0,37.5665,126.978,20.0,0.0,37.5665,126.978,20.0,0.0,0.0,0,,,,,,0.0,0.0,-0.02,0.0,0.0,GLOBAL_POSITION_INT,GPS 1: detected MAV,STABILIZE,,,,
2026-07-06T22:37:43.847524+00:00,0.16945219039916992,E6_geofence_mission_impact,baseline_warmup,0,37.5665,126.978,20.0,0.0,,,,,,,,,,,,,,,0.0,0.0,MISSION_CURRENT,GPS 1: detected MAV,STABILIZE,0,,,
2026-07-06T22:37:43.847678+00:00,0.16960549354553223,E6_geofence_mission_impact,baseline_warmup,0,37.5665,126.978,20.0,0.0,,,,,,,3,12,37.5665,126.978,20.0,,,,0.0,0.0,GPS_RAW_INT,GPS 1: detected MAV,STABILIZE,0,,,
2026-07-06T22:37:43.847706+00:00,0.169633150100708,E6_geofence_mission_impact,baseline_warmup,0,37.5665,126.978,20.0,0.0,,,,,,,3,12,37.5665,126.978,20.0,,,,0.0,0.0,FENCE_STATUS,GPS 1: detected MAV,STABILIZE,0,0,0,0
2026-07-06T22:37:44.051298+00:00,0.3732483386993408,E6_geofence_mission_impact,baseline_warmup,0,37.5665,126.978,20.0,0.0,,,,,,,3,12,37.5665,126.978,20.0,,,,0.0,0.0,HEARTBEAT,GPS 1: detected MAV,STABILIZE,0,0,0,0
2026-07-06T22:37:44.051421+00:00,0.3733491897583008,E6_geofence_mission_impact,baseline_warmup,0,37.5665,126.978,20.0,0.0,37.5665,126.978,20.0,0.0,0.0,0,3,12,37.5665,126.978,20.0,0.0,0.0,-0.02,0.0,0.0,GLOBAL_POSITION_INT,GPS 1: detected MAV,STABILIZE,0,0,0,0
2026-07-06T22:37:44.051514+00:00,0.3734419345855713,E6_geofence_mission_impact,baseline_warmup,0,37.5665,126.978,20.0,0.0,,,,,,,3,12,37.5665,126.978,20.0,,,,0.0,0.0,MISSION_CURRENT,GPS 1: detected MAV,STABILIZE,0,0,0,0
2026-07-06T22:37:44.051663+00:00,0.37359118461608887,E6_geofence_mission_impact,baseline_warmup,0,37.5665,126.978,20.0,0.0,,,,,,,3,12,37.5665,126.978,20.0,,,,0.0,0.0,GPS_RAW_INT,GPS 1: detected MAV,STABILIZE,0,0,0,0
2026-07-06T22:37:44.051692+00:00,0.37361907958984375,E6_geofence_mission_impact,baseline_warmup,0,37.5665,126.978,20.0,0.0,,,,,,,3,12,37.5665,126.978,20.0,,,,0.0,0.0,FENCE_STATUS,GPS 1: detected MAV,STABILIZE,0,0,0,0
2026-07-06T22:37:44.249628+00:00,0.5715773105621338,E6_geofence_mission_impact,baseline_warmup,0,37.5665,126.978,20.0,0.0,,,,,,,3,12,37.5665,126.978,20.0,,,,0.0,0.0,HEARTBEAT,GPS 1: detected MAV,STABILIZE,0,0,0,0
2026-07-06T22:37:44.249751+00:00,0.5716791152954102,E6_geofence_mission_impact,baseline_warmup,0,37.5665,126.978,20.0,0.0,37.5665,126.978,20.0,0.0,0.0,0,3,12,37.5665,126.978,20.0,0.0,0.0,-0.03,0.0,0.0,GLOBAL_POSITION_INT,GPS 1: detected MAV,STABILIZE,0,0,0,0
2026-07-06T22:37:44.249839+00:00,0.5717670917510986,E6_geofence_mission_impact,baseline_warmup,0,37.5665,126.978,20.0,0.0,,,,,,,3,12,37.5665,126.978,20.0,,,,0.0,0.0,MISSION_CURRENT,GPS 1: detected MAV,STABILIZE,0,0,0,0
2026-07-06T22:37:44.249992+00:00,0.5719196796417236,E6_geofence_mission_impact,baseline_warmup,0,37.5665,126.978,20.0,0.0,,,,,,,3,12,37.5665,126.978,20.0,,,,0.0,0.0,GPS_RAW_INT,GPS 1: detected MAV,STABILIZE,0,0,0,0
2026-07-06T22:37:44.250019+00:00,0.5719470977783203,E6_geofence_mission_impact,baseline_warmup,0,37.5665,126.978,20.0,0.0,,,,,,,3,12,37.5665,126.978,20.0,,,,0.0,0.0,FENCE_STATUS,GPS 1: detected MAV,STABILIZE,0,0,0,0
2026-07-06T22:37:44.447895+00:00,0.7698521614074707,E6_geofence_mission_impact,baseline_warmup,0,37.5665,126.978,20.0,0.0,,,,,,,3,12,37.5665,126.978,20.0,,,,0.0,0.0,HEARTBEAT,GPS 1: detected MAV,STABILIZE,0,0,0,0
2026-07-06T22:37:44.448050+00:00,0.7699801921844482,E6_geofence_mission_impact,baseline_warmup,0,37.5665,126.978,20.0,0.0,37.5665,126.978,20.0,0.0,0.0,0,3,12,37.5665,126.978,20.0,0.0,0.0,-0.03,0.0,0.0,GLOBAL_POSITION_INT,GPS 1: detected MAV,STABILIZE,0,0,0,0
2026-07-06T22:37:44.448168+00:00,0.7700977325439453,E6_geofence_mission_impact,baseline_warmup,0,37.5665,126.978,20.0,0.0,,,,,,,3,12,37.5665,126.978,20.0,,,,0.0,0.0,MISSION_CURRENT,GPS 1: detected MAV,STABILIZE,0,0,0,0
2026-07-06T22:37:44.448374+00:00,0.7703063488006592,E6_geofence_mission_impact,baseline_warmup,0,37.5665,126.978,20.0,0.0,,,,,,,3,12,37.5665,126.978,20.0,,,,0.0,0.0,GPS_RAW_INT,GPS 1: detected MAV,STABILIZE,0,0,0,0
2026-07-06T22:37:44.448416+00:00,0.7703444957733154,E6_geofence_mission_impact,baseline_warmup,0,37.5665,126.978,20.0,0.0,,,,,,,3,12,37.5665,126.978,20.0,,,,0.0,0.0,FENCE_STATUS,GPS 1: detected MAV,STABILIZE,0,0,0,0
2026-07-06T22:37:44.646150+00:00,0.9680993556976318,E6_geofence_mission_impact,baseline_warmup,0,37.5665,126.978,20.0,0.0,,,,,,,3,12,37.5665,126.978,20.0,,,,0.0,0.0,HEARTBEAT,GPS 1: detected MAV,STABILIZE,0,0,0,0
2026-07-06T22:37:44.646270+00:00,0.968198299407959,E6_geofence_mission_impact,baseline_warmup,0,37.5665,126.978,20.0,0.0,37.5665,126.978,20.0,0.0,0.0,0,3,12,37.5665,126.978,20.0,0.0,0.0,-0.03,0.0,0.0,GLOBAL_POSITION_INT,GPS 1: detected MAV,STABILIZE,0,0,0,0
2026-07-06T22:37:44.646360+00:00,0.968287467956543,E6_geofence_mission_impact,baseline_warmup,0,37.5665,126.978,20.0,0.0,,,,,,,3,12,37.5665,126.978,20.0,,,,0.0,0.0,MISSION_CURRENT,GPS 1: detected MAV,STABILIZE,0,0,0,0
2026-07-06T22:37:44.646514+00:00,0.9684429168701172,E6_geofence_mission_impact,baseline_warmup,0,37.5665,126.978,20.0,0.0,,,,,,,3,12,37.5665,126.978,20.0,,,,0.0,0.0,GPS_RAW_INT,GPS 1: detected MAV,STABILIZE,0,0,0,0
2026-07-06T22:37:44.646544+00:00,0.9684712886810303,E6_geofence_mission_impact,baseline_warmup,0,37.5665,126.978,20.0,0.0,,,,,,,3,12,37.5665,126.978,20.0,,,,0.0,0.0,FENCE_STATUS,GPS 1: detected MAV,STABILIZE,0,0,0,0
2026-07-06T22:37:44.850172+00:00,1.1721258163452148,E6_geofence_mission_impact,baseline_warmup,0,37.5665,126.978,20.0,0.0,,,,,,,3,12,37.5665,126.978,20.0,,,,0.0,0.0,HEARTBEAT,GPS 1: detected MAV,STABILIZE,0,0,0,0
2026-07-06T22:37:44.850333+00:00,1.1722640991210938,E6_geofence_mission_impact,baseline_warmup,0,37.5665,126.978,20.0,0.0,37.5665,126.978,20.0,0.0,0.0,0,3,12,37.5665,126.978,20.0,0.0,0.0,-0.03,0.0,0.0,GLOBAL_POSITION_INT,GPS 1: detected MAV,STABILIZE,0,0,0,0
2026-07-06T22:37:44.850458+00:00,1.1723871231079102,E6_geofence_mission_impact,baseline_warmup,0,37.5665,126.978,20.0,0.0,,,,,,,3,12,37.5665,126.978,20.0,,,,0.0,0.0,MISSION_CURRENT,GPS 1: detected MAV,STABILIZE,0,0,0,0
2026-07-06T22:37:44.850671+00:00,1.1726009845733643,E6_geofence_mission_impact,baseline_warmup,0,37.5665,126.978,20.0,0.0,,,,,,,3,12,37.5665,126.978,20.0,,,,0.0,0.0,GPS_RAW_INT,GPS 1: detected MAV,STABILIZE,0,0,0,0
2026-07-06T22:37:44.850712+00:00,1.1726405620574951,E6_geofence_mission_impact,baseline_warmup,0,37.5665,126.978,20.0,0.0,,,,,,,3,12,37.5665,126.978,20.0,,,,0.0,0.0,FENCE_STATUS,GPS 1: detected MAV,STABILIZE,0,0,0,0
2026-07-06T22:37:45.048384+00:00,1.3703322410583496,E6_geofence_mission_impact,baseline_warmup,0,37.5665,126.978,20.0,0.0,,,,,,,3,12,37.5665,126.978,20.0,,,,0.0,0.0,HEARTBEAT,GPS 1: detected MAV,STABILIZE,0,0,0,0
2026-07-06T22:37:45.048501+00:00,1.3704290390014648,E6_geofence_mission_impact,baseline_warmup,0,37.5665,126.978,20.0,0.0,37.5665,126.978,20.0,0.0,0.0,0,3,12,37.5665,126.978,20.0,0.0,0.0,-0.04,0.0,0.0,GLOBAL_POSITION_INT,GPS 1: detected MAV,STABILIZE,0,0,0,0
2026-07-06T22:37:45.048588+00:00,1.3705158233642578,E6_geofence_mission_impact,baseline_warmup,0,37.5665,126.978,20.0,0.0,,,,,,,3,12,37.5665,126.978,20.0,,,,0.0,0.0,MISSION_CURRENT,GPS 1: detected MAV,STABILIZE,0,0,0,0
2026-07-06T22:37:45.048741+00:00,1.3706684112548828,E6_geofence_mission_impact,baseline_warmup,0,37.5665,126.978,20.0,0.0,,,,,,,3,12,37.5665,126.978,20.0,,,,0.0,0.0,GPS_RAW_INT,GPS 1: detected MAV,STABILIZE,0,0,0,0
2026-07-06T22:37:45.048767+00:00,1.3706951141357422,E6_geofence_mission_impact,baseline_warmup,0,37.5665,126.978,20.0,0.0,,,,,,,3,12,37.5665,126.978,20.0,,,,0.0,0.0,FENCE_STATUS,GPS 1: detected MAV,STABILIZE,0,0,0,0
2026-07-06T22:37:45.252226+00:00,1.574174165725708,E6_geofence_mission_impact,baseline_warmup,0,37.5665,126.978,20.0,0.0,,,,,,,3,12,37.5665,126.978,20.0,,,,0.0,0.0,HEARTBEAT,GPS 1: detected MAV,STABILIZE,0,0,0,0
2026-07-06T22:37:45.252364+00:00,1.5742957592010498,E6_geofence_mission_impact,baseline_warmup,0,37.5665,126.978,20.0,0.0,37.5665,126.978,20.0,0.0,0.0,0,3,12,37.5665,126.978,20.0,0.0,0.0,-0.04,0.0,0.0,GLOBAL_POSITION_INT,GPS 1: detected MAV,STABILIZE,0,0,0,0
2026-07-06T22:37:45.252515+00:00,1.5744476318359375,E6_geofence_mission_impact,baseline_warmup,0,37.5665,126.978,20.0,0.0,,,,,,,3,12,37.5665,126.978,20.0,,,,0.0,0.0,MISSION_CURRENT,GPS 1: detected MAV,STABILIZE,0,0,0,0
2026-07-06T22:37:45.252753+00:00,1.5746853351593018,E6_geofence_mission_impact,baseline_warmup,0,37.5665,126.978,20.0,0.0,,,,,,,3,12,37.5665,126.978,20.0,,,,0.0,0.0,GPS_RAW_INT,GPS 1: detected MAV,STABILIZE,0,0,0,0
2026-07-06T22:37:45.252804+00:00,1.5747323036193848,E6_geofence_mission_impact,baseline_warmup,0,37.5665,126.978,20.0,0.0,,,,,,,3,12,37.5665,126.978,20.0,,,,0.0,0.0,FENCE_STATUS,GPS 1: detected MAV,STABILIZE,0,0,0,0
2026-07-06T22:37:45.450900+00:00,1.7728495597839355,E6_geofence_mission_impact,baseline_warmup,0,37.5665,126.978,20.0,0.0,,,,,,,3,12,37.5665,126.978,20.0,,,,0.0,0.0,HEARTBEAT,GPS 1: detected MAV,STABILIZE,0,0,0,0
2026-07-06T22:37:45.451021+00:00,1.77294921875,E6_geofence_mission_impact,baseline_warmup,0,37.5665,126.978,20.0,0.0,37.5665,126.978,20.0,0.0,0.0,0,3,12,37.5665,126.978,20.0,0.0,0.0,-0.04,0.0,0.0,GLOBAL_POSITION_INT,GPS 1: detected MAV,STABILIZE,0,0,0,0
2026-07-06T22:37:45.451111+00:00,1.7730391025543213,E6_geofence_mission_impact,baseline_warmup,0,37.5665,126.978,20.0,0.0,,,,,,,3,12,37.5665,126.978,20.0,,,,0.0,0.0,MISSION_CURRENT,GPS 1: detected MAV,STABILIZE,0,0,0,0
2026-07-06T22:37:45.451268+00:00,1.773195743560791,E6_geofence_mission_impact,baseline_warmup,0,37.5665,126.978,20.0,0.0,,,,,,,3,12,37.5665,126.978,20.0,,,,0.0,0.0,GPS_RAW_INT,GPS 1: detected MAV,STABILIZE,0,0,0,0
2026-07-06T22:37:45.451295+00:00,1.7732229232788086,E6_geofence_mission_impact,baseline_warmup,0,37.5665,126.978,20.0,0.0,,,,,,,3,12,37.5665,126.978,20.0,,,,0.0,0.0,FENCE_STATUS,GPS 1: detected MAV,STABILIZE,0,0,0,0
2026-07-06T22:37:45.649197+00:00,1.971147060394287,E6_geofence_mission_impact,baseline_warmup,0,37.5665,126.978,20.0,0.0,,,,,,,3,12,37.5665,126.978,20.0,,,,0.0,0.0,HEARTBEAT,GPS 1: detected MAV,STABILIZE,0,0,0,0
2026-07-06T22:37:45.649399+00:00,1.9713280200958252,E6_geofence_mission_impact,baseline_warmup,0,37.5665,126.978,20.0,0.0,37.5665,126.978,20.0,0.0,0.0,0,3,12,37.5665,126.978,20.0,0.0,0.0,-0.04,0.0,0.0,GLOBAL_POSITION_INT,GPS 1: detected MAV,STABILIZE,0,0,0,0
2026-07-06T22:37:45.649488+00:00,1.9714159965515137,E6_geofence_mission_impact,baseline_warmup,0,37.5665,126.978,20.0,0.0,,,,,,,3,12,37.5665,126.978,20.0,,,,0.0,0.0,MISSION_CURRENT,GPS 1: detected MAV,STABILIZE,0,0,0,0
2026-07-06T22:37:45.649640+00:00,1.9715678691864014,E6_geofence_mission_impact,baseline_warmup,0,37.5665,126.978,20.0,0.0,,,,,,,3,12,37.5665,126.978,20.0,,,,0.0,0.0,GPS_RAW_INT,GPS 1: detected MAV,STABILIZE,0,0,0,0
2026-07-06T22:37:45.649668+00:00,1.9715955257415771,E6_geofence_mission_impact,baseline_warmup,0,37.5665,126.978,20.0,0.0,,,,,,,3,12,37.5665,126.978,20.0,,,,0.0,0.0,FENCE_STATUS,GPS 1: detected MAV,STABILIZE,0,0,0,0
2026-07-06T22:37:45.847295+00:00,2.169243812561035,E6_geofence_mission_impact,baseline_warmup,0,37.5665,126.978,20.0,0.0,,,,,,,3,12,37.5665,126.978,20.0,,,,0.0,0.0,HEARTBEAT,GPS 1: detected MAV,STABILIZE,0,0,0,0
2026-07-06T22:37:45.847419+00:00,2.1693475246429443,E6_geofence_mission_impact,baseline_warmup,0,37.5665,126.978,20.0,0.0,37.5665,126.978,20.0,0.0,0.0,0,3,12,37.5665,126.978,20.0,0.0,0.0,-0.04,0.0,0.0,GLOBAL_POSITION_INT,GPS 1: detected MAV,STABILIZE,0,0,0,0
2026-07-06T22:37:45.847504+00:00,2.1694324016571045,E6_geofence_mission_impact,baseline_warmup,0,37.5665,126.978,20.0,0.0,,,,,,,3,12,37.5665,126.978,20.0,,,,0.0,0.0,MISSION_CURRENT,GPS 1: detected MAV,STABILIZE,0,0,0,0
2026-07-06T22:37:45.847656+00:00,2.1695845127105713,E6_geofence_mission_impact,baseline_warmup,0,37.5665,126.978,20.0,0.0,,,,,,,3,12,37.5665,126.978,20.0,,,,0.0,0.0,GPS_RAW_INT,GPS 1: detected MAV,STABILIZE,0,0,0,0
2026-07-06T22:37:45.847683+00:00,2.1696107387542725,E6_geofence_mission_impact,baseline_warmup,0,37.5665,126.978,20.0,0.0,,,,,,,3,12,37.5665,126.978,20.0,,,,0.0,0.0,FENCE_STATUS,GPS 1: detected MAV,STABILIZE,0,0,0,0
2026-07-06T22:37:46.051552+00:00,2.373509407043457,E6_geofence_mission_impact,baseline_warmup,0,37.5665,126.978,20.0,0.0,,,,,,,3,12,37.5665,126.978,20.0,,,,0.0,0.0,HEARTBEAT,GPS 1: detected MAV,STABILIZE,0,0,0,0
2026-07-06T22:37:46.051793+00:00,2.373734474182129,E6_geofence_mission_impact,baseline_warmup,0,37.5665,126.978,20.0,0.0,37.5665,126.978,20.0,0.0,0.0,0,3,12,37.5665,126.978,20.0,0.0,0.0,-0.04,0.0,0.0,GLOBAL_POSITION_INT,GPS 1: detected MAV,STABILIZE,0,0,0,0
2026-07-06T22:37:46.052035+00:00,2.3739726543426514,E6_geofence_mission_impact,baseline_warmup,0,37.5665,126.978,20.0,0.0,,,,,,,3,12,37.5665,126.978,20.0,,,,0.0,0.0,MISSION_CURRENT,GPS 1: detected MAV,STABILIZE,0,0,0,0
2026-07-06T22:37:46.052387+00:00,2.374323606491089,E6_geofence_mission_impact,baseline_warmup,0,37.5665,126.978,20.0,0.0,,,,,,,3,12,37.5665,126.978,20.0,,,,0.0,0.0,GPS_RAW_INT,GPS 1: detected MAV,STABILIZE,0,0,0,0
2026-07-06T22:37:46.052451+00:00,2.374380111694336,E6_geofence_mission_impact,baseline_warmup,0,37.5665,126.978,20.0,0.0,,,,,,,3,12,37.5665,126.978,20.0,,,,0.0,0.0,FENCE_STATUS,GPS 1: detected MAV,STABILIZE,0,0,0,0
2026-07-06T22:37:46.249718+00:00,2.5716683864593506,E6_geofence_mission_impact,baseline_warmup,0,37.5665,126.978,20.0,0.0,,,,,,,3,12,37.5665,126.978,20.0,,,,0.0,0.0,HEARTBEAT,GPS 1: detected MAV,STABILIZE,0,0,0,0
2026-07-06T22:37:46.249841+00:00,2.5717689990997314,E6_geofence_mission_impact,baseline_warmup,0,37.5665,126.978,20.0,0.0,37.5665,126.978,20.0,0.0,0.0,0,3,12,37.5665,126.978,20.0,0.0,0.0,-0.03,0.0,0.0,GLOBAL_POSITION_INT,GPS 1: detected MAV,STABILIZE,0,0,0,0
2026-07-06T22:37:46.249937+00:00,2.5718696117401123,E6_geofence_mission_impact,baseline_warmup,0,37.5665,126.978,20.0,0.0,,,,,,,3,12,37.5665,126.978,20.0,,,,0.0,0.0,MISSION_CURRENT,GPS 1: detected MAV,STABILIZE,0,0,0,0
2026-07-06T22:37:46.250139+00:00,2.5720739364624023,E6_geofence_mission_impact,baseline_warmup,0,37.5665,126.978,20.0,0.0,,,,,,,3,12,37.5665,126.978,20.0,,,,0.0,0.0,GPS_RAW_INT,GPS 1: detected MAV,STABILIZE,0,0,0,0
2026-07-06T22:37:46.250200+00:00,2.5721302032470703,E6_geofence_mission_impact,baseline_warmup,0,37.5665,126.978,20.0,0.0,,,,,,,3,12,37.5665,126.978,20.0,,,,0.0,0.0,FENCE_STATUS,GPS 1: detected MAV,STABILIZE,0,0,0,0
2026-07-06T22:37:46.448043+00:00,2.76999568939209,E6_geofence_mission_impact,baseline_warmup,0,37.5665,126.978,20.0,0.0,,,,,,,3,12,37.5665,126.978,20.0,,,,0.0,0.0,HEARTBEAT,GPS 1: detected MAV,STABILIZE,0,0,0,0
2026-07-06T22:37:46.448303+00:00,2.770237684249878,E6_geofence_mission_impact,baseline_warmup,0,37.5665,126.978,20.0,0.0,37.5665,126.978,20.0,0.0,0.0,0,3,12,37.5665,126.978,20.0,0.0,0.0,-0.03,0.0,0.0,GLOBAL_POSITION_INT,GPS 1: detected MAV,STABILIZE,0,0,0,0
2026-07-06T22:37:46.448432+00:00,2.77036190032959,E6_geofence_mission_impact,baseline_warmup,0,37.5665,126.978,20.0,0.0,,,,,,,3,12,37.5665,126.978,20.0,,,,0.0,0.0,MISSION_CURRENT,GPS 1: detected MAV,STABILIZE,0,0,0,0
2026-07-06T22:37:46.448649+00:00,2.770580291748047,E6_geofence_mission_impact,baseline_warmup,0,37.5665,126.978,20.0,0.0,,,,,,,3,12,37.5665,126.978,20.0,,,,0.0,0.0,GPS_RAW_INT,GPS 1: detected MAV,STABILIZE,0,0,0,0
2026-07-06T22:37:46.448699+00:00,2.77062726020813,E6_geofence_mission_impact,baseline_warmup,0,37.5665,126.978,20.0,0.0,,,,,,,3,12,37.5665,126.978,20.0,,,,0.0,0.0,FENCE_STATUS,GPS 1: detected MAV,STABILIZE,0,0,0,0
2026-07-06T22:37:46.646327+00:00,2.968276023864746,E6_geofence_mission_impact,baseline_warmup,0,37.5665,126.978,20.0,0.0,,,,,,,3,12,37.5665,126.978,20.0,,,,0.0,0.0,HEARTBEAT,GPS 1: detected MAV,STABILIZE,0,0,0,0
2026-07-06T22:37:46.646450+00:00,2.968379259109497,E6_geofence_mission_impact,baseline_warmup,0,37.5665,126.978,20.0,0.0,37.5665,126.978,20.0,0.0,0.0,0,3,12,37.5665,126.978,20.0,0.0,0.0,-0.03,0.0,0.0,GLOBAL_POSITION_INT,GPS 1: detected MAV,STABILIZE,0,0,0,0
2026-07-06T22:37:46.646538+00:00,2.96846604347229,E6_geofence_mission_impact,baseline_warmup,0,37.5665,126.978,20.0,0.0,,,,,,,3,12,37.5665,126.978,20.0,,,,0.0,0.0,MISSION_CURRENT,GPS 1: detected MAV,STABILIZE,0,0,0,0
2026-07-06T22:37:46.646690+00:00,2.9686179161071777,E6_geofence_mission_impact,baseline_warmup,0,37.5665,126.978,20.0,0.0,,,,,,,3,12,37.5665,126.978,20.0,,,,0.0,0.0,GPS_RAW_INT,GPS 1: detected MAV,STABILIZE,0,0,0,0
2026-07-06T22:37:46.646719+00:00,2.968646287918091,E6_geofence_mission_impact,baseline_warmup,0,37.5665,126.978,20.0,0.0,,,,,,,3,12,37.5665,126.978,20.0,,,,0.0,0.0,FENCE_STATUS,GPS 1: detected MAV,STABILIZE,0,0,0,0
2026-07-06T22:37:46.850298+00:00,3.1722490787506104,E6_geofence_mission_impact,baseline_warmup,0,37.5665,126.978,20.0,0.0,,,,,,,3,12,37.5665,126.978,20.0,,,,0.0,0.0,HEARTBEAT,GPS 1: detected MAV,STABILIZE,0,0,0,0
2026-07-06T22:37:46.850458+00:00,3.172391414642334,E6_geofence_mission_impact,baseline_warmup,0,37.5665,126.978,20.0,0.0,37.5665,126.978,20.0,0.0,0.0,0,3,12,37.5665,126.978,20.0,0.0,0.0,-0.03,0.0,0.0,GLOBAL_POSITION_INT,GPS 1: detected MAV,STABILIZE,0,0,0,0
2026-07-06T22:37:46.850559+00:00,3.172487497329712,E6_geofence_mission_impact,baseline_warmup,0,37.5665,126.978,20.0,0.0,,,,,,,3,12,37.5665,126.978,20.0,,,,0.0,0.0,MISSION_CURRENT,GPS 1: detected MAV,STABILIZE,0,0,0,0
2026-07-06T22:37:46.850726+00:00,3.1726577281951904,E6_geofence_mission_impact,baseline_warmup,0,37.5665,126.978,20.0,0.0,,,,,,,3,12,37.5665,126.978,20.0,,,,0.0,0.0,GPS_RAW_INT,GPS 1: detected MAV,STABILIZE,0,0,0,0
2026-07-06T22:37:46.850782+00:00,3.1727101802825928,E6_geofence_mission_impact,baseline_warmup,0,37.5665,126.978,20.0,0.0,,,,,,,3,12,37.5665,126.978,20.0,,,,0.0,0.0,FENCE_STATUS,GPS 1: detected MAV,STABILIZE,0,0,0,0
2026-07-06T22:37:47.048585+00:00,3.3705341815948486,E6_geofence_mission_impact,baseline_warmup,0,37.5665,126.978,20.0,0.0,,,,,,,3,12,37.5665,126.978,20.0,,,,0.0,0.0,HEARTBEAT,GPS 1: detected MAV,STABILIZE,0,0,0,0
2026-07-06T22:37:47.048703+00:00,3.370631217956543,E6_geofence_mission_impact,baseline_warmup,0,37.5665,126.978,20.0,0.0,37.5665,126.978,20.0,0.0,0.0,0,3,12,37.5665,126.978,20.0,0.0,0.0,-0.03,0.0,0.0,GLOBAL_POSITION_INT,GPS 1: detected MAV,STABILIZE,0,0,0,0
2026-07-06T22:37:47.048845+00:00,3.3707773685455322,E6_geofence_mission_impact,baseline_warmup,0,37.5665,126.978,20.0,0.0,,,,,,,3,12,37.5665,126.978,20.0,,,,0.0,0.0,MISSION_CURRENT,GPS 1: detected MAV,STABILIZE,0,0,0,0
2026-07-06T22:37:47.049055+00:00,3.3709864616394043,E6_geofence_mission_impact,baseline_warmup,0,37.5665,126.978,20.0,0.0,,,,,,,3,12,37.5665,126.978,20.0,,,,0.0,0.0,GPS_RAW_INT,GPS 1: detected MAV,STABILIZE,0,0,0,0
2026-07-06T22:37:47.049092+00:00,3.371021270751953,E6_geofence_mission_impact,baseline_warmup,0,37.5665,126.978,20.0,0.0,,,,,,,3,12,37.5665,126.978,20.0,,,,0.0,0.0,FENCE_STATUS,GPS 1: detected MAV,STABILIZE,0,0,0,0
2026-07-06T22:37:47.252704+00:00,3.574657440185547,E6_geofence_mission_impact,baseline_warmup,0,37.5665,126.978,20.0,0.0,,,,,,,3,12,37.5665,126.978,20.0,,,,0.0,0.0,HEARTBEAT,GPS 1: detected MAV,STABILIZE,0,0,0,0
2026-07-06T22:37:47.252932+00:00,3.5748708248138428,E6_geofence_mission_impact,baseline_warmup,0,37.5665,126.978,20.0,0.0,37.5665,126.978,20.0,0.0,0.0,0,3,12,37.5665,126.978,20.0,0.0,0.0,-0.03,0.0,0.0,GLOBAL_POSITION_INT,GPS 1: detected MAV,STABILIZE,0,0,0,0
2026-07-06T22:37:47.253051+00:00,3.574981689453125,E6_geofence_mission_impact,baseline_warmup,0,37.5665,126.978,20.0,0.0,,,,,,,3,12,37.5665,126.978,20.0,,,,0.0,0.0,MISSION_CURRENT,GPS 1: detected MAV,STABILIZE,0,0,0,0
2026-07-06T22:37:47.253307+00:00,3.575239896774292,E6_geofence_mission_impact,baseline_warmup,0,37.5665,126.978,20.0,0.0,,,,,,,3,12,37.5665,126.978,20.0,,,,0.0,0.0,GPS_RAW_INT,GPS 1: detected MAV,STABILIZE,0,0,0,0
2026-07-06T22:37:47.253342+00:00,3.575270652770996,E6_geofence_mission_impact,baseline_warmup,0,37.5665,126.978,20.0,0.0,,,,,,,3,12,37.5665,126.978,20.0,,,,0.0,0.0,FENCE_STATUS,GPS 1: detected MAV,STABILIZE,0,0,0,0
2026-07-06T22:37:47.451027+00:00,3.772982597351074,E6_geofence_mission_impact,baseline_warmup,0,37.5665,126.978,20.0,0.0,,,,,,,3,12,37.5665,126.978,20.0,,,,0.0,0.0,HEARTBEAT,GPS 1: detected MAV,STABILIZE,0,0,0,0
2026-07-06T22:37:47.451190+00:00,3.773120880126953,E6_geofence_mission_impact,baseline_warmup,0,37.5665,126.978,20.0,0.0,37.5665,126.978,20.0,0.0,0.0,0,3,12,37.5665,126.978,20.0,0.0,0.0,-0.03,0.0,0.0,GLOBAL_POSITION_INT,GPS 1: detected MAV,STABILIZE,0,0,0,0
2026-07-06T22:37:47.451333+00:00,3.7732701301574707,E6_geofence_mission_impact,baseline_warmup,0,37.5665,126.978,20.0,0.0,,,,,,,3,12,37.5665,126.978,20.0,,,,0.0,0.0,MISSION_CURRENT,GPS 1: detected MAV,STABILIZE,0,0,0,0
2026-07-06T22:37:47.451567+00:00,3.7734968662261963,E6_geofence_mission_impact,baseline_warmup,0,37.5665,126.978,20.0,0.0,,,,,,,3,12,37.5665,126.978,20.0,,,,0.0,0.0,GPS_RAW_INT,GPS 1: detected MAV,STABILIZE,0,0,0,0
2026-07-06T22:37:47.451604+00:00,3.7735321521759033,E6_geofence_mission_impact,baseline_warmup,0,37.5665,126.978,20.0,0.0,,,,,,,3,12,37.5665,126.978,20.0,,,,0.0,0.0,FENCE_STATUS,GPS 1: detected MAV,STABILIZE,0,0,0,0
2026-07-06T22:37:47.649335+00:00,3.971287727355957,E6_geofence_mission_impact,baseline_warmup,0,37.5665,126.978,20.0,0.0,,,,,,,3,12,37.5665,126.978,20.0,,,,0.0,0.0,HEARTBEAT,GPS 1: detected MAV,STABILIZE,0,0,0,0
2026-07-06T22:37:47.649458+00:00,3.971386194229126,E6_geofence_mission_impact,baseline_warmup,0,37.5665,126.978,20.0,0.0,37.5665,126.978,20.0,0.0,0.0,0,3,12,37.5665,126.978,20.0,0.0,0.0,-0.02,0.0,0.0,GLOBAL_POSITION_INT,GPS 1: detected MAV,STABILIZE,0,0,0,0
2026-07-06T22:37:47.649543+00:00,3.971471071243286,E6_geofence_mission_impact,baseline_warmup,0,37.5665,126.978,20.0,0.0,,,,,,,3,12,37.5665,126.978,20.0,,,,0.0,0.0,MISSION_CURRENT,GPS 1: detected MAV,STABILIZE,0,0,0,0
2026-07-06T22:37:47.649692+00:00,3.9716196060180664,E6_geofence_mission_impact,baseline_warmup,0,37.5665,126.978,20.0,0.0,,,,,,,3,12,37.5665,126.978,20.0,,,,0.0,0.0,GPS_RAW_INT,GPS 1: detected MAV,STABILIZE,0,0,0,0
2026-07-06T22:37:47.649718+00:00,3.9716458320617676,E6_geofence_mission_impact,baseline_warmup,0,37.5665,126.978,20.0,0.0,,,,,,,3,12,37.5665,126.978,20.0,,,,0.0,0.0,FENCE_STATUS,GPS 1: detected MAV,STABILIZE,0,0,0,0
2026-07-06T22:37:47.847670+00:00,4.169624090194702,E6_geofence_mission_impact,baseline_warmup,0,37.5665,126.978,20.0,0.0,,,,,,,3,12,37.5665,126.978,20.0,,,,0.0,0.0,HEARTBEAT,GPS 1: detected MAV,STABILIZE,0,0,0,0
2026-07-06T22:37:47.847835+00:00,4.169764757156372,E6_geofence_mission_impact,baseline_warmup,0,37.5665,126.978,20.0,0.0,37.5665,126.978,20.0,0.0,0.0,0,3,12,37.5665,126.978,20.0,0.0,0.0,-0.02,0.0,0.0,GLOBAL_POSITION_INT,GPS 1: detected MAV,STABILIZE,0,0,0,0
2026-07-06T22:37:47.847954+00:00,4.1698830127716064,E6_geofence_mission_impact,baseline_warmup,0,37.5665,126.978,20.0,0.0,,,,,,,3,12,37.5665,126.978,20.0,,,,0.0,0.0,MISSION_CURRENT,GPS 1: detected MAV,STABILIZE,0,0,0,0
2026-07-06T22:37:47.848164+00:00,4.170094013214111,E6_geofence_mission_impact,baseline_warmup,0,37.5665,126.978,20.0,0.0,,,,,,,3,12,37.5665,126.978,20.0,,,,0.0,0.0,GPS_RAW_INT,GPS 1: detected MAV,STABILIZE,0,0,0,0
2026-07-06T22:37:47.848205+00:00,4.170132875442505,E6_geofence_mission_impact,baseline_warmup,0,37.5665,126.978,20.0,0.0,,,,,,,3,12,37.5665,126.978,20.0,,,,0.0,0.0,FENCE_STATUS,GPS 1: detected MAV,STABILIZE,0,0,0,0
2026-07-06T22:37:48.051629+00:00,4.373578071594238,E6_geofence_mission_impact,baseline_warmup,0,37.5665,126.978,20.0,0.0,,,,,,,3,12,37.5665,126.978,20.0,,,,0.0,0.0,HEARTBEAT,GPS 1: detected MAV,STABILIZE,0,0,0,0
2026-07-06T22:37:48.051748+00:00,4.373676300048828,E6_geofence_mission_impact,baseline_warmup,0,37.5665,126.978,20.0,0.0,37.5665,126.978,20.0,0.0,0.0,0,3,12,37.5665,126.978,20.0,0.0,0.0,-0.02,0.0,0.0,GLOBAL_POSITION_INT,GPS 1: detected MAV,STABILIZE,0,0,0,0
2026-07-06T22:37:48.051834+00:00,4.373761415481567,E6_geofence_mission_impact,baseline_warmup,0,37.5665,126.978,20.0,0.0,,,,,,,3,12,37.5665,126.978,20.0,,,,0.0,0.0,MISSION_CURRENT,GPS 1: detected MAV,STABILIZE,0,0,0,0
2026-07-06T22:37:48.051984+00:00,4.373912334442139,E6_geofence_mission_impact,baseline_warmup,0,37.5665,126.978,20.0,0.0,,,,,,,3,12,37.5665,126.978,20.0,,,,0.0,0.0,GPS_RAW_INT,GPS 1: detected MAV,STABILIZE,0,0,0,0
2026-07-06T22:37:48.052011+00:00,4.373939275741577,E6_geofence_mission_impact,baseline_warmup,0,37.5665,126.978,20.0,0.0,,,,,,,3,12,37.5665,126.978,20.0,,,,0.0,0.0,FENCE_STATUS,GPS 1: detected MAV,STABILIZE,0,0,0,0
2026-07-06T22:37:48.249958+00:00,4.57191014289856,E6_geofence_mission_impact,baseline_warmup,0,37.5665,126.978,20.0,0.0,,,,,,,3,12,37.5665,126.978,20.0,,,,0.0,0.0,HEARTBEAT,GPS 1: detected MAV,STABILIZE,0,0,0,0
2026-07-06T22:37:48.250089+00:00,4.5720179080963135,E6_geofence_mission_impact,baseline_warmup,0,37.5665,126.978,20.0,0.0,37.5665,126.978,20.0,0.0,0.0,0,3,12,37.5665,126.978,20.0,0.0,0.0,-0.02,0.0,0.0,GLOBAL_POSITION_INT,GPS 1: detected MAV,STABILIZE,0,0,0,0
2026-07-06T22:37:48.250180+00:00,4.572108030319214,E6_geofence_mission_impact,baseline_warmup,0,37.5665,126.978,20.0,0.0,,,,,,,3,12,37.5665,126.978,20.0,,,,0.0,0.0,MISSION_CURRENT,GPS 1: detected MAV,STABILIZE,0,0,0,0
2026-07-06T22:37:48.250338+00:00,4.572266101837158,E6_geofence_mission_impact,baseline_warmup,0,37.5665,126.978,20.0,0.0,,,,,,,3,12,37.5665,126.978,20.0,,,,0.0,0.0,GPS_RAW_INT,GPS 1: detected MAV,STABILIZE,0,0,0,0
2026-07-06T22:37:48.250367+00:00,4.572295427322388,E6_geofence_mission_impact,baseline_warmup,0,37.5665,126.978,20.0,0.0,,,,,,,3,12,37.5665,126.978,20.0,,,,0.0,0.0,FENCE_STATUS,GPS 1: detected MAV,STABILIZE,0,0,0,0
2026-07-06T22:37:48.448268+00:00,4.770217657089233,E6_geofence_mission_impact,baseline_warmup,0,37.5665,126.978,20.0,0.0,,,,,,,3,12,37.5665,126.978,20.0,,,,0.0,0.0,HEARTBEAT,GPS 1: detected MAV,STABILIZE,0,0,0,0
2026-07-06T22:37:48.448460+00:00,4.7703893184661865,E6_geofence_mission_impact,baseline_warmup,0,37.5665,126.978,20.0,0.0,37.5665,126.978,20.0,0.0,0.0,0,3,12,37.5665,126.978,20.0,0.0,0.0,-0.02,0.0,0.0,GLOBAL_POSITION_INT,GPS 1: detected MAV,STABILIZE,0,0,0,0
2026-07-06T22:37:48.448546+00:00,4.770473957061768,E6_geofence_mission_impact,baseline_warmup,0,37.5665,126.978,20.0,0.0,,,,,,,3,12,37.5665,126.978,20.0,,,,0.0,0.0,MISSION_CURRENT,GPS 1: detected MAV,STABILIZE,0,0,0,0
2026-07-06T22:37:48.448692+00:00,4.770620346069336,E6_geofence_mission_impact,baseline_warmup,0,37.5665,126.978,20.0,0.0,,,,,,,3,12,37.5665,126.978,20.0,,,,0.0,0.0,GPS_RAW_INT,GPS 1: detected MAV,STABILIZE,0,0,0,0
2026-07-06T22:37:48.448718+00:00,4.770645618438721,E6_geofence_mission_impact,baseline_warmup,0,37.5665,126.978,20.0,0.0,,,,,,,3,12,37.5665,126.978,20.0,,,,0.0,0.0,FENCE_STATUS,GPS 1: detected MAV,STABILIZE,0,0,0,0
2026-07-06T22:37:48.646595+00:00,4.968550205230713,E6_geofence_mission_impact,baseline_warmup,0,37.5665,126.978,20.0,0.0,,,,,,,3,12,37.5665,126.978,20.0,,,,0.0,0.0,HEARTBEAT,GPS 1: detected MAV,STABILIZE,0,0,0,0
2026-07-06T22:37:48.646730+00:00,4.968658685684204,E6_geofence_mission_impact,baseline_warmup,0,37.5665,126.978,20.0,0.0,37.5665,126.978,20.0,0.0,0.0,0,3,12,37.5665,126.978,20.0,0.0,0.0,-0.02,0.0,0.0,GLOBAL_POSITION_INT,GPS 1: detected MAV,STABILIZE,0,0,0,0
2026-07-06T22:37:48.646821+00:00,4.968749046325684,E6_geofence_mission_impact,baseline_warmup,0,37.5665,126.978,20.0,0.0,,,,,,,3,12,37.5665,126.978,20.0,,,,0.0,0.0,MISSION_CURRENT,GPS 1: detected MAV,STABILIZE,0,0,0,0
2026-07-06T22:37:48.646980+00:00,4.968908309936523,E6_geofence_mission_impact,baseline_warmup,0,37.5665,126.978,20.0,0.0,,,,,,,3,12,37.5665,126.978,20.0,,,,0.0,0.0,GPS_RAW_INT,GPS 1: detected MAV,STABILIZE,0,0,0,0
2026-07-06T22:37:48.647011+00:00,4.968938827514648,E6_geofence_mission_impact,baseline_warmup,0,37.5665,126.978,20.0,0.0,,,,,,,3,12,37.5665,126.978,20.0,,,,0.0,0.0,FENCE_STATUS,GPS 1: detected MAV,STABILIZE,0,0,0,0
2026-07-06T22:37:48.850444+00:00,5.172393083572388,E6_geofence_mission_impact,baseline_warmup,0,37.5665,126.978,20.0,0.0,,,,,,,3,12,37.5665,126.978,20.0,,,,0.0,0.0,HEARTBEAT,GPS 1: detected MAV,STABILIZE,0,0,0,0
2026-07-06T22:37:48.850565+00:00,5.172492980957031,E6_geofence_mission_impact,baseline_warmup,0,37.5665,126.978,20.0,0.0,37.5665,126.978,20.0,0.0,0.0,0,3,12,37.5665,126.978,20.0,0.0,0.0,-0.02,0.0,0.0,GLOBAL_POSITION_INT,GPS 1: detected MAV,STABILIZE,0,0,0,0
2026-07-06T22:37:48.850653+00:00,5.172581195831299,E6_geofence_mission_impact,baseline_warmup,0,37.5665,126.978,20.0,0.0,,,,,,,3,12,37.5665,126.978,20.0,,,,0.0,0.0,MISSION_CURRENT,GPS 1: detected MAV,STABILIZE,0,0,0,0
2026-07-06T22:37:48.850804+00:00,5.17273211479187,E6_geofence_mission_impact,baseline_warmup,0,37.5665,126.978,20.0,0.0,,,,,,,3,12,37.5665,126.978,20.0,,,,0.0,0.0,GPS_RAW_INT,GPS 1: detected MAV,STABILIZE,0,0,0,0
2026-07-06T22:37:48.850832+00:00,5.172759532928467,E6_geofence_mission_impact,baseline_warmup,0,37.5665,126.978,20.0,0.0,,,,,,,3,12,37.5665,126.978,20.0,,,,0.0,0.0,FENCE_STATUS,GPS 1: detected MAV,STABILIZE,0,0,0,0
2026-07-06T22:37:49.048957+00:00,5.370906591415405,E6_geofence_mission_impact,baseline_warmup,0,37.5665,126.978,20.0,0.0,,,,,,,3,12,37.5665,126.978,20.0,,,,0.0,0.0,HEARTBEAT,GPS 1: detected MAV,STABILIZE,0,0,0,0
2026-07-06T22:37:49.049084+00:00,5.371013164520264,E6_geofence_mission_impact,baseline_warmup,0,37.5665,126.978,20.0,0.0,37.5665,126.978,20.0,0.0,0.0,0,3,12,37.5665,126.978,20.0,0.0,0.0,-0.02,0.0,0.0,GLOBAL_POSITION_INT,GPS 1: detected MAV,STABILIZE,0,0,0,0
2026-07-06T22:37:49.049178+00:00,5.371106386184692,E6_geofence_mission_impact,baseline_warmup,0,37.5665,126.978,20.0,0.0,,,,,,,3,12,37.5665,126.978,20.0,,,,0.0,0.0,MISSION_CURRENT,GPS 1: detected MAV,STABILIZE,0,0,0,0
2026-07-06T22:37:49.049380+00:00,5.371315240859985,E6_geofence_mission_impact,baseline_warmup,0,37.5665,126.978,20.0,0.0,,,,,,,3,12,37.5665,126.978,20.0,,,,0.0,0.0,GPS_RAW_INT,GPS 1: detected MAV,STABILIZE,0,0,0,0
2026-07-06T22:37:49.049421+00:00,5.371349811553955,E6_geofence_mission_impact,baseline_warmup,0,37.5665,126.978,20.0,0.0,,,,,,,3,12,37.5665,126.978,20.0,,,,0.0,0.0,FENCE_STATUS,GPS 1: detected MAV,STABILIZE,0,0,0,0
2026-07-06T22:37:49.252798+00:00,5.574760437011719,E6_geofence_mission_impact,baseline,0,37.5665,126.978,20.0,0.0,,,,,,,3,12,37.5665,126.978,20.0,,,,0.0,0.0,HEARTBEAT,GPS 1: detected MAV,STABILIZE,0,0,0,0
2026-07-06T22:37:49.253025+00:00,5.574962615966797,E6_geofence_mission_impact,baseline,0,37.5665,126.978,20.0,0.0,37.5665,126.978,20.0,0.0,0.0,0,3,12,37.5665,126.978,20.0,0.0,0.0,-0.02,0.0,0.0,GLOBAL_POSITION_INT,GPS 1: detected MAV,STABILIZE,0,0,0,0
2026-07-06T22:37:49.253220+00:00,5.5751543045043945,E6_geofence_mission_impact,baseline,0,37.5665,126.978,20.0,0.0,,,,,,,3,12,37.5665,126.978,20.0,,,,0.0,0.0,MISSION_CURRENT,GPS 1: detected MAV,STABILIZE,0,0,0,0
2026-07-06T22:37:49.253407+00:00,5.57533597946167,E6_geofence_mission_impact,baseline,0,37.5665,126.978,20.0,0.0,,,,,,,3,12,37.5665,126.978,20.0,,,,0.0,0.0,GPS_RAW_INT,GPS 1: detected MAV,STABILIZE,0,0,0,0
2026-07-06T22:37:49.253465+00:00,5.575396776199341,E6_geofence_mission_impact,baseline,0,37.5665,126.978,20.0,0.0,,,,,,,3,12,37.5665,126.978,20.0,,,,0.0,0.0,FENCE_STATUS,GPS 1: detected MAV,STABILIZE,0,0,0,0
2026-07-06T22:37:49.451146+00:00,5.7730958461761475,E6_geofence_mission_impact,baseline,0,37.5665,126.978,20.0,0.0,,,,,,,3,12,37.5665,126.978,20.0,,,,0.0,0.0,HEARTBEAT,GPS 1: detected MAV,STABILIZE,0,0,0,0
2026-07-06T22:37:49.451264+00:00,5.7731921672821045,E6_geofence_mission_impact,baseline,0,37.5665,126.978,20.0,0.0,37.5665,126.978,20.0,0.0,0.0,0,3,12,37.5665,126.978,20.0,0.0,0.0,-0.01,0.0,0.0,GLOBAL_POSITION_INT,GPS 1: detected MAV,STABILIZE,0,0,0,0
2026-07-06T22:37:49.451352+00:00,5.773279666900635,E6_geofence_mission_impact,baseline,0,37.5665,126.978,20.0,0.0,,,,,,,3,12,37.5665,126.978,20.0,,,,0.0,0.0,MISSION_CURRENT,GPS 1: detected MAV,STABILIZE,0,0,0,0
2026-07-06T22:37:49.451501+00:00,5.773428916931152,E6_geofence_mission_impact,baseline,0,37.5665,126.978,20.0,0.0,,,,,,,3,12,37.5665,126.978,20.0,,,,0.0,0.0,GPS_RAW_INT,GPS 1: detected MAV,STABILIZE,0,0,0,0
2026-07-06T22:37:49.451528+00:00,5.773455619812012,E6_geofence_mission_impact,baseline,0,37.5665,126.978,20.0,0.0,,,,,,,3,12,37.5665,126.978,20.0,,,,0.0,0.0,FENCE_STATUS,GPS 1: detected MAV,STABILIZE,0,0,0,0
2026-07-06T22:37:49.649531+00:00,5.971480846405029,E6_geofence_mission_impact,baseline,0,37.5665,126.978,20.0,0.0,,,,,,,3,12,37.5665,126.978,20.0,,,,0.0,0.0,HEARTBEAT,GPS 1: detected MAV,STABILIZE,0,0,0,0
2026-07-06T22:37:49.649726+00:00,5.971662759780884,E6_geofence_mission_impact,baseline,0,37.5665,126.978,20.0,0.0,37.5665,126.978,20.0,0.0,0.0,0,3,12,37.5665,126.978,20.0,0.0,0.0,-0.01,0.0,0.0,GLOBAL_POSITION_INT,GPS 1: detected MAV,STABILIZE,0,0,0,0
2026-07-06T22:37:49.649860+00:00,5.971789836883545,E6_geofence_mission_impact,baseline,0,37.5665,126.978,20.0,0.0,,,,,,,3,12,37.5665,126.978,20.0,,,,0.0,0.0,MISSION_CURRENT,GPS 1: detected MAV,STABILIZE,0,0,0,0
2026-07-06T22:37:49.650017+00:00,5.971945285797119,E6_geofence_mission_impact,baseline,0,37.5665,126.978,20.0,0.0,,,,,,,3,12,37.5665,126.978,20.0,,,,0.0,0.0,GPS_RAW_INT,GPS 1: detected MAV,STABILIZE,0,0,0,0
2026-07-06T22:37:49.650043+00:00,5.971971035003662,E6_geofence_mission_impact,baseline,0,37.5665,126.978,20.0,0.0,,,,,,,3,12,37.5665,126.978,20.0,,,,0.0,0.0,FENCE_STATUS,GPS 1: detected MAV,STABILIZE,0,0,0,0
2026-07-06T22:37:49.847736+00:00,6.169684410095215,E6_geofence_mission_impact,baseline,0,37.5665,126.978,20.0,0.0,,,,,,,3,12,37.5665,126.978,20.0,,,,0.0,0.0,HEARTBEAT,GPS 1: detected MAV,STABILIZE,0,0,0,0
2026-07-06T22:37:49.847862+00:00,6.169790744781494,E6_geofence_mission_impact,baseline,0,37.5665,126.978,20.0,0.0,37.5665,126.978,20.0,0.0,0.0,0,3,12,37.5665,126.978,20.0,0.0,0.0,-0.01,0.0,0.0,GLOBAL_POSITION_INT,GPS 1: detected MAV,STABILIZE,0,0,0,0
2026-07-06T22:37:49.847951+00:00,6.169878721237183,E6_geofence_mission_impact,baseline,0,37.5665,126.978,20.0,0.0,,,,,,,3,12,37.5665,126.978,20.0,,,,0.0,0.0,MISSION_CURRENT,GPS 1: detected MAV,STABILIZE,0,0,0,0
2026-07-06T22:37:49.848103+00:00,6.170030355453491,E6_geofence_mission_impact,baseline,0,37.5665,126.978,20.0,0.0,,,,,,,3,12,37.5665,126.978,20.0,,,,0.0,0.0,GPS_RAW_INT,GPS 1: detected MAV,STABILIZE,0,0,0,0
2026-07-06T22:37:49.848128+00:00,6.170055389404297,E6_geofence_mission_impact,baseline,0,37.5665,126.978,20.0,0.0,,,,,,,3,12,37.5665,126.978,20.0,,,,0.0,0.0,FENCE_STATUS,GPS 1: detected MAV,STABILIZE,0,0,0,0
2026-07-06T22:37:50.051751+00:00,6.373698949813843,E6_geofence_mission_impact,baseline,0,37.5665,126.978,20.0,0.0,,,,,,,3,12,37.5665,126.978,20.0,,,,0.0,0.0,HEARTBEAT,GPS 1: detected MAV,STABILIZE,0,0,0,0
2026-07-06T22:37:50.051868+00:00,6.373795986175537,E6_geofence_mission_impact,baseline,0,37.5665,126.978,20.0,0.0,37.5665,126.978,20.0,0.0,0.0,0,3,12,37.5665,126.978,20.0,0.0,0.0,-0.01,0.0,0.0,GLOBAL_POSITION_INT,GPS 1: detected MAV,STABILIZE,0,0,0,0
2026-07-06T22:37:50.051951+00:00,6.3738791942596436,E6_geofence_mission_impact,baseline,0,37.5665,126.978,20.0,0.0,,,,,,,3,12,37.5665,126.978,20.0,,,,0.0,0.0,MISSION_CURRENT,GPS 1: detected MAV,STABILIZE,0,0,0,0
2026-07-06T22:37:50.052099+00:00,6.374027490615845,E6_geofence_mission_impact,baseline,0,37.5665,126.978,20.0,0.0,,,,,,,3,12,37.5665,126.978,20.0,,,,0.0,0.0,GPS_RAW_INT,GPS 1: detected MAV,STABILIZE,0,0,0,0
2026-07-06T22:37:50.052126+00:00,6.374053716659546,E6_geofence_mission_impact,baseline,0,37.5665,126.978,20.0,0.0,,,,,,,3,12,37.5665,126.978,20.0,,,,0.0,0.0,FENCE_STATUS,GPS 1: detected MAV,STABILIZE,0,0,0,0
2026-07-06T22:37:50.250020+00:00,6.571969985961914,E6_geofence_mission_impact,baseline,0,37.5665,126.978,20.0,0.0,,,,,,,3,12,37.5665,126.978,20.0,,,,0.0,0.0,HEARTBEAT,GPS 1: detected MAV,STABILIZE,0,0,0,0
2026-07-06T22:37:50.250138+00:00,6.572066307067871,E6_geofence_mission_impact,baseline,0,37.5665,126.978,20.0,0.0,37.5665,126.978,20.0,0.0,0.0,0,3,12,37.5665,126.978,20.0,0.0,0.0,-0.01,0.0,0.0,GLOBAL_POSITION_INT,GPS 1: detected MAV,STABILIZE,0,0,0,0
2026-07-06T22:37:50.250223+00:00,6.572150945663452,E6_geofence_mission_impact,baseline,0,37.5665,126.978,20.0,0.0,,,,,,,3,12,37.5665,126.978,20.0,,,,0.0,0.0,MISSION_CURRENT,GPS 1: detected MAV,STABILIZE,0,0,0,0
2026-07-06T22:37:50.250386+00:00,6.572313547134399,E6_geofence_mission_impact,baseline,0,37.5665,126.978,20.0,0.0,,,,,,,3,12,37.5665,126.978,20.0,,,,0.0,0.0,GPS_RAW_INT,GPS 1: detected MAV,STABILIZE,0,0,0,0
2026-07-06T22:37:50.250414+00:00,6.572341203689575,E6_geofence_mission_impact,baseline,0,37.5665,126.978,20.0,0.0,,,,,,,3,12,37.5665,126.978,20.0,,,,0.0,0.0,FENCE_STATUS,GPS 1: detected MAV,STABILIZE,0,0,0,0
2026-07-06T22:37:50.448342+00:00,6.770292520523071,E6_geofence_mission_impact,baseline,0,37.5665,126.978,20.0,0.0,,,,,,,3,12,37.5665,126.978,20.0,,,,0.0,0.0,HEARTBEAT,GPS 1: detected MAV,STABILIZE,0,0,0,0
2026-07-06T22:37:50.448487+00:00,6.7704174518585205,E6_geofence_mission_impact,baseline,0,37.5665,126.978,20.0,0.0,37.5665,126.978,20.0,0.0,0.0,0,3,12,37.5665,126.978,20.0,0.0,0.0,-0.01,0.0,0.0,GLOBAL_POSITION_INT,GPS 1: detected MAV,STABILIZE,0,0,0,0
2026-07-06T22:37:50.448579+00:00,6.7705066204071045,E6_geofence_mission_impact,baseline,0,37.5665,126.978,20.0,0.0,,,,,,,3,12,37.5665,126.978,20.0,,,,0.0,0.0,MISSION_CURRENT,GPS 1: detected MAV,STABILIZE,0,0,0,0
2026-07-06T22:37:50.448732+00:00,6.770659923553467,E6_geofence_mission_impact,baseline,0,37.5665,126.978,20.0,0.0,,,,,,,3,12,37.5665,126.978,20.0,,,,0.0,0.0,GPS_RAW_INT,GPS 1: detected MAV,STABILIZE,0,0,0,0
2026-07-06T22:37:50.448758+00:00,6.770685195922852,E6_geofence_mission_impact,baseline,0,37.5665,126.978,20.0,0.0,,,,,,,3,12,37.5665,126.978,20.0,,,,0.0,0.0,FENCE_STATUS,GPS 1: detected MAV,STABILIZE,0,0,0,0
2026-07-06T22:37:50.646770+00:00,6.968722343444824,E6_geofence_mission_impact,baseline,0,37.5665,126.978,20.0,0.0,,,,,,,3,12,37.5665,126.978,20.0,,,,0.0,0.0,HEARTBEAT,GPS 1: detected MAV,STABILIZE,0,0,0,0
2026-07-06T22:37:50.646926+00:00,6.968858003616333,E6_geofence_mission_impact,baseline,0,37.5665,126.978,20.0,0.0,37.5665,126.978,20.0,0.0,0.0,0,3,12,37.5665,126.978,20.0,0.0,0.0,-0.01,0.0,0.0,GLOBAL_POSITION_INT,GPS 1: detected MAV,STABILIZE,0,0,0,0
2026-07-06T22:37:50.647054+00:00,6.968983888626099,E6_geofence_mission_impact,baseline,0,37.5665,126.978,20.0,0.0,,,,,,,3,12,37.5665,126.978,20.0,,,,0.0,0.0,MISSION_CURRENT,GPS 1: detected MAV,STABILIZE,0,0,0,0
2026-07-06T22:37:50.647268+00:00,6.96919846534729,E6_geofence_mission_impact,baseline,0,37.5665,126.978,20.0,0.0,,,,,,,3,12,37.5665,126.978,20.0,,,,0.0,0.0,GPS_RAW_INT,GPS 1: detected MAV,STABILIZE,0,0,0,0
2026-07-06T22:37:50.647308+00:00,6.969236850738525,E6_geofence_mission_impact,baseline,0,37.5665,126.978,20.0,0.0,,,,,,,3,12,37.5665,126.978,20.0,,,,0.0,0.0,FENCE_STATUS,GPS 1: detected MAV,STABILIZE,0,0,0,0
2026-07-06T22:37:50.850644+00:00,7.172593832015991,E6_geofence_mission_impact,baseline,0,37.5665,126.978,20.0,0.0,,,,,,,3,12,37.5665,126.978,20.0,,,,0.0,0.0,HEARTBEAT,GPS 1: detected MAV,STABILIZE,0,0,0,0
2026-07-06T22:37:50.850767+00:00,7.172695636749268,E6_geofence_mission_impact,baseline,0,37.5665,126.978,20.0,0.0,37.5665,126.978,20.0,0.0,0.0,0,3,12,37.5665,126.978,20.0,0.0,0.0,-0.01,0.0,0.0,GLOBAL_POSITION_INT,GPS 1: detected MAV,STABILIZE,0,0,0,0
2026-07-06T22:37:50.850854+00:00,7.172781467437744,E6_geofence_mission_impact,baseline,0,37.5665,126.978,20.0,0.0,,,,,,,3,12,37.5665,126.978,20.0,,,,0.0,0.0,MISSION_CURRENT,GPS 1: detected MAV,STABILIZE,0,0,0,0
2026-07-06T22:37:50.851010+00:00,7.172937631607056,E6_geofence_mission_impact,baseline,0,37.5665,126.978,20.0,0.0,,,,,,,3,12,37.5665,126.978,20.0,,,,0.0,0.0,GPS_RAW_INT,GPS 1: detected MAV,STABILIZE,0,0,0,0
2026-07-06T22:37:50.851036+00:00,7.172963619232178,E6_geofence_mission_impact,baseline,0,37.5665,126.978,20.0,0.0,,,,,,,3,12,37.5665,126.978,20.0,,,,0.0,0.0,FENCE_STATUS,GPS 1: detected MAV,STABILIZE,0,0,0,0
2026-07-06T22:37:51.049167+00:00,7.371116399765015,E6_geofence_mission_impact,baseline,0,37.5665,126.978,20.0,0.0,,,,,,,3,12,37.5665,126.978,20.0,,,,0.0,0.0,HEARTBEAT,GPS 1: detected MAV,STABILIZE,0,0,0,0
2026-07-06T22:37:51.049318+00:00,7.371249675750732,E6_geofence_mission_impact,baseline,0,37.5665,126.978,20.0,0.0,37.5665,126.978,20.0,0.0,0.0,0,3,12,37.5665,126.978,20.0,0.0,0.0,-0.01,0.0,0.0,GLOBAL_POSITION_INT,GPS 1: detected MAV,STABILIZE,0,0,0,0
2026-07-06T22:37:51.049415+00:00,7.37134313583374,E6_geofence_mission_impact,baseline,0,37.5665,126.978,20.0,0.0,,,,,,,3,12,37.5665,126.978,20.0,,,,0.0,0.0,MISSION_CURRENT,GPS 1: detected MAV,STABILIZE,0,0,0,0
2026-07-06T22:37:51.049610+00:00,7.371541500091553,E6_geofence_mission_impact,baseline,0,37.5665,126.978,20.0,0.0,,,,,,,3,12,37.5665,126.978,20.0,,,,0.0,0.0,GPS_RAW_INT,GPS 1: detected MAV,STABILIZE,0,0,0,0
2026-07-06T22:37:51.049648+00:00,7.3715760707855225,E6_geofence_mission_impact,baseline,0,37.5665,126.978,20.0,0.0,,,,,,,3,12,37.5665,126.978,20.0,,,,0.0,0.0,FENCE_STATUS,GPS 1: detected MAV,STABILIZE,0,0,0,0
2026-07-06T22:37:51.247310+00:00,7.569261074066162,E6_geofence_mission_impact,baseline,0,37.5665,126.978,20.0,0.0,,,,,,,3,12,37.5665,126.978,20.0,,,,0.0,0.0,HEARTBEAT,GPS 1: detected MAV,STABILIZE,0,0,0,0
2026-07-06T22:37:51.247435+00:00,7.569363355636597,E6_geofence_mission_impact,baseline,0,37.5665,126.978,20.0,0.0,37.5665,126.978,20.0,0.0,0.0,0,3,12,37.5665,126.978,20.0,0.0,0.0,-0.01,0.0,0.0,GLOBAL_POSITION_INT,GPS 1: detected MAV,STABILIZE,0,0,0,0
2026-07-06T22:37:51.247526+00:00,7.569454669952393,E6_geofence_mission_impact,baseline,0,37.5665,126.978,20.0,0.0,,,,,,,3,12,37.5665,126.978,20.0,,,,0.0,0.0,MISSION_CURRENT,GPS 1: detected MAV,STABILIZE,0,0,0,0
2026-07-06T22:37:51.247678+00:00,7.569605588912964,E6_geofence_mission_impact,baseline,0,37.5665,126.978,20.0,0.0,,,,,,,3,12,37.5665,126.978,20.0,,,,0.0,0.0,GPS_RAW_INT,GPS 1: detected MAV,STABILIZE,0,0,0,0
2026-07-06T22:37:51.247705+00:00,7.5696330070495605,E6_geofence_mission_impact,baseline,0,37.5665,126.978,20.0,0.0,,,,,,,3,12,37.5665,126.978,20.0,,,,0.0,0.0,FENCE_STATUS,GPS 1: detected MAV,STABILIZE,0,0,0,0
2026-07-06T22:37:51.451335+00:00,7.773287534713745,E6_geofence_mission_impact,baseline,0,37.5665,126.978,20.0,0.0,,,,,,,3,12,37.5665,126.978,20.0,,,,0.0,0.0,HEARTBEAT,GPS 1: detected MAV,STABILIZE,0,0,0,0
2026-07-06T22:37:51.451479+00:00,7.77340841293335,E6_geofence_mission_impact,baseline,0,37.5665,126.978,20.0,0.0,37.5665,126.978,20.0,0.0,0.0,0,3,12,37.5665,126.978,20.0,0.0,0.0,-0.01,0.0,0.0,GLOBAL_POSITION_INT,GPS 1: detected MAV,STABILIZE,0,0,0,0
2026-07-06T22:37:51.451588+00:00,7.773518085479736,E6_geofence_mission_impact,baseline,0,37.5665,126.978,20.0,0.0,,,,,,,3,12,37.5665,126.978,20.0,,,,0.0,0.0,MISSION_CURRENT,GPS 1: detected MAV,STABILIZE,0,0,0,0
2026-07-06T22:37:51.451784+00:00,7.7737133502960205,E6_geofence_mission_impact,baseline,0,37.5665,126.978,20.0,0.0,,,,,,,3,12,37.5665,126.978,20.0,,,,0.0,0.0,GPS_RAW_INT,GPS 1: detected MAV,STABILIZE,0,0,0,0
2026-07-06T22:37:51.451820+00:00,7.773748159408569,E6_geofence_mission_impact,baseline,0,37.5665,126.978,20.0,0.0,,,,,,,3,12,37.5665,126.978,20.0,,,,0.0,0.0,FENCE_STATUS,GPS 1: detected MAV,STABILIZE,0,0,0,0
2026-07-06T22:37:51.649660+00:00,7.971615552902222,E6_geofence_mission_impact,baseline,0,37.5665,126.978,20.0,0.0,,,,,,,3,12,37.5665,126.978,20.0,,,,0.0,0.0,HEARTBEAT,GPS 1: detected MAV,STABILIZE,0,0,0,0
2026-07-06T22:37:51.649867+00:00,7.971803665161133,E6_geofence_mission_impact,baseline,0,37.5665,126.978,20.0,0.0,37.5665,126.978,20.0,0.0,0.0,0,3,12,37.5665,126.978,20.0,0.0,0.0,-0.01,0.0,0.0,GLOBAL_POSITION_INT,GPS 1: detected MAV,STABILIZE,0,0,0,0
2026-07-06T22:37:51.650039+00:00,7.971967458724976,E6_geofence_mission_impact,baseline,0,37.5665,126.978,20.0,0.0,,,,,,,3,12,37.5665,126.978,20.0,,,,0.0,0.0,MISSION_CURRENT,GPS 1: detected MAV,STABILIZE,0,0,0,0
2026-07-06T22:37:51.650191+00:00,7.972119569778442,E6_geofence_mission_impact,baseline,0,37.5665,126.978,20.0,0.0,,,,,,,3,12,37.5665,126.978,20.0,,,,0.0,0.0,GPS_RAW_INT,GPS 1: detected MAV,STABILIZE,0,0,0,0
2026-07-06T22:37:51.650219+00:00,7.97214674949646,E6_geofence_mission_impact,baseline,0,37.5665,126.978,20.0,0.0,,,,,,,3,12,37.5665,126.978,20.0,,,,0.0,0.0,FENCE_STATUS,GPS 1: detected MAV,STABILIZE,0,0,0,0
2026-07-06T22:37:51.847833+00:00,8.169781684875488,E6_geofence_mission_impact,baseline,0,37.5665,126.978,20.0,0.0,,,,,,,3,12,37.5665,126.978,20.0,,,,0.0,0.0,HEARTBEAT,GPS 1: detected MAV,STABILIZE,0,0,0,0
2026-07-06T22:37:51.847950+00:00,8.169878721237183,E6_geofence_mission_impact,baseline,0,37.5665,126.978,20.0,0.0,37.5665,126.978,20.0,0.0,0.0,0,3,12,37.5665,126.978,20.0,0.0,0.0,-0.01,0.0,0.0,GLOBAL_POSITION_INT,GPS 1: detected MAV,STABILIZE,0,0,0,0
2026-07-06T22:37:51.848042+00:00,8.169970750808716,E6_geofence_mission_impact,baseline,0,37.5665,126.978,20.0,0.0,,,,,,,3,12,37.5665,126.978,20.0,,,,0.0,0.0,MISSION_CURRENT,GPS 1: detected MAV,STABILIZE,0,0,0,0
2026-07-06T22:37:51.848296+00:00,8.170235395431519,E6_geofence_mission_impact,baseline,0,37.5665,126.978,20.0,0.0,,,,,,,3,12,37.5665,126.978,20.0,,,,0.0,0.0,GPS_RAW_INT,GPS 1: detected MAV,STABILIZE,0,0,0,0
2026-07-06T22:37:51.848348+00:00,8.170276641845703,E6_geofence_mission_impact,baseline,0,37.5665,126.978,20.0,0.0,,,,,,,3,12,37.5665,126.978,20.0,,,,0.0,0.0,FENCE_STATUS,GPS 1: detected MAV,STABILIZE,0,0,0,0
2026-07-06T22:37:52.051970+00:00,8.373919248580933,E6_geofence_mission_impact,baseline,0,37.5665,126.978,20.0,0.0,,,,,,,3,12,37.5665,126.978,20.0,,,,0.0,0.0,HEARTBEAT,GPS 1: detected MAV,STABILIZE,0,0,0,0
2026-07-06T22:37:52.052094+00:00,8.374023199081421,E6_geofence_mission_impact,baseline,0,37.5665,126.978,20.0,0.0,37.5665,126.978,20.0,0.0,0.0,0,3,12,37.5665,126.978,20.0,0.0,0.0,-0.01,0.0,0.0,GLOBAL_POSITION_INT,GPS 1: detected MAV,STABILIZE,0,0,0,0
2026-07-06T22:37:52.052186+00:00,8.3741135597229,E6_geofence_mission_impact,baseline,0,37.5665,126.978,20.0,0.0,,,,,,,3,12,37.5665,126.978,20.0,,,,0.0,0.0,MISSION_CURRENT,GPS 1: detected MAV,STABILIZE,0,0,0,0
2026-07-06T22:37:52.052341+00:00,8.374268531799316,E6_geofence_mission_impact,baseline,0,37.5665,126.978,20.0,0.0,,,,,,,3,12,37.5665,126.978,20.0,,,,0.0,0.0,GPS_RAW_INT,GPS 1: detected MAV,STABILIZE,0,0,0,0
2026-07-06T22:37:52.052368+00:00,8.374295711517334,E6_geofence_mission_impact,baseline,0,37.5665,126.978,20.0,0.0,,,,,,,3,12,37.5665,126.978,20.0,,,,0.0,0.0,FENCE_STATUS,GPS 1: detected MAV,STABILIZE,0,0,0,0
2026-07-06T22:37:52.250262+00:00,8.572213649749756,E6_geofence_mission_impact,baseline,0,37.5665,126.978,20.0,0.0,,,,,,,3,12,37.5665,126.978,20.0,,,,0.0,0.0,HEARTBEAT,GPS 1: detected MAV,STABILIZE,0,0,0,0
2026-07-06T22:37:52.250407+00:00,8.57233738899231,E6_geofence_mission_impact,baseline,0,37.5665,126.978,20.0,0.0,37.5665,126.978,20.0,0.0,0.0,0,3,12,37.5665,126.978,20.0,0.0,0.0,-0.01,0.0,0.0,GLOBAL_POSITION_INT,GPS 1: detected MAV,STABILIZE,0,0,0,0
2026-07-06T22:37:52.250516+00:00,8.572444915771484,E6_geofence_mission_impact,baseline,0,37.5665,126.978,20.0,0.0,,,,,,,3,12,37.5665,126.978,20.0,,,,0.0,0.0,MISSION_CURRENT,GPS 1: detected MAV,STABILIZE,0,0,0,0
2026-07-06T22:37:52.250767+00:00,8.572702169418335,E6_geofence_mission_impact,baseline,0,37.5665,126.978,20.0,0.0,,,,,,,3,12,37.5665,126.978,20.0,,,,0.0,0.0,GPS_RAW_INT,GPS 1: detected MAV,STABILIZE,0,0,0,0
2026-07-06T22:37:52.250805+00:00,8.57273268699646,E6_geofence_mission_impact,baseline,0,37.5665,126.978,20.0,0.0,,,,,,,3,12,37.5665,126.978,20.0,,,,0.0,0.0,FENCE_STATUS,GPS 1: detected MAV,STABILIZE,0,0,0,0
2026-07-06T22:37:52.448529+00:00,8.770478963851929,E6_geofence_mission_impact,baseline,0,37.5665,126.978,20.0,0.0,,,,,,,3,12,37.5665,126.978,20.0,,,,0.0,0.0,HEARTBEAT,GPS 1: detected MAV,STABILIZE,0,0,0,0
2026-07-06T22:37:52.448652+00:00,8.770580768585205,E6_geofence_mission_impact,baseline,0,37.5665,126.978,20.0,0.0,37.5665,126.978,20.0,0.0,0.0,0,3,12,37.5665,126.978,20.0,0.0,0.0,-0.01,0.0,0.0,GLOBAL_POSITION_INT,GPS 1: detected MAV,STABILIZE,0,0,0,0
2026-07-06T22:37:52.448740+00:00,8.770667791366577,E6_geofence_mission_impact,baseline,0,37.5665,126.978,20.0,0.0,,,,,,,3,12,37.5665,126.978,20.0,,,,0.0,0.0,MISSION_CURRENT,GPS 1: detected MAV,STABILIZE,0,0,0,0
2026-07-06T22:37:52.448973+00:00,8.77090835571289,E6_geofence_mission_impact,baseline,0,37.5665,126.978,20.0,0.0,,,,,,,3,12,37.5665,126.978,20.0,,,,0.0,0.0,GPS_RAW_INT,GPS 1: detected MAV,STABILIZE,0,0,0,0
2026-07-06T22:37:52.449012+00:00,8.770939826965332,E6_geofence_mission_impact,baseline,0,37.5665,126.978,20.0,0.0,,,,,,,3,12,37.5665,126.978,20.0,,,,0.0,0.0,FENCE_STATUS,GPS 1: detected MAV,STABILIZE,0,0,0,0
2026-07-06T22:37:52.646756+00:00,8.968708038330078,E6_geofence_mission_impact,baseline,0,37.5665,126.978,20.0,0.0,,,,,,,3,12,37.5665,126.978,20.0,,,,0.0,0.0,HEARTBEAT,GPS 1: detected MAV,STABILIZE,0,0,0,0
2026-07-06T22:37:52.646881+00:00,8.968809127807617,E6_geofence_mission_impact,baseline,0,37.5665,126.978,20.0,0.0,37.5665,126.978,20.0,0.0,0.0,0,3,12,37.5665,126.978,20.0,0.0,0.0,-0.01,0.0,0.0,GLOBAL_POSITION_INT,GPS 1: detected MAV,STABILIZE,0,0,0,0
2026-07-06T22:37:52.646970+00:00,8.968898296356201,E6_geofence_mission_impact,baseline,0,37.5665,126.978,20.0,0.0,,,,,,,3,12,37.5665,126.978,20.0,,,,0.0,0.0,MISSION_CURRENT,GPS 1: detected MAV,STABILIZE,0,0,0,0
2026-07-06T22:37:52.647125+00:00,8.969053268432617,E6_geofence_mission_impact,baseline,0,37.5665,126.978,20.0,0.0,,,,,,,3,12,37.5665,126.978,20.0,,,,0.0,0.0,GPS_RAW_INT,GPS 1: detected MAV,STABILIZE,0,0,0,0
2026-07-06T22:37:52.647153+00:00,8.969080686569214,E6_geofence_mission_impact,baseline,0,37.5665,126.978,20.0,0.0,,,,,,,3,12,37.5665,126.978,20.0,,,,0.0,0.0,FENCE_STATUS,GPS 1: detected MAV,STABILIZE,0,0,0,0
2026-07-06T22:37:52.850722+00:00,9.1726713180542,E6_geofence_mission_impact,baseline,0,37.5665,126.978,20.0,0.0,,,,,,,3,12,37.5665,126.978,20.0,,,,0.0,0.0,HEARTBEAT,GPS 1: detected MAV,STABILIZE,0,0,0,0
2026-07-06T22:37:52.850856+00:00,9.172784805297852,E6_geofence_mission_impact,baseline,0,37.5665,126.978,20.0,0.0,37.5665,126.978,20.0,0.0,0.0,0,3,12,37.5665,126.978,20.0,0.0,0.0,-0.01,0.0,0.0,GLOBAL_POSITION_INT,GPS 1: detected MAV,STABILIZE,0,0,0,0
2026-07-06T22:37:52.850944+00:00,9.172871351242065,E6_geofence_mission_impact,baseline,0,37.5665,126.978,20.0,0.0,,,,,,,3,12,37.5665,126.978,20.0,,,,0.0,0.0,MISSION_CURRENT,GPS 1: detected MAV,STABILIZE,0,0,0,0
2026-07-06T22:37:52.851097+00:00,9.173024654388428,E6_geofence_mission_impact,baseline,0,37.5665,126.978,20.0,0.0,,,,,,,3,12,37.5665,126.978,20.0,,,,0.0,0.0,GPS_RAW_INT,GPS 1: detected MAV,STABILIZE,0,0,0,0
2026-07-06T22:37:52.851123+00:00,9.173050880432129,E6_geofence_mission_impact,baseline,0,37.5665,126.978,20.0,0.0,,,,,,,3,12,37.5665,126.978,20.0,,,,0.0,0.0,FENCE_STATUS,GPS 1: detected MAV,STABILIZE,0,0,0,0
2026-07-06T22:37:53.049199+00:00,9.371153831481934,E6_geofence_mission_impact,baseline,0,37.5665,126.978,20.0,0.0,,,,,,,3,12,37.5665,126.978,20.0,,,,0.0,0.0,HEARTBEAT,GPS 1: detected MAV,STABILIZE,0,0,0,0
2026-07-06T22:37:53.049374+00:00,9.371310234069824,E6_geofence_mission_impact,baseline,0,37.5665,126.978,20.0,0.0,37.5665,126.978,20.0,0.0,0.0,0,3,12,37.5665,126.978,20.0,0.0,0.0,0.0,0.0,0.0,GLOBAL_POSITION_INT,GPS 1: detected MAV,STABILIZE,0,0,0,0
2026-07-06T22:37:53.049503+00:00,9.37143349647522,E6_geofence_mission_impact,baseline,0,37.5665,126.978,20.0,0.0,,,,,,,3,12,37.5665,126.978,20.0,,,,0.0,0.0,MISSION_CURRENT,GPS 1: detected MAV,STABILIZE,0,0,0,0
2026-07-06T22:37:53.049712+00:00,9.371642351150513,E6_geofence_mission_impact,baseline,0,37.5665,126.978,20.0,0.0,,,,,,,3,12,37.5665,126.978,20.0,,,,0.0,0.0,GPS_RAW_INT,GPS 1: detected MAV,STABILIZE,0,0,0,0
2026-07-06T22:37:53.049750+00:00,9.371678590774536,E6_geofence_mission_impact,baseline,0,37.5665,126.978,20.0,0.0,,,,,,,3,12,37.5665,126.978,20.0,,,,0.0,0.0,FENCE_STATUS,GPS 1: detected MAV,STABILIZE,0,0,0,0
2026-07-06T22:37:53.247482+00:00,9.569430828094482,E6_geofence_mission_impact,baseline,0,37.5665,126.978,20.0,0.0,,,,,,,3,12,37.5665,126.978,20.0,,,,0.0,0.0,HEARTBEAT,GPS 1: detected MAV,STABILIZE,0,0,0,0
2026-07-06T22:37:53.247599+00:00,9.569527864456177,E6_geofence_mission_impact,baseline,0,37.5665,126.978,20.0,0.0,37.5665,126.978,20.0,0.0,0.0,0,3,12,37.5665,126.978,20.0,0.0,0.0,0.0,0.0,0.0,GLOBAL_POSITION_INT,GPS 1: detected MAV,STABILIZE,0,0,0,0
2026-07-06T22:37:53.247687+00:00,9.56961464881897,E6_geofence_mission_impact,baseline,0,37.5665,126.978,20.0,0.0,,,,,,,3,12,37.5665,126.978,20.0,,,,0.0,0.0,MISSION_CURRENT,GPS 1: detected MAV,STABILIZE,0,0,0,0
2026-07-06T22:37:53.247839+00:00,9.569766998291016,E6_geofence_mission_impact,baseline,0,37.5665,126.978,20.0,0.0,,,,,,,3,12,37.5665,126.978,20.0,,,,0.0,0.0,GPS_RAW_INT,GPS 1: detected MAV,STABILIZE,0,0,0,0
2026-07-06T22:37:53.247867+00:00,9.56979513168335,E6_geofence_mission_impact,baseline,0,37.5665,126.978,20.0,0.0,,,,,,,3,12,37.5665,126.978,20.0,,,,0.0,0.0,FENCE_STATUS,GPS 1: detected MAV,STABILIZE,0,0,0,0
2026-07-06T22:37:53.451446+00:00,9.773396015167236,E6_geofence_mission_impact,baseline,0,37.5665,126.978,20.0,0.0,,,,,,,3,12,37.5665,126.978,20.0,,,,0.0,0.0,HEARTBEAT,GPS 1: detected MAV,STABILIZE,0,0,0,0
2026-07-06T22:37:53.451564+00:00,9.773492336273193,E6_geofence_mission_impact,baseline,0,37.5665,126.978,20.0,0.0,37.5665,126.978,20.0,0.0,0.0,0,3,12,37.5665,126.978,20.0,0.0,0.0,0.0,0.0,0.0,GLOBAL_POSITION_INT,GPS 1: detected MAV,STABILIZE,0,0,0,0
2026-07-06T22:37:53.451651+00:00,9.773578405380249,E6_geofence_mission_impact,baseline,0,37.5665,126.978,20.0,0.0,,,,,,,3,12,37.5665,126.978,20.0,,,,0.0,0.0,MISSION_CURRENT,GPS 1: detected MAV,STABILIZE,0,0,0,0
2026-07-06T22:37:53.451806+00:00,9.773734331130981,E6_geofence_mission_impact,baseline,0,37.5665,126.978,20.0,0.0,,,,,,,3,12,37.5665,126.978,20.0,,,,0.0,0.0,GPS_RAW_INT,GPS 1: detected MAV,STABILIZE,0,0,0,0
2026-07-06T22:37:53.451833+00:00,9.77376103401184,E6_geofence_mission_impact,baseline,0,37.5665,126.978,20.0,0.0,,,,,,,3,12,37.5665,126.978,20.0,,,,0.0,0.0,FENCE_STATUS,GPS 1: detected MAV,STABILIZE,0,0,0,0
2026-07-06T22:37:53.649887+00:00,9.971842288970947,E6_geofence_mission_impact,baseline,0,37.5665,126.978,20.0,0.0,,,,,,,3,12,37.5665,126.978,20.0,,,,0.0,0.0,HEARTBEAT,GPS 1: detected MAV,STABILIZE,0,0,0,0
2026-07-06T22:37:53.650068+00:00,9.9719979763031,E6_geofence_mission_impact,baseline,0,37.5665,126.978,20.0,0.0,37.5665,126.978,20.0,0.0,0.0,0,3,12,37.5665,126.978,20.0,0.0,0.0,0.0,0.0,0.0,GLOBAL_POSITION_INT,GPS 1: detected MAV,STABILIZE,0,0,0,0
2026-07-06T22:37:53.650210+00:00,9.972139120101929,E6_geofence_mission_impact,baseline,0,37.5665,126.978,20.0,0.0,,,,,,,3,12,37.5665,126.978,20.0,,,,0.0,0.0,MISSION_CURRENT,GPS 1: detected MAV,STABILIZE,0,0,0,0
2026-07-06T22:37:53.650449+00:00,9.972378015518188,E6_geofence_mission_impact,baseline,0,37.5665,126.978,20.0,0.0,,,,,,,3,12,37.5665,126.978,20.0,,,,0.0,0.0,GPS_RAW_INT,GPS 1: detected MAV,STABILIZE,0,0,0,0
2026-07-06T22:37:53.650496+00:00,9.972424507141113,E6_geofence_mission_impact,baseline,0,37.5665,126.978,20.0,0.0,,,,,,,3,12,37.5665,126.978,20.0,,,,0.0,0.0,FENCE_STATUS,GPS 1: detected MAV,STABILIZE,0,0,0,0
2026-07-06T22:37:53.848039+00:00,10.169988870620728,E6_geofence_mission_impact,baseline,0,37.5665,126.978,20.0,0.0,,,,,,,3,12,37.5665,126.978,20.0,,,,0.0,0.0,HEARTBEAT,GPS 1: detected MAV,STABILIZE,0,0,0,0
2026-07-06T22:37:53.848156+00:00,10.170084238052368,E6_geofence_mission_impact,baseline,0,37.5665,126.978,20.0,0.0,37.5665,126.978,20.0,0.0,0.0,0,3,12,37.5665,126.978,20.0,0.0,0.0,0.0,0.0,0.0,GLOBAL_POSITION_INT,GPS 1: detected MAV,STABILIZE,0,0,0,0
2026-07-06T22:37:53.848238+00:00,10.170165538787842,E6_geofence_mission_impact,baseline,0,37.5665,126.978,20.0,0.0,,,,,,,3,12,37.5665,126.978,20.0,,,,0.0,0.0,MISSION_CURRENT,GPS 1: detected MAV,STABILIZE,0,0,0,0
2026-07-06T22:37:53.848384+00:00,10.170311450958252,E6_geofence_mission_impact,baseline,0,37.5665,126.978,20.0,0.0,,,,,,,3,12,37.5665,126.978,20.0,,,,0.0,0.0,GPS_RAW_INT,GPS 1: detected MAV,STABILIZE,0,0,0,0
2026-07-06T22:37:53.848410+00:00,10.170337200164795,E6_geofence_mission_impact,baseline,0,37.5665,126.978,20.0,0.0,,,,,,,3,12,37.5665,126.978,20.0,,,,0.0,0.0,FENCE_STATUS,GPS 1: detected MAV,STABILIZE,0,0,0,0
2026-07-06T22:37:54.052157+00:00,10.37410569190979,E6_geofence_mission_impact,baseline,0,37.5665,126.978,20.0,0.0,,,,,,,3,12,37.5665,126.978,20.0,,,,0.0,0.0,HEARTBEAT,GPS 1: detected MAV,STABILIZE,0,0,0,0
2026-07-06T22:37:54.052370+00:00,10.374301195144653,E6_geofence_mission_impact,baseline,0,37.5665,126.978,20.0,0.0,37.5665,126.978,20.0,0.0,0.0,0,3,12,37.5665,126.978,20.0,0.0,0.0,0.0,0.0,0.0,GLOBAL_POSITION_INT,GPS 1: detected MAV,STABILIZE,0,0,0,0
2026-07-06T22:37:54.052473+00:00,10.374401569366455,E6_geofence_mission_impact,baseline,0,37.5665,126.978,20.0,0.0,,,,,,,3,12,37.5665,126.978,20.0,,,,0.0,0.0,MISSION_CURRENT,GPS 1: detected MAV,STABILIZE,0,0,0,0
2026-07-06T22:37:54.052620+00:00,10.374547481536865,E6_geofence_mission_impact,baseline,0,37.5665,126.978,20.0,0.0,,,,,,,3,12,37.5665,126.978,20.0,,,,0.0,0.0,GPS_RAW_INT,GPS 1: detected MAV,STABILIZE,0,0,0,0
2026-07-06T22:37:54.052646+00:00,10.374573945999146,E6_geofence_mission_impact,baseline,0,37.5665,126.978,20.0,0.0,,,,,,,3,12,37.5665,126.978,20.0,,,,0.0,0.0,FENCE_STATUS,GPS 1: detected MAV,STABILIZE,0,0,0,0
2026-07-06T22:37:54.069569+00:00,10.391515970230103,E6_geofence_mission_impact,baseline,0,37.5665,126.978,20.0,0.0,,,,,,,3,12,37.5665,126.978,20.0,,,,0.0,0.0,STATUSTEXT,EKF3 IMU0 origin set,STABILIZE,0,0,0,0
2026-07-06T22:37:54.075307+00:00,10.397258281707764,E6_geofence_mission_impact,baseline,0,37.5665,126.978,20.0,0.0,,,,,,,3,12,37.5665,126.978,20.0,,,,0.0,0.0,STATUSTEXT,EKF3 IMU1 origin set,STABILIZE,0,0,0,0
2026-07-06T22:37:54.162934+00:00,10.48488450050354,E6_geofence_mission_impact,baseline,0,37.5665,126.978,20.0,0.0,,,,,,,3,12,37.5665,126.978,20.0,,,,0.0,0.0,STATUSTEXT,Field Elevation Set: 20m,STABILIZE,0,0,0,0
2026-07-06T22:37:54.250382+00:00,10.572332859039307,E6_geofence_mission_impact,baseline,0,37.5665,126.978,20.0,0.0,,,,,,,3,12,37.5665,126.978,20.0,,,,0.0,0.0,HEARTBEAT,Field Elevation Set: 20m,STABILIZE,0,0,0,0
2026-07-06T22:37:54.250517+00:00,10.572449922561646,E6_geofence_mission_impact,baseline,0,37.5665,126.978,20.0,0.0,37.5665,126.978,20.0,0.0,0.0,0,3,12,37.5665,126.978,20.0,0.0,0.0,0.0,0.0,0.0,GLOBAL_POSITION_INT,Field Elevation Set: 20m,STABILIZE,0,0,0,0
2026-07-06T22:37:54.250658+00:00,10.572591543197632,E6_geofence_mission_impact,baseline,0,37.5665,126.978,20.0,0.0,,,,,,,3,12,37.5665,126.978,20.0,,,,0.0,0.0,MISSION_CURRENT,Field Elevation Set: 20m,STABILIZE,0,0,0,0
2026-07-06T22:37:54.250959+00:00,10.572890996932983,E6_geofence_mission_impact,baseline,0,37.5665,126.978,20.0,0.0,,,,,,,3,12,37.5665,126.978,20.0,,,,0.0,0.0,GPS_RAW_INT,Field Elevation Set: 20m,STABILIZE,0,0,0,0
2026-07-06T22:37:54.250994+00:00,10.572921991348267,E6_geofence_mission_impact,baseline,0,37.5665,126.978,20.0,0.0,,,,,,,3,12,37.5665,126.978,20.0,,,,0.0,0.0,FENCE_STATUS,Field Elevation Set: 20m,STABILIZE,0,0,0,0
2026-07-06T22:37:54.448700+00:00,10.770650148391724,E6_geofence_mission_impact,baseline,0,37.5665,126.978,20.0,0.0,,,,,,,3,12,37.5665,126.978,20.0,,,,0.0,0.0,HEARTBEAT,Field Elevation Set: 20m,STABILIZE,0,0,0,0
