timestamp,elapsed_s,experiment,phase,sample_index,target_lat,target_lon,target_alt,target_drift_m,obs_lat,obs_lon,obs_alt,official_drift_m,target_error_m,reflected,gps_fix_type,gps_satellites,gps_raw_lat,gps_raw_lon,gps_raw_alt,vn,ve,vd,commanded_speed_mps,commanded_accel_mps2,message_type,status_text,mode,mission_seq,fence_breach_status,fence_breach_count,fence_breach_type
2026-07-07T02:43:40.501826+00:00,0.011482954025268555,E20_mission_edit,warmup,0,37.5665,126.978,20.0,0.0,,,,,,,,,,,,,,,0.0,0.0,STATUSTEXT,GPS 1: detected MAV,,,,,
2026-07-07T02:43:40.671419+00:00,0.18107819557189941,E20_mission_edit,warmup,0,37.5665,126.978,20.0,0.0,,,,,,,,,,,,,,,0.0,0.0,HEARTBEAT,GPS 1: detected MAV,STABILIZE,,,,
2026-07-07T02:43:40.671627+00:00,0.1812725067138672,E20_mission_edit,warmup,0,37.5665,126.978,20.0,0.0,37.5665,126.978,20.0,0.0,0.0,0,,,,,,0.0,0.0,-0.02,0.0,0.0,GLOBAL_POSITION_INT,GPS 1: detected MAV,STABILIZE,,,,
2026-07-07T02:43:40.671756+00:00,0.18139410018920898,E20_mission_edit,warmup,0,37.5665,126.978,20.0,0.0,,,,,,,,,,,,,,,0.0,0.0,MISSION_CURRENT,GPS 1: detected MAV,STABILIZE,0,,,
2026-07-07T02:43:40.671946+00:00,0.18158388137817383,E20_mission_edit,warmup,0,37.5665,126.978,20.0,0.0,,,,,,,3,12,37.5665,126.978,20.0,,,,0.0,0.0,GPS_RAW_INT,GPS 1: detected MAV,STABILIZE,0,,,
2026-07-07T02:43:40.671984+00:00,0.18161988258361816,E20_mission_edit,warmup,0,37.5665,126.978,20.0,0.0,,,,,,,3,12,37.5665,126.978,20.0,,,,0.0,0.0,FENCE_STATUS,GPS 1: detected MAV,STABILIZE,0,0,0,0
2026-07-07T02:43:40.870832+00:00,0.38048744201660156,E20_mission_edit,warmup,0,37.5665,126.978,20.0,0.0,,,,,,,3,12,37.5665,126.978,20.0,,,,0.0,0.0,HEARTBEAT,GPS 1: detected MAV,STABILIZE,0,0,0,0
2026-07-07T02:43:40.870995+00:00,0.38063716888427734,E20_mission_edit,warmup,0,37.5665,126.978,20.0,0.0,37.5665,126.978,20.0,0.0,0.0,0,3,12,37.5665,126.978,20.0,0.0,0.0,-0.02,0.0,0.0,GLOBAL_POSITION_INT,GPS 1: detected MAV,STABILIZE,0,0,0,0
2026-07-07T02:43:40.871149+00:00,0.38079166412353516,E20_mission_edit,warmup,0,37.5665,126.978,20.0,0.0,,,,,,,3,12,37.5665,126.978,20.0,,,,0.0,0.0,MISSION_CURRENT,GPS 1: detected MAV,STABILIZE,0,0,0,0
2026-07-07T02:43:40.871404+00:00,0.38104677200317383,E20_mission_edit,warmup,0,37.5665,126.978,20.0,0.0,,,,,,,3,12,37.5665,126.978,20.0,,,,0.0,0.0,GPS_RAW_INT,GPS 1: detected MAV,STABILIZE,0,0,0,0
2026-07-07T02:43:40.871467+00:00,0.3811063766479492,E20_mission_edit,warmup,0,37.5665,126.978,20.0,0.0,,,,,,,3,12,37.5665,126.978,20.0,,,,0.0,0.0,FENCE_STATUS,GPS 1: detected MAV,STABILIZE,0,0,0,0
2026-07-07T02:43:41.069621+00:00,0.579279899597168,E20_mission_edit,warmup,0,37.5665,126.978,20.0,0.0,,,,,,,3,12,37.5665,126.978,20.0,,,,0.0,0.0,HEARTBEAT,GPS 1: detected MAV,STABILIZE,0,0,0,0
2026-07-07T02:43:41.069844+00:00,0.5794847011566162,E20_mission_edit,warmup,0,37.5665,126.978,20.0,0.0,37.5665,126.978,20.0,0.0,0.0,0,3,12,37.5665,126.978,20.0,0.0,0.0,-0.03,0.0,0.0,GLOBAL_POSITION_INT,GPS 1: detected MAV,STABILIZE,0,0,0,0
2026-07-07T02:43:41.069960+00:00,0.579596757888794,E20_mission_edit,warmup,0,37.5665,126.978,20.0,0.0,,,,,,,3,12,37.5665,126.978,20.0,,,,0.0,0.0,MISSION_CURRENT,GPS 1: detected MAV,STABILIZE,0,0,0,0
2026-07-07T02:43:41.070146+00:00,0.5797839164733887,E20_mission_edit,warmup,0,37.5665,126.978,20.0,0.0,,,,,,,3,12,37.5665,126.978,20.0,,,,0.0,0.0,GPS_RAW_INT,GPS 1: detected MAV,STABILIZE,0,0,0,0
2026-07-07T02:43:41.070182+00:00,0.5798182487487793,E20_mission_edit,warmup,0,37.5665,126.978,20.0,0.0,,,,,,,3,12,37.5665,126.978,20.0,,,,0.0,0.0,FENCE_STATUS,GPS 1: detected MAV,STABILIZE,0,0,0,0
2026-07-07T02:43:41.268392+00:00,0.778052568435669,E20_mission_edit,warmup,0,37.5665,126.978,20.0,0.0,,,,,,,3,12,37.5665,126.978,20.0,,,,0.0,0.0,HEARTBEAT,GPS 1: detected MAV,STABILIZE,0,0,0,0
2026-07-07T02:43:41.268562+00:00,0.7782061100006104,E20_mission_edit,warmup,0,37.5665,126.978,20.0,0.0,37.5665,126.978,20.0,0.0,0.0,0,3,12,37.5665,126.978,20.0,0.0,0.0,-0.03,0.0,0.0,GLOBAL_POSITION_INT,GPS 1: detected MAV,STABILIZE,0,0,0,0
2026-07-07T02:43:41.268694+00:00,0.7783331871032715,E20_mission_edit,warmup,0,37.5665,126.978,20.0,0.0,,,,,,,3,12,37.5665,126.978,20.0,,,,0.0,0.0,MISSION_CURRENT,GPS 1: detected MAV,STABILIZE,0,0,0,0
2026-07-07T02:43:41.268903+00:00,0.7785413265228271,E20_mission_edit,warmup,0,37.5665,126.978,20.0,0.0,,,,,,,3,12,37.5665,126.978,20.0,,,,0.0,0.0,GPS_RAW_INT,GPS 1: detected MAV,STABILIZE,0,0,0,0
2026-07-07T02:43:41.268944+00:00,0.7785797119140625,E20_mission_edit,warmup,0,37.5665,126.978,20.0,0.0,,,,,,,3,12,37.5665,126.978,20.0,,,,0.0,0.0,FENCE_STATUS,GPS 1: detected MAV,STABILIZE,0,0,0,0
2026-07-07T02:43:41.472398+00:00,0.9820752143859863,E20_mission_edit,warmup,0,37.5665,126.978,20.0,0.0,,,,,,,3,12,37.5665,126.978,20.0,,,,0.0,0.0,HEARTBEAT,GPS 1: detected MAV,STABILIZE,0,0,0,0
2026-07-07T02:43:41.472590+00:00,0.9822478294372559,E20_mission_edit,warmup,0,37.5665,126.978,20.0,0.0,37.5665,126.978,20.0,0.0,0.0,0,3,12,37.5665,126.978,20.0,0.0,0.0,-0.03,0.0,0.0,GLOBAL_POSITION_INT,GPS 1: detected MAV,STABILIZE,0,0,0,0
2026-07-07T02:43:41.472761+00:00,0.9824051856994629,E20_mission_edit,warmup,0,37.5665,126.978,20.0,0.0,,,,,,,3,12,37.5665,126.978,20.0,,,,0.0,0.0,MISSION_CURRENT,GPS 1: detected MAV,STABILIZE,0,0,0,0
2026-07-07T02:43:41.472977+00:00,0.9826154708862305,E20_mission_edit,warmup,0,37.5665,126.978,20.0,0.0,,,,,,,3,12,37.5665,126.978,20.0,,,,0.0,0.0,GPS_RAW_INT,GPS 1: detected MAV,STABILIZE,0,0,0,0
2026-07-07T02:43:41.473015+00:00,0.9826517105102539,E20_mission_edit,warmup,0,37.5665,126.978,20.0,0.0,,,,,,,3,12,37.5665,126.978,20.0,,,,0.0,0.0,FENCE_STATUS,GPS 1: detected MAV,STABILIZE,0,0,0,0
2026-07-07T02:43:41.670720+00:00,1.1803810596466064,E20_mission_edit,warmup,0,37.5665,126.978,20.0,0.0,,,,,,,3,12,37.5665,126.978,20.0,,,,0.0,0.0,HEARTBEAT,GPS 1: detected MAV,STABILIZE,0,0,0,0
2026-07-07T02:43:41.670892+00:00,1.1805346012115479,E20_mission_edit,warmup,0,37.5665,126.978,20.0,0.0,37.5665,126.978,20.0,0.0,0.0,0,3,12,37.5665,126.978,20.0,0.0,0.0,-0.03,0.0,0.0,GLOBAL_POSITION_INT,GPS 1: detected MAV,STABILIZE,0,0,0,0
2026-07-07T02:43:41.671023+00:00,1.1806612014770508,E20_mission_edit,warmup,0,37.5665,126.978,20.0,0.0,,,,,,,3,12,37.5665,126.978,20.0,,,,0.0,0.0,MISSION_CURRENT,GPS 1: detected MAV,STABILIZE,0,0,0,0
2026-07-07T02:43:41.671222+00:00,1.1808593273162842,E20_mission_edit,warmup,0,37.5665,126.978,20.0,0.0,,,,,,,3,12,37.5665,126.978,20.0,,,,0.0,0.0,GPS_RAW_INT,GPS 1: detected MAV,STABILIZE,0,0,0,0
2026-07-07T02:43:41.671261+00:00,1.1808969974517822,E20_mission_edit,warmup,0,37.5665,126.978,20.0,0.0,,,,,,,3,12,37.5665,126.978,20.0,,,,0.0,0.0,FENCE_STATUS,GPS 1: detected MAV,STABILIZE,0,0,0,0
2026-07-07T02:43:41.874817+00:00,1.384474754333496,E20_mission_edit,warmup,0,37.5665,126.978,20.0,0.0,,,,,,,3,12,37.5665,126.978,20.0,,,,0.0,0.0,HEARTBEAT,GPS 1: detected MAV,STABILIZE,0,0,0,0
2026-07-07T02:43:41.875083+00:00,1.3847246170043945,E20_mission_edit,warmup,0,37.5665,126.978,20.0,0.0,37.5665,126.978,20.0,0.0,0.0,0,3,12,37.5665,126.978,20.0,0.0,0.0,-0.04,0.0,0.0,GLOBAL_POSITION_INT,GPS 1: detected MAV,STABILIZE,0,0,0,0
2026-07-07T02:43:41.875205+00:00,1.3848426342010498,E20_mission_edit,warmup,0,37.5665,126.978,20.0,0.0,,,,,,,3,12,37.5665,126.978,20.0,,,,0.0,0.0,MISSION_CURRENT,GPS 1: detected MAV,STABILIZE,0,0,0,0
2026-07-07T02:43:41.875404+00:00,1.3850417137145996,E20_mission_edit,warmup,0,37.5665,126.978,20.0,0.0,,,,,,,3,12,37.5665,126.978,20.0,,,,0.0,0.0,GPS_RAW_INT,GPS 1: detected MAV,STABILIZE,0,0,0,0
2026-07-07T02:43:41.875450+00:00,1.385087251663208,E20_mission_edit,warmup,0,37.5665,126.978,20.0,0.0,,,,,,,3,12,37.5665,126.978,20.0,,,,0.0,0.0,FENCE_STATUS,GPS 1: detected MAV,STABILIZE,0,0,0,0
2026-07-07T02:43:42.073224+00:00,1.5828857421875,E20_mission_edit,warmup,0,37.5665,126.978,20.0,0.0,,,,,,,3,12,37.5665,126.978,20.0,,,,0.0,0.0,HEARTBEAT,GPS 1: detected MAV,STABILIZE,0,0,0,0
2026-07-07T02:43:42.073386+00:00,1.58302903175354,E20_mission_edit,warmup,0,37.5665,126.978,20.0,0.0,37.5665,126.978,20.0,0.0,0.0,0,3,12,37.5665,126.978,20.0,0.0,0.0,-0.04,0.0,0.0,GLOBAL_POSITION_INT,GPS 1: detected MAV,STABILIZE,0,0,0,0
2026-07-07T02:43:42.073560+00:00,1.5832045078277588,E20_mission_edit,warmup,0,37.5665,126.978,20.0,0.0,,,,,,,3,12,37.5665,126.978,20.0,,,,0.0,0.0,MISSION_CURRENT,GPS 1: detected MAV,STABILIZE,0,0,0,0
2026-07-07T02:43:42.073792+00:00,1.5834312438964844,E20_mission_edit,warmup,0,37.5665,126.978,20.0,0.0,,,,,,,3,12,37.5665,126.978,20.0,,,,0.0,0.0,GPS_RAW_INT,GPS 1: detected MAV,STABILIZE,0,0,0,0
2026-07-07T02:43:42.073842+00:00,1.583482027053833,E20_mission_edit,warmup,0,37.5665,126.978,20.0,0.0,,,,,,,3,12,37.5665,126.978,20.0,,,,0.0,0.0,FENCE_STATUS,GPS 1: detected MAV,STABILIZE,0,0,0,0
2026-07-07T02:43:42.271589+00:00,1.7812473773956299,E20_mission_edit,warmup,0,37.5665,126.978,20.0,0.0,,,,,,,3,12,37.5665,126.978,20.0,,,,0.0,0.0,HEARTBEAT,GPS 1: detected MAV,STABILIZE,0,0,0,0
2026-07-07T02:43:42.271769+00:00,1.7814137935638428,E20_mission_edit,warmup,0,37.5665,126.978,20.0,0.0,37.5665,126.978,20.0,0.0,0.0,0,3,12,37.5665,126.978,20.0,0.0,0.0,-0.04,0.0,0.0,GLOBAL_POSITION_INT,GPS 1: detected MAV,STABILIZE,0,0,0,0
2026-07-07T02:43:42.271895+00:00,1.7815334796905518,E20_mission_edit,warmup,0,37.5665,126.978,20.0,0.0,,,,,,,3,12,37.5665,126.978,20.0,,,,0.0,0.0,MISSION_CURRENT,GPS 1: detected MAV,STABILIZE,0,0,0,0
2026-07-07T02:43:42.272185+00:00,1.7818646430969238,E20_mission_edit,warmup,0,37.5665,126.978,20.0,0.0,,,,,,,3,12,37.5665,126.978,20.0,,,,0.0,0.0,GPS_RAW_INT,GPS 1: detected MAV,STABILIZE,0,0,0,0
2026-07-07T02:43:42.272303+00:00,1.7819418907165527,E20_mission_edit,warmup,0,37.5665,126.978,20.0,0.0,,,,,,,3,12,37.5665,126.978,20.0,,,,0.0,0.0,FENCE_STATUS,GPS 1: detected MAV,STABILIZE,0,0,0,0
2026-07-07T02:43:42.475286+00:00,1.9849436283111572,E20_mission_edit,warmup,0,37.5665,126.978,20.0,0.0,,,,,,,3,12,37.5665,126.978,20.0,,,,0.0,0.0,HEARTBEAT,GPS 1: detected MAV,STABILIZE,0,0,0,0
2026-07-07T02:43:42.475463+00:00,1.985109567642212,E20_mission_edit,warmup,0,37.5665,126.978,20.0,0.0,37.5665,126.978,20.0,0.0,0.0,0,3,12,37.5665,126.978,20.0,0.0,0.0,-0.04,0.0,0.0,GLOBAL_POSITION_INT,GPS 1: detected MAV,STABILIZE,0,0,0,0
2026-07-07T02:43:42.475685+00:00,1.9853284358978271,E20_mission_edit,warmup,0,37.5665,126.978,20.0,0.0,,,,,,,3,12,37.5665,126.978,20.0,,,,0.0,0.0,MISSION_CURRENT,GPS 1: detected MAV,STABILIZE,0,0,0,0
2026-07-07T02:43:42.475942+00:00,1.985583782196045,E20_mission_edit,warmup,0,37.5665,126.978,20.0,0.0,,,,,,,3,12,37.5665,126.978,20.0,,,,0.0,0.0,GPS_RAW_INT,GPS 1: detected MAV,STABILIZE,0,0,0,0
2026-07-07T02:43:42.475985+00:00,1.985621452331543,E20_mission_edit,warmup,0,37.5665,126.978,20.0,0.0,,,,,,,3,12,37.5665,126.978,20.0,,,,0.0,0.0,FENCE_STATUS,GPS 1: detected MAV,STABILIZE,0,0,0,0
2026-07-07T02:43:42.673883+00:00,2.1835451126098633,E20_mission_edit,warmup,0,37.5665,126.978,20.0,0.0,,,,,,,3,12,37.5665,126.978,20.0,,,,0.0,0.0,HEARTBEAT,GPS 1: detected MAV,STABILIZE,0,0,0,0
2026-07-07T02:43:42.674053+00:00,2.1836929321289062,E20_mission_edit,warmup,0,37.5665,126.978,20.0,0.0,37.5665,126.978,20.0,0.0,0.0,0,3,12,37.5665,126.978,20.0,0.0,0.0,-0.04,0.0,0.0,GLOBAL_POSITION_INT,GPS 1: detected MAV,STABILIZE,0,0,0,0
2026-07-07T02:43:42.674168+00:00,2.1838088035583496,E20_mission_edit,warmup,0,37.5665,126.978,20.0,0.0,,,,,,,3,12,37.5665,126.978,20.0,,,,0.0,0.0,MISSION_CURRENT,GPS 1: detected MAV,STABILIZE,0,0,0,0
2026-07-07T02:43:42.674437+00:00,2.1840803623199463,E20_mission_edit,warmup,0,37.5665,126.978,20.0,0.0,,,,,,,3,12,37.5665,126.978,20.0,,,,0.0,0.0,GPS_RAW_INT,GPS 1: detected MAV,STABILIZE,0,0,0,0
2026-07-07T02:43:42.674486+00:00,2.1841225624084473,E20_mission_edit,warmup,0,37.5665,126.978,20.0,0.0,,,,,,,3,12,37.5665,126.978,20.0,,,,0.0,0.0,FENCE_STATUS,GPS 1: detected MAV,STABILIZE,0,0,0,0
2026-07-07T02:43:53.673329+00:00,13.182991981506348,E20_mission_edit,mission_edit_observe,0,,,,,,,,,,,3,12,37.5665,126.978,20.0,,,,,,HEARTBEAT,GPS 1: detected MAV,AUTO,0,0,0,0
2026-07-07T02:43:53.673490+00:00,13.183131456375122,E20_mission_edit,mission_edit_observe,0,,,,,0.0,0.0,0.0,13173877.35106569,,,3,12,37.5665,126.978,20.0,0.0,0.0,0.0,,,GLOBAL_POSITION_INT,GPS 1: detected MAV,AUTO,0,0,0,0
2026-07-07T02:43:53.673613+00:00,13.183249950408936,E20_mission_edit,mission_edit_observe,0,,,,,,,,,,,3,12,37.5665,126.978,20.0,,,,,,MISSION_CURRENT,GPS 1: detected MAV,AUTO,0,0,0,0
2026-07-07T02:43:53.673809+00:00,13.183447360992432,E20_mission_edit,mission_edit_observe,0,,,,,,,,,,,1,0,0.0,0.0,0.0,,,,,,GPS_RAW_INT,GPS 1: detected MAV,AUTO,0,0,0,0
2026-07-07T02:43:53.673849+00:00,13.18348479270935,E20_mission_edit,mission_edit_observe,0,,,,,,,,,,,1,0,0.0,0.0,0.0,,,,,,FENCE_STATUS,GPS 1: detected MAV,AUTO,0,0,0,0
2026-07-07T02:43:53.871673+00:00,13.38133192062378,E20_mission_edit,mission_edit_observe,0,,,,,,,,,,,1,0,0.0,0.0,0.0,,,,,,HEARTBEAT,GPS 1: detected MAV,AUTO,0,0,0,0
2026-07-07T02:43:53.871810+00:00,13.38144826889038,E20_mission_edit,mission_edit_observe,0,,,,,0.0,0.0,0.0,13173877.35106569,,,1,0,0.0,0.0,0.0,0.0,0.0,0.0,,,GLOBAL_POSITION_INT,GPS 1: detected MAV,AUTO,0,0,0,0
2026-07-07T02:43:53.871974+00:00,13.38161587715149,E20_mission_edit,mission_edit_observe,0,,,,,,,,,,,1,0,0.0,0.0,0.0,,,,,,MISSION_CURRENT,GPS 1: detected MAV,AUTO,0,0,0,0
2026-07-07T02:43:53.872193+00:00,13.381833791732788,E20_mission_edit,mission_edit_observe,0,,,,,,,,,,,1,0,0.0,0.0,0.0,,,,,,GPS_RAW_INT,GPS 1: detected MAV,AUTO,0,0,0,0
2026-07-07T02:43:53.872266+00:00,13.381907224655151,E20_mission_edit,mission_edit_observe,0,,,,,,,,,,,1,0,0.0,0.0,0.0,,,,,,FENCE_STATUS,GPS 1: detected MAV,AUTO,0,0,0,0
2026-07-07T02:43:54.069899+00:00,13.579559087753296,E20_mission_edit,mission_edit_observe,0,,,,,,,,,,,1,0,0.0,0.0,0.0,,,,,,HEARTBEAT,GPS 1: detected MAV,AUTO,0,0,0,0
2026-07-07T02:43:54.070044+00:00,13.579683542251587,E20_mission_edit,mission_edit_observe,0,,,,,0.0,0.0,0.0,13173877.35106569,,,1,0,0.0,0.0,0.0,0.0,0.0,0.0,,,GLOBAL_POSITION_INT,GPS 1: detected MAV,AUTO,0,0,0,0
2026-07-07T02:43:54.070163+00:00,13.579800128936768,E20_mission_edit,mission_edit_observe,0,,,,,,,,,,,1,0,0.0,0.0,0.0,,,,,,MISSION_CURRENT,GPS 1: detected MAV,AUTO,0,0,0,0
2026-07-07T02:43:54.070367+00:00,13.580005168914795,E20_mission_edit,mission_edit_observe,0,,,,,,,,,,,1,0,0.0,0.0,0.0,,,,,,GPS_RAW_INT,GPS 1: detected MAV,AUTO,0,0,0,0
2026-07-07T02:43:54.070408+00:00,13.580044507980347,E20_mission_edit,mission_edit_observe,0,,,,,,,,,,,1,0,0.0,0.0,0.0,,,,,,FENCE_STATUS,GPS 1: detected MAV,AUTO,0,0,0,0
2026-07-07T02:43:54.273972+00:00,13.783631324768066,E20_mission_edit,mission_edit_observe,0,,,,,,,,,,,1,0,0.0,0.0,0.0,,,,,,HEARTBEAT,GPS 1: detected MAV,AUTO,0,0,0,0
2026-07-07T02:43:54.274111+00:00,13.783751726150513,E20_mission_edit,mission_edit_observe,0,,,,,0.0,0.0,0.0,13173877.35106569,,,1,0,0.0,0.0,0.0,0.0,0.0,0.0,,,GLOBAL_POSITION_INT,GPS 1: detected MAV,AUTO,0,0,0,0
2026-07-07T02:43:54.274236+00:00,13.783875226974487,E20_mission_edit,mission_edit_observe,0,,,,,,,,,,,1,0,0.0,0.0,0.0,,,,,,MISSION_CURRENT,GPS 1: detected MAV,AUTO,0,0,0,0
2026-07-07T02:43:54.274436+00:00,13.78407335281372,E20_mission_edit,mission_edit_observe,0,,,,,,,,,,,1,0,0.0,0.0,0.0,,,,,,GPS_RAW_INT,GPS 1: detected MAV,AUTO,0,0,0,0
2026-07-07T02:43:54.274474+00:00,13.78411078453064,E20_mission_edit,mission_edit_observe,0,,,,,,,,,,,1,0,0.0,0.0,0.0,,,,,,FENCE_STATUS,GPS 1: detected MAV,AUTO,0,0,0,0
2026-07-07T02:43:54.472283+00:00,13.981940269470215,E20_mission_edit,mission_edit_observe,0,,,,,,,,,,,1,0,0.0,0.0,0.0,,,,,,HEARTBEAT,GPS 1: detected MAV,AUTO,0,0,0,0
2026-07-07T02:43:54.472442+00:00,13.982085704803467,E20_mission_edit,mission_edit_observe,0,,,,,0.0,0.0,0.0,13173877.35106569,,,1,0,0.0,0.0,0.0,0.0,0.0,0.0,,,GLOBAL_POSITION_INT,GPS 1: detected MAV,AUTO,0,0,0,0
2026-07-07T02:43:54.472596+00:00,13.982238292694092,E20_mission_edit,mission_edit_observe,0,,,,,,,,,,,1,0,0.0,0.0,0.0,,,,,,MISSION_CURRENT,GPS 1: detected MAV,AUTO,0,0,0,0
2026-07-07T02:43:54.472873+00:00,13.982515096664429,E20_mission_edit,mission_edit_observe,0,,,,,,,,,,,1,0,0.0,0.0,0.0,,,,,,GPS_RAW_INT,GPS 1: detected MAV,AUTO,0,0,0,0
2026-07-07T02:43:54.472930+00:00,13.982566833496094,E20_mission_edit,mission_edit_observe,0,,,,,,,,,,,1,0,0.0,0.0,0.0,,,,,,FENCE_STATUS,GPS 1: detected MAV,AUTO,0,0,0,0
2026-07-07T02:43:54.676378+00:00,14.18603801727295,E20_mission_edit,mission_edit_observe,0,,,,,,,,,,,1,0,0.0,0.0,0.0,,,,,,HEARTBEAT,GPS 1: detected MAV,AUTO,0,0,0,0
2026-07-07T02:43:54.676516+00:00,14.18615460395813,E20_mission_edit,mission_edit_observe,0,,,,,0.0,0.0,0.0,13173877.35106569,,,1,0,0.0,0.0,0.0,0.0,0.01,0.0,,,GLOBAL_POSITION_INT,GPS 1: detected MAV,AUTO,0,0,0,0
2026-07-07T02:43:54.676625+00:00,14.186261892318726,E20_mission_edit,mission_edit_observe,0,,,,,,,,,,,1,0,0.0,0.0,0.0,,,,,,MISSION_CURRENT,GPS 1: detected MAV,AUTO,0,0,0,0
2026-07-07T02:43:54.676811+00:00,14.186450481414795,E20_mission_edit,mission_edit_observe,0,,,,,,,,,,,1,0,0.0,0.0,0.0,,,,,,GPS_RAW_INT,GPS 1: detected MAV,AUTO,0,0,0,0
2026-07-07T02:43:54.676850+00:00,14.18648624420166,E20_mission_edit,mission_edit_observe,0,,,,,,,,,,,1,0,0.0,0.0,0.0,,,,,,FENCE_STATUS,GPS 1: detected MAV,AUTO,0,0,0,0
2026-07-07T02:43:54.874700+00:00,14.384358644485474,E20_mission_edit,mission_edit_observe,0,,,,,,,,,,,1,0,0.0,0.0,0.0,,,,,,HEARTBEAT,GPS 1: detected MAV,AUTO,0,0,0,0
2026-07-07T02:43:54.874861+00:00,14.3845055103302,E20_mission_edit,mission_edit_observe,0,,,,,0.0,0.0,0.0,13173877.35106569,,,1,0,0.0,0.0,0.0,-0.01,0.01,0.0,,,GLOBAL_POSITION_INT,GPS 1: detected MAV,AUTO,0,0,0,0
2026-07-07T02:43:54.875015+00:00,14.38465690612793,E20_mission_edit,mission_edit_observe,0,,,,,,,,,,,1,0,0.0,0.0,0.0,,,,,,MISSION_CURRENT,GPS 1: detected MAV,AUTO,0,0,0,0
2026-07-07T02:43:54.875293+00:00,14.384936094284058,E20_mission_edit,mission_edit_observe,0,,,,,,,,,,,1,0,0.0,0.0,0.0,,,,,,GPS_RAW_INT,GPS 1: detected MAV,AUTO,0,0,0,0
2026-07-07T02:43:54.875379+00:00,14.385020732879639,E20_mission_edit,mission_edit_observe,0,,,,,,,,,,,1,0,0.0,0.0,0.0,,,,,,FENCE_STATUS,GPS 1: detected MAV,AUTO,0,0,0,0
2026-07-07T02:43:55.072919+00:00,14.582589864730835,E20_mission_edit,mission_edit_observe,0,,,,,,,,,,,1,0,0.0,0.0,0.0,,,,,,HEARTBEAT,GPS 1: detected MAV,AUTO,0,0,0,0
2026-07-07T02:43:55.073104+00:00,14.582751750946045,E20_mission_edit,mission_edit_observe,0,,,,,0.0,0.0,0.0,13173877.35106569,,,1,0,0.0,0.0,0.0,-0.01,0.01,0.0,,,GLOBAL_POSITION_INT,GPS 1: detected MAV,AUTO,0,0,0,0
2026-07-07T02:43:55.073234+00:00,14.582870960235596,E20_mission_edit,mission_edit_observe,0,,,,,,,,,,,1,0,0.0,0.0,0.0,,,,,,MISSION_CURRENT,GPS 1: detected MAV,AUTO,0,0,0,0
2026-07-07T02:43:55.073458+00:00,14.583099603652954,E20_mission_edit,mission_edit_observe,0,,,,,,,,,,,1,0,0.0,0.0,0.0,,,,,,GPS_RAW_INT,GPS 1: detected MAV,AUTO,0,0,0,0
2026-07-07T02:43:55.073536+00:00,14.583177089691162,E20_mission_edit,mission_edit_observe,0,,,,,,,,,,,1,0,0.0,0.0,0.0,,,,,,FENCE_STATUS,GPS 1: detected MAV,AUTO,0,0,0,0
2026-07-07T02:43:55.276891+00:00,14.786550521850586,E20_mission_edit,mission_edit_observe,0,,,,,,,,,,,1,0,0.0,0.0,0.0,,,,,,HEARTBEAT,GPS 1: detected MAV,AUTO,0,0,0,0
2026-07-07T02:43:55.277041+00:00,14.786681175231934,E20_mission_edit,mission_edit_observe,0,,,,,0.0,0.0,0.0,13173877.35106569,,,1,0,0.0,0.0,0.0,-0.01,0.01,0.0,,,GLOBAL_POSITION_INT,GPS 1: detected MAV,AUTO,0,0,0,0
2026-07-07T02:43:55.277167+00:00,14.786804676055908,E20_mission_edit,mission_edit_observe,0,,,,,,,,,,,1,0,0.0,0.0,0.0,,,,,,MISSION_CURRENT,GPS 1: detected MAV,AUTO,0,0,0,0
2026-07-07T02:43:55.277385+00:00,14.787023305892944,E20_mission_edit,mission_edit_observe,0,,,,,,,,,,,1,0,0.0,0.0,0.0,,,,,,GPS_RAW_INT,GPS 1: detected MAV,AUTO,0,0,0,0
2026-07-07T02:43:55.277427+00:00,14.787063360214233,E20_mission_edit,mission_edit_observe,0,,,,,,,,,,,1,0,0.0,0.0,0.0,,,,,,FENCE_STATUS,GPS 1: detected MAV,AUTO,0,0,0,0
2026-07-07T02:43:55.475322+00:00,14.984981060028076,E20_mission_edit,mission_edit_observe,0,,,,,,,,,,,1,0,0.0,0.0,0.0,,,,,,HEARTBEAT,GPS 1: detected MAV,AUTO,0,0,0,0
2026-07-07T02:43:55.475455+00:00,14.9850914478302,E20_mission_edit,mission_edit_observe,0,,,,,0.0,0.0,0.0,13173877.35106569,,,1,0,0.0,0.0,0.0,-0.01,0.01,0.0,,,GLOBAL_POSITION_INT,GPS 1: detected MAV,AUTO,0,0,0,0
2026-07-07T02:43:55.475629+00:00,14.985271453857422,E20_mission_edit,mission_edit_observe,0,,,,,,,,,,,1,0,0.0,0.0,0.0,,,,,,MISSION_CURRENT,GPS 1: detected MAV,AUTO,0,0,0,0
2026-07-07T02:43:55.475823+00:00,14.985459089279175,E20_mission_edit,mission_edit_observe,0,,,,,,,,,,,1,0,0.0,0.0,0.0,,,,,,GPS_RAW_INT,GPS 1: detected MAV,AUTO,0,0,0,0
2026-07-07T02:43:55.475859+00:00,14.985495328903198,E20_mission_edit,mission_edit_observe,0,,,,,,,,,,,1,0,0.0,0.0,0.0,,,,,,FENCE_STATUS,GPS 1: detected MAV,AUTO,0,0,0,0
2026-07-07T02:43:55.673601+00:00,15.18327021598816,E20_mission_edit,mission_edit_observe,0,,,,,,,,,,,1,0,0.0,0.0,0.0,,,,,,HEARTBEAT,GPS 1: detected MAV,AUTO,0,0,0,0
2026-07-07T02:43:55.673760+00:00,15.183403491973877,E20_mission_edit,mission_edit_observe,0,,,,,0.0,0.0,0.0,13173877.35106569,,,1,0,0.0,0.0,0.0,-0.01,0.01,0.0,,,GLOBAL_POSITION_INT,GPS 1: detected MAV,AUTO,0,0,0,0
2026-07-07T02:43:55.673878+00:00,15.183517456054688,E20_mission_edit,mission_edit_observe,0,,,,,,,,,,,1,0,0.0,0.0,0.0,,,,,,MISSION_CURRENT,GPS 1: detected MAV,AUTO,0,0,0,0
2026-07-07T02:43:55.674101+00:00,15.18374228477478,E20_mission_edit,mission_edit_observe,0,,,,,,,,,,,1,0,0.0,0.0,0.0,,,,,,GPS_RAW_INT,GPS 1: detected MAV,AUTO,0,0,0,0
2026-07-07T02:43:55.674144+00:00,15.183780670166016,E20_mission_edit,mission_edit_observe,0,,,,,,,,,,,1,0,0.0,0.0,0.0,,,,,,FENCE_STATUS,GPS 1: detected MAV,AUTO,0,0,0,0
2026-07-07T02:43:55.871889+00:00,15.381547212600708,E20_mission_edit,mission_edit_observe,0,,,,,,,,,,,1,0,0.0,0.0,0.0,,,,,,HEARTBEAT,GPS 1: detected MAV,AUTO,0,0,0,0
2026-07-07T02:43:55.872020+00:00,15.381657361984253,E20_mission_edit,mission_edit_observe,0,,,,,0.0,0.0,0.0,13173877.35106569,,,1,0,0.0,0.0,0.0,-0.01,0.01,0.0,,,GLOBAL_POSITION_INT,GPS 1: detected MAV,AUTO,0,0,0,0
2026-07-07T02:43:55.872128+00:00,15.38176441192627,E20_mission_edit,mission_edit_observe,0,,,,,,,,,,,1,0,0.0,0.0,0.0,,,,,,MISSION_CURRENT,GPS 1: detected MAV,AUTO,0,0,0,0
2026-07-07T02:43:55.872315+00:00,15.38195252418518,E20_mission_edit,mission_edit_observe,0,,,,,,,,,,,1,0,0.0,0.0,0.0,,,,,,GPS_RAW_INT,GPS 1: detected MAV,AUTO,0,0,0,0
2026-07-07T02:43:55.872352+00:00,15.381988048553467,E20_mission_edit,mission_edit_observe,0,,,,,,,,,,,1,0,0.0,0.0,0.0,,,,,,FENCE_STATUS,GPS 1: detected MAV,AUTO,0,0,0,0
2026-07-07T02:43:56.070184+00:00,15.579840660095215,E20_mission_edit,mission_edit_observe,0,,,,,,,,,,,1,0,0.0,0.0,0.0,,,,,,HEARTBEAT,GPS 1: detected MAV,AUTO,0,0,0,0
2026-07-07T02:43:56.070312+00:00,15.579949140548706,E20_mission_edit,mission_edit_observe,0,,,,,0.0,0.0,0.0,13173877.35106569,,,1,0,0.0,0.0,0.0,-0.01,0.01,0.0,,,GLOBAL_POSITION_INT,GPS 1: detected MAV,AUTO,0,0,0,0
2026-07-07T02:43:56.070399+00:00,15.58003544807434,E20_mission_edit,mission_edit_observe,0,,,,,,,,,,,1,0,0.0,0.0,0.0,,,,,,MISSION_CURRENT,GPS 1: detected MAV,AUTO,0,0,0,0
2026-07-07T02:43:56.070581+00:00,15.58022141456604,E20_mission_edit,mission_edit_observe,0,,,,,,,,,,,1,0,0.0,0.0,0.0,,,,,,GPS_RAW_INT,GPS 1: detected MAV,AUTO,0,0,0,0
2026-07-07T02:43:56.070616+00:00,15.580251455307007,E20_mission_edit,mission_edit_observe,0,,,,,,,,,,,1,0,0.0,0.0,0.0,,,,,,FENCE_STATUS,GPS 1: detected MAV,AUTO,0,0,0,0
2026-07-07T02:43:56.274206+00:00,15.783865928649902,E20_mission_edit,mission_edit_observe,0,,,,,,,,,,,1,0,0.0,0.0,0.0,,,,,,HEARTBEAT,GPS 1: detected MAV,AUTO,0,0,0,0
2026-07-07T02:43:56.274345+00:00,15.783983945846558,E20_mission_edit,mission_edit_observe,0,,,,,0.0,0.0,0.0,13173877.35106569,,,1,0,0.0,0.0,0.0,-0.01,0.01,0.0,,,GLOBAL_POSITION_INT,GPS 1: detected MAV,AUTO,0,0,0,0
2026-07-07T02:43:56.274458+00:00,15.784095287322998,E20_mission_edit,mission_edit_observe,0,,,,,,,,,,,1,0,0.0,0.0,0.0,,,,,,MISSION_CURRENT,GPS 1: detected MAV,AUTO,0,0,0,0
2026-07-07T02:43:56.274659+00:00,15.784298419952393,E20_mission_edit,mission_edit_observe,0,,,,,,,,,,,1,0,0.0,0.0,0.0,,,,,,GPS_RAW_INT,GPS 1: detected MAV,AUTO,0,0,0,0
2026-07-07T02:43:56.274700+00:00,15.784335851669312,E20_mission_edit,mission_edit_observe,0,,,,,,,,,,,1,0,0.0,0.0,0.0,,,,,,FENCE_STATUS,GPS 1: detected MAV,AUTO,0,0,0,0
2026-07-07T02:43:56.472761+00:00,15.982420921325684,E20_mission_edit,mission_edit_observe,0,,,,,,,,,,,1,0,0.0,0.0,0.0,,,,,,HEARTBEAT,GPS 1: detected MAV,AUTO,0,0,0,0
2026-07-07T02:43:56.472932+00:00,15.982577085494995,E20_mission_edit,mission_edit_observe,0,,,,,0.0,0.0,0.0,13173877.35106569,,,1,0,0.0,0.0,0.0,-0.01,0.01,0.0,,,GLOBAL_POSITION_INT,GPS 1: detected MAV,AUTO,0,0,0,0
2026-07-07T02:43:56.473045+00:00,15.982681512832642,E20_mission_edit,mission_edit_observe,0,,,,,,,,,,,1,0,0.0,0.0,0.0,,,,,,MISSION_CURRENT,GPS 1: detected MAV,AUTO,0,0,0,0
2026-07-07T02:43:56.473296+00:00,15.98293924331665,E20_mission_edit,mission_edit_observe,0,,,,,,,,,,,1,0,0.0,0.0,0.0,,,,,,GPS_RAW_INT,GPS 1: detected MAV,AUTO,0,0,0,0
2026-07-07T02:43:56.473344+00:00,15.982980012893677,E20_mission_edit,mission_edit_observe,0,,,,,,,,,,,1,0,0.0,0.0,0.0,,,,,,FENCE_STATUS,GPS 1: detected MAV,AUTO,0,0,0,0
2026-07-07T02:43:56.676672+00:00,16.186330556869507,E20_mission_edit,mission_edit_observe,0,,,,,,,,,,,1,0,0.0,0.0,0.0,,,,,,HEARTBEAT,GPS 1: detected MAV,AUTO,0,0,0,0
2026-07-07T02:43:56.676805+00:00,16.186442136764526,E20_mission_edit,mission_edit_observe,0,,,,,0.0,0.0,0.0,13173877.35106569,,,1,0,0.0,0.0,0.0,-0.01,0.01,0.0,,,GLOBAL_POSITION_INT,GPS 1: detected MAV,AUTO,0,0,0,0
2026-07-07T02:43:56.676909+00:00,16.186545610427856,E20_mission_edit,mission_edit_observe,0,,,,,,,,,,,1,0,0.0,0.0,0.0,,,,,,MISSION_CURRENT,GPS 1: detected MAV,AUTO,0,0,0,0
2026-07-07T02:43:56.677088+00:00,16.186725616455078,E20_mission_edit,mission_edit_observe,0,,,,,,,,,,,1,0,0.0,0.0,0.0,,,,,,GPS_RAW_INT,GPS 1: detected MAV,AUTO,0,0,0,0
2026-07-07T02:43:56.677164+00:00,16.18680477142334,E20_mission_edit,mission_edit_observe,0,,,,,,,,,,,1,0,0.0,0.0,0.0,,,,,,FENCE_STATUS,GPS 1: detected MAV,AUTO,0,0,0,0
2026-07-07T02:43:56.874925+00:00,16.384583950042725,E20_mission_edit,mission_edit_observe,0,,,,,,,,,,,1,0,0.0,0.0,0.0,,,,,,HEARTBEAT,GPS 1: detected MAV,AUTO,0,0,0,0
2026-07-07T02:43:56.875105+00:00,16.38474988937378,E20_mission_edit,mission_edit_observe,0,,,,,0.0,0.0,0.0,13173877.35106569,,,1,0,0.0,0.0,0.0,-0.01,0.01,0.0,,,GLOBAL_POSITION_INT,GPS 1: detected MAV,AUTO,0,0,0,0
2026-07-07T02:43:56.875234+00:00,16.38487219810486,E20_mission_edit,mission_edit_observe,0,,,,,,,,,,,1,0,0.0,0.0,0.0,,,,,,MISSION_CURRENT,GPS 1: detected MAV,AUTO,0,0,0,0
2026-07-07T02:43:56.875442+00:00,16.385080099105835,E20_mission_edit,mission_edit_observe,0,,,,,,,,,,,1,0,0.0,0.0,0.0,,,,,,GPS_RAW_INT,GPS 1: detected MAV,AUTO,0,0,0,0
2026-07-07T02:43:56.875484+00:00,16.385120153427124,E20_mission_edit,mission_edit_observe,0,,,,,,,,,,,1,0,0.0,0.0,0.0,,,,,,FENCE_STATUS,GPS 1: detected MAV,AUTO,0,0,0,0
2026-07-07T02:43:57.073202+00:00,16.582859992980957,E20_mission_edit,mission_edit_observe,0,,,,,,,,,,,1,0,0.0,0.0,0.0,,,,,,HEARTBEAT,GPS 1: detected MAV,AUTO,0,0,0,0
2026-07-07T02:43:57.073344+00:00,16.582982301712036,E20_mission_edit,mission_edit_observe,0,,,,,0.0,0.0,0.0,13173877.35106569,,,1,0,0.0,0.0,0.0,-0.01,0.01,0.0,,,GLOBAL_POSITION_INT,GPS 1: detected MAV,AUTO,0,0,0,0
2026-07-07T02:43:57.073472+00:00,16.583112001419067,E20_mission_edit,mission_edit_observe,0,,,,,,,,,,,1,0,0.0,0.0,0.0,,,,,,MISSION_CURRENT,GPS 1: detected MAV,AUTO,0,0,0,0
2026-07-07T02:43:57.073677+00:00,16.583314418792725,E20_mission_edit,mission_edit_observe,0,,,,,,,,,,,1,0,0.0,0.0,0.0,,,,,,GPS_RAW_INT,GPS 1: detected MAV,AUTO,0,0,0,0
2026-07-07T02:43:57.073717+00:00,16.58335304260254,E20_mission_edit,mission_edit_observe,0,,,,,,,,,,,1,0,0.0,0.0,0.0,,,,,,FENCE_STATUS,GPS 1: detected MAV,AUTO,0,0,0,0
2026-07-07T02:43:57.277125+00:00,16.78678560256958,E20_mission_edit,mission_edit_observe,0,,,,,,,,,,,1,0,0.0,0.0,0.0,,,,,,HEARTBEAT,GPS 1: detected MAV,AUTO,0,0,0,0
2026-07-07T02:43:57.277325+00:00,16.78696894645691,E20_mission_edit,mission_edit_observe,0,,,,,0.0,0.0,0.0,13173877.35106569,,,1,0,0.0,0.0,0.0,-0.01,0.01,0.0,,,GLOBAL_POSITION_INT,GPS 1: detected MAV,AUTO,0,0,0,0
2026-07-07T02:43:57.277606+00:00,16.787249088287354,E20_mission_edit,mission_edit_observe,0,,,,,,,,,,,1,0,0.0,0.0,0.0,,,,,,MISSION_CURRENT,GPS 1: detected MAV,AUTO,0,0,0,0
2026-07-07T02:43:57.277942+00:00,16.78758430480957,E20_mission_edit,mission_edit_observe,0,,,,,,,,,,,1,0,0.0,0.0,0.0,,,,,,GPS_RAW_INT,GPS 1: detected MAV,AUTO,0,0,0,0
2026-07-07T02:43:57.278011+00:00,16.787648916244507,E20_mission_edit,mission_edit_observe,0,,,,,,,,,,,1,0,0.0,0.0,0.0,,,,,,FENCE_STATUS,GPS 1: detected MAV,AUTO,0,0,0,0
2026-07-07T02:43:57.475614+00:00,16.985275268554688,E20_mission_edit,mission_edit_observe,0,,,,,,,,,,,1,0,0.0,0.0,0.0,,,,,,HEARTBEAT,GPS 1: detected MAV,AUTO,0,0,0,0
2026-07-07T02:43:57.475776+00:00,16.985419750213623,E20_mission_edit,mission_edit_observe,0,,,,,0.0,0.0,0.0,13173877.35106569,,,1,0,0.0,0.0,0.0,-0.01,0.01,0.0,,,GLOBAL_POSITION_INT,GPS 1: detected MAV,AUTO,0,0,0,0
2026-07-07T02:43:57.475925+00:00,16.98556923866272,E20_mission_edit,mission_edit_observe,0,,,,,,,,,,,1,0,0.0,0.0,0.0,,,,,,MISSION_CURRENT,GPS 1: detected MAV,AUTO,0,0,0,0
2026-07-07T02:43:57.476154+00:00,16.985795259475708,E20_mission_edit,mission_edit_observe,0,,,,,,,,,,,1,0,0.0,0.0,0.0,,,,,,GPS_RAW_INT,GPS 1: detected MAV,AUTO,0,0,0,0
2026-07-07T02:43:57.476197+00:00,16.985833883285522,E20_mission_edit,mission_edit_observe,0,,,,,,,,,,,1,0,0.0,0.0,0.0,,,,,,FENCE_STATUS,GPS 1: detected MAV,AUTO,0,0,0,0
2026-07-07T02:43:57.673868+00:00,17.18352723121643,E20_mission_edit,mission_edit_observe,0,,,,,,,,,,,1,0,0.0,0.0,0.0,,,,,,HEARTBEAT,GPS 1: detected MAV,AUTO,0,0,0,0
2026-07-07T02:43:57.674005+00:00,17.18364667892456,E20_mission_edit,mission_edit_observe,0,,,,,0.0,0.0,0.0,13173877.35106569,,,1,0,0.0,0.0,0.0,-0.01,0.01,0.0,,,GLOBAL_POSITION_INT,GPS 1: detected MAV,AUTO,0,0,0,0
2026-07-07T02:43:57.674190+00:00,17.18383240699768,E20_mission_edit,mission_edit_observe,0,,,,,,,,,,,1,0,0.0,0.0,0.0,,,,,,MISSION_CURRENT,GPS 1: detected MAV,AUTO,0,0,0,0
2026-07-07T02:43:57.674345+00:00,17.183981895446777,E20_mission_edit,mission_edit_observe,0,,,,,,,,,,,1,0,0.0,0.0,0.0,,,,,,GPS_RAW_INT,GPS 1: detected MAV,AUTO,0,0,0,0
2026-07-07T02:43:57.674373+00:00,17.184008836746216,E20_mission_edit,mission_edit_observe,0,,,,,,,,,,,1,0,0.0,0.0,0.0,,,,,,FENCE_STATUS,GPS 1: detected MAV,AUTO,0,0,0,0
2026-07-07T02:43:57.872286+00:00,17.381946325302124,E20_mission_edit,mission_edit_observe,0,,,,,,,,,,,1,0,0.0,0.0,0.0,,,,,,HEARTBEAT,GPS 1: detected MAV,AUTO,0,0,0,0
2026-07-07T02:43:57.872426+00:00,17.38206648826599,E20_mission_edit,mission_edit_observe,0,,,,,0.0,0.0,0.0,13173877.35106569,,,1,0,0.0,0.0,0.0,-0.01,0.01,0.0,,,GLOBAL_POSITION_INT,GPS 1: detected MAV,AUTO,0,0,0,0
2026-07-07T02:43:57.872545+00:00,17.382184743881226,E20_mission_edit,mission_edit_observe,0,,,,,,,,,,,1,0,0.0,0.0,0.0,,,,,,MISSION_CURRENT,GPS 1: detected MAV,AUTO,0,0,0,0
2026-07-07T02:43:57.872768+00:00,17.382410287857056,E20_mission_edit,mission_edit_observe,0,,,,,,,,,,,1,0,0.0,0.0,0.0,,,,,,GPS_RAW_INT,GPS 1: detected MAV,AUTO,0,0,0,0
2026-07-07T02:43:57.872945+00:00,17.382587432861328,E20_mission_edit,mission_edit_observe,0,,,,,,,,,,,1,0,0.0,0.0,0.0,,,,,,FENCE_STATUS,GPS 1: detected MAV,AUTO,0,0,0,0
2026-07-07T02:43:58.070590+00:00,17.580252647399902,E20_mission_edit,mission_edit_observe,0,,,,,,,,,,,1,0,0.0,0.0,0.0,,,,,,HEARTBEAT,GPS 1: detected MAV,AUTO,0,0,0,0
2026-07-07T02:43:58.070771+00:00,17.58041548728943,E20_mission_edit,mission_edit_observe,0,,,,,0.0,0.0,0.0,13173877.35106569,,,1,0,0.0,0.0,0.0,-0.01,0.01,0.0,,,GLOBAL_POSITION_INT,GPS 1: detected MAV,AUTO,0,0,0,0
2026-07-07T02:43:58.070944+00:00,17.580585956573486,E20_mission_edit,mission_edit_observe,0,,,,,,,,,,,1,0,0.0,0.0,0.0,,,,,,MISSION_CURRENT,GPS 1: detected MAV,AUTO,0,0,0,0
2026-07-07T02:43:58.071752+00:00,17.581394910812378,E20_mission_edit,mission_edit_observe,0,,,,,,,,,,,1,0,0.0,0.0,0.0,,,,,,GPS_RAW_INT,GPS 1: detected MAV,AUTO,0,0,0,0
2026-07-07T02:43:58.071814+00:00,17.581450700759888,E20_mission_edit,mission_edit_observe,0,,,,,,,,,,,1,0,0.0,0.0,0.0,,,,,,FENCE_STATUS,GPS 1: detected MAV,AUTO,0,0,0,0
2026-07-07T02:43:58.274571+00:00,17.784230947494507,E20_mission_edit,mission_edit_observe,0,,,,,,,,,,,1,0,0.0,0.0,0.0,,,,,,HEARTBEAT,GPS 1: detected MAV,AUTO,0,0,0,0
2026-07-07T02:43:58.274709+00:00,17.78434658050537,E20_mission_edit,mission_edit_observe,0,,,,,0.0,0.0,0.0,13173877.35106569,,,1,0,0.0,0.0,0.0,-0.01,0.01,0.0,,,GLOBAL_POSITION_INT,GPS 1: detected MAV,AUTO,0,0,0,0
2026-07-07T02:43:58.274821+00:00,17.78445792198181,E20_mission_edit,mission_edit_observe,0,,,,,,,,,,,1,0,0.0,0.0,0.0,,,,,,MISSION_CURRENT,GPS 1: detected MAV,AUTO,0,0,0,0
2026-07-07T02:43:58.275010+00:00,17.78465223312378,E20_mission_edit,mission_edit_observe,0,,,,,,,,,,,1,0,0.0,0.0,0.0,,,,,,GPS_RAW_INT,GPS 1: detected MAV,AUTO,0,0,0,0
2026-07-07T02:43:58.275082+00:00,17.784722328186035,E20_mission_edit,mission_edit_observe,0,,,,,,,,,,,1,0,0.0,0.0,0.0,,,,,,FENCE_STATUS,GPS 1: detected MAV,AUTO,0,0,0,0
2026-07-07T02:43:58.472847+00:00,17.98250913619995,E20_mission_edit,mission_edit_observe,0,,,,,,,,,,,1,0,0.0,0.0,0.0,,,,,,HEARTBEAT,GPS 1: detected MAV,AUTO,0,0,0,0
2026-07-07T02:43:58.472989+00:00,17.98262882232666,E20_mission_edit,mission_edit_observe,0,,,,,0.0,0.0,0.0,13173877.35106569,,,1,0,0.0,0.0,0.0,-0.01,0.01,0.0,,,GLOBAL_POSITION_INT,GPS 1: detected MAV,AUTO,0,0,0,0
2026-07-07T02:43:58.473102+00:00,17.982740879058838,E20_mission_edit,mission_edit_observe,0,,,,,,,,,,,1,0,0.0,0.0,0.0,,,,,,MISSION_CURRENT,GPS 1: detected MAV,AUTO,0,0,0,0
2026-07-07T02:43:58.473295+00:00,17.982935428619385,E20_mission_edit,mission_edit_observe,0,,,,,,,,,,,1,0,0.0,0.0,0.0,,,,,,GPS_RAW_INT,GPS 1: detected MAV,AUTO,0,0,0,0
2026-07-07T02:43:58.473356+00:00,17.982996702194214,E20_mission_edit,mission_edit_observe,0,,,,,,,,,,,1,0,0.0,0.0,0.0,,,,,,FENCE_STATUS,GPS 1: detected MAV,AUTO,0,0,0,0
2026-07-07T02:43:58.676958+00:00,18.1866192817688,E20_mission_edit,mission_edit_observe,0,,,,,,,,,,,1,0,0.0,0.0,0.0,,,,,,HEARTBEAT,GPS 1: detected MAV,AUTO,0,0,0,0
2026-07-07T02:43:58.677642+00:00,18.18731141090393,E20_mission_edit,mission_edit_observe,0,,,,,0.0,0.0,0.0,13173877.35106569,,,1,0,0.0,0.0,0.0,-0.01,0.01,0.0,,,GLOBAL_POSITION_INT,GPS 1: detected MAV,AUTO,0,0,0,0
2026-07-07T02:43:58.677849+00:00,18.187495708465576,E20_mission_edit,mission_edit_observe,0,,,,,,,,,,,1,0,0.0,0.0,0.0,,,,,,MISSION_CURRENT,GPS 1: detected MAV,AUTO,0,0,0,0
2026-07-07T02:43:58.678136+00:00,18.18777847290039,E20_mission_edit,mission_edit_observe,0,,,,,,,,,,,1,0,0.0,0.0,0.0,,,,,,GPS_RAW_INT,GPS 1: detected MAV,AUTO,0,0,0,0
2026-07-07T02:43:58.678175+00:00,18.187811613082886,E20_mission_edit,mission_edit_observe,0,,,,,,,,,,,1,0,0.0,0.0,0.0,,,,,,FENCE_STATUS,GPS 1: detected MAV,AUTO,0,0,0,0
2026-07-07T02:43:58.875223+00:00,18.384883165359497,E20_mission_edit,mission_edit_observe,0,,,,,,,,,,,1,0,0.0,0.0,0.0,,,,,,HEARTBEAT,GPS 1: detected MAV,AUTO,0,0,0,0
2026-07-07T02:43:58.875382+00:00,18.385021924972534,E20_mission_edit,mission_edit_observe,0,,,,,0.0,0.0,0.0,13173877.35106569,,,1,0,0.0,0.0,0.0,-0.01,0.01,0.0,,,GLOBAL_POSITION_INT,GPS 1: detected MAV,AUTO,0,0,0,0
2026-07-07T02:43:58.875511+00:00,18.385148525238037,E20_mission_edit,mission_edit_observe,0,,,,,,,,,,,1,0,0.0,0.0,0.0,,,,,,MISSION_CURRENT,GPS 1: detected MAV,AUTO,0,0,0,0
2026-07-07T02:43:58.875744+00:00,18.38538670539856,E20_mission_edit,mission_edit_observe,0,,,,,,,,,,,1,0,0.0,0.0,0.0,,,,,,GPS_RAW_INT,GPS 1: detected MAV,AUTO,0,0,0,0
2026-07-07T02:43:58.875816+00:00,18.385456800460815,E20_mission_edit,mission_edit_observe,0,,,,,,,,,,,1,0,0.0,0.0,0.0,,,,,,FENCE_STATUS,GPS 1: detected MAV,AUTO,0,0,0,0
2026-07-07T02:43:59.073570+00:00,18.583229780197144,E20_mission_edit,mission_edit_observe,0,,,,,,,,,,,1,0,0.0,0.0,0.0,,,,,,HEARTBEAT,GPS 1: detected MAV,AUTO,0,0,0,0
2026-07-07T02:43:59.073766+00:00,18.58341145515442,E20_mission_edit,mission_edit_observe,0,,,,,0.0,0.0,0.0,13173877.35106569,,,1,0,0.0,0.0,0.0,-0.01,0.01,0.0,,,GLOBAL_POSITION_INT,GPS 1: detected MAV,AUTO,0,0,0,0
2026-07-07T02:43:59.073954+00:00,18.583598613739014,E20_mission_edit,mission_edit_observe,0,,,,,,,,,,,1,0,0.0,0.0,0.0,,,,,,MISSION_CURRENT,GPS 1: detected MAV,AUTO,0,0,0,0
2026-07-07T02:43:59.074227+00:00,18.583869695663452,E20_mission_edit,mission_edit_observe,0,,,,,,,,,,,1,0,0.0,0.0,0.0,,,,,,GPS_RAW_INT,GPS 1: detected MAV,AUTO,0,0,0,0
2026-07-07T02:43:59.074283+00:00,18.58392357826233,E20_mission_edit,mission_edit_observe,0,,,,,,,,,,,1,0,0.0,0.0,0.0,,,,,,FENCE_STATUS,GPS 1: detected MAV,AUTO,0,0,0,0
2026-07-07T02:43:59.277452+00:00,18.787114143371582,E20_mission_edit,mission_edit_observe,0,,,,,,,,,,,1,0,0.0,0.0,0.0,,,,,,HEARTBEAT,GPS 1: detected MAV,AUTO,0,0,0,0
2026-07-07T02:43:59.277615+00:00,18.78725838661194,E20_mission_edit,mission_edit_observe,0,,,,,0.0,0.0,0.0,13173877.35106569,,,1,0,0.0,0.0,0.0,-0.01,0.01,0.0,,,GLOBAL_POSITION_INT,GPS 1: detected MAV,AUTO,0,0,0,0
2026-07-07T02:43:59.277791+00:00,18.787433385849,E20_mission_edit,mission_edit_observe,0,,,,,,,,,,,1,0,0.0,0.0,0.0,,,,,,MISSION_CURRENT,GPS 1: detected MAV,AUTO,0,0,0,0
2026-07-07T02:43:59.278124+00:00,18.787766218185425,E20_mission_edit,mission_edit_observe,0,,,,,,,,,,,1,0,0.0,0.0,0.0,,,,,,GPS_RAW_INT,GPS 1: detected MAV,AUTO,0,0,0,0
2026-07-07T02:43:59.278204+00:00,18.787845611572266,E20_mission_edit,mission_edit_observe,0,,,,,,,,,,,1,0,0.0,0.0,0.0,,,,,,FENCE_STATUS,GPS 1: detected MAV,AUTO,0,0,0,0
2026-07-07T02:43:59.475872+00:00,18.985530138015747,E20_mission_edit,mission_edit_observe,0,,,,,,,,,,,1,0,0.0,0.0,0.0,,,,,,HEARTBEAT,GPS 1: detected MAV,AUTO,0,0,0,0
2026-07-07T02:43:59.476052+00:00,18.985697031021118,E20_mission_edit,mission_edit_observe,0,,,,,0.0,0.0,0.0,13173877.35106569,,,1,0,0.0,0.0,0.0,-0.01,0.01,0.0,,,GLOBAL_POSITION_INT,GPS 1: detected MAV,AUTO,0,0,0,0
2026-07-07T02:43:59.476226+00:00,18.985870122909546,E20_mission_edit,mission_edit_observe,0,,,,,,,,,,,1,0,0.0,0.0,0.0,,,,,,MISSION_CURRENT,GPS 1: detected MAV,AUTO,0,0,0,0
2026-07-07T02:43:59.476525+00:00,18.98616623878479,E20_mission_edit,mission_edit_observe,0,,,,,,,,,,,1,0,0.0,0.0,0.0,,,,,,GPS_RAW_INT,GPS 1: detected MAV,AUTO,0,0,0,0
2026-07-07T02:43:59.476588+00:00,18.98622965812683,E20_mission_edit,mission_edit_observe,0,,,,,,,,,,,1,0,0.0,0.0,0.0,,,,,,FENCE_STATUS,GPS 1: detected MAV,AUTO,0,0,0,0
2026-07-07T02:43:59.674220+00:00,19.18388032913208,E20_mission_edit,mission_edit_observe,0,,,,,,,,,,,1,0,0.0,0.0,0.0,,,,,,HEARTBEAT,GPS 1: detected MAV,AUTO,0,0,0,0
2026-07-07T02:43:59.674404+00:00,19.184049129486084,E20_mission_edit,mission_edit_observe,0,,,,,0.0,0.0,0.0,13173877.35106569,,,1,0,0.0,0.0,0.0,-0.01,0.01,0.0,,,GLOBAL_POSITION_INT,GPS 1: detected MAV,AUTO,0,0,0,0
2026-07-07T02:43:59.674580+00:00,19.184223890304565,E20_mission_edit,mission_edit_observe,0,,,,,,,,,,,1,0,0.0,0.0,0.0,,,,,,MISSION_CURRENT,GPS 1: detected MAV,AUTO,0,0,0,0
2026-07-07T02:43:59.674880+00:00,19.184521675109863,E20_mission_edit,mission_edit_observe,0,,,,,,,,,,,1,0,0.0,0.0,0.0,,,,,,GPS_RAW_INT,GPS 1: detected MAV,AUTO,0,0,0,0
2026-07-07T02:43:59.674948+00:00,19.18458867073059,E20_mission_edit,mission_edit_observe,0,,,,,,,,,,,1,0,0.0,0.0,0.0,,,,,,FENCE_STATUS,GPS 1: detected MAV,AUTO,0,0,0,0
2026-07-07T02:43:59.872529+00:00,19.382189512252808,E20_mission_edit,mission_edit_observe,0,,,,,,,,,,,1,0,0.0,0.0,0.0,,,,,,HEARTBEAT,GPS 1: detected MAV,AUTO,0,0,0,0
2026-07-07T02:43:59.872675+00:00,19.382316827774048,E20_mission_edit,mission_edit_observe,0,,,,,0.0,0.0,0.0,13173877.35106569,,,1,0,0.0,0.0,0.0,-0.01,0.01,0.0,,,GLOBAL_POSITION_INT,GPS 1: detected MAV,AUTO,0,0,0,0
2026-07-07T02:43:59.872815+00:00,19.382457971572876,E20_mission_edit,mission_edit_observe,0,,,,,,,,,,,1,0,0.0,0.0,0.0,,,,,,MISSION_CURRENT,GPS 1: detected MAV,AUTO,0,0,0,0
2026-07-07T02:43:59.873045+00:00,19.382683992385864,E20_mission_edit,mission_edit_observe,0,,,,,,,,,,,1,0,0.0,0.0,0.0,,,,,,GPS_RAW_INT,GPS 1: detected MAV,AUTO,0,0,0,0
2026-07-07T02:43:59.873086+00:00,19.382722854614258,E20_mission_edit,mission_edit_observe,0,,,,,,,,,,,1,0,0.0,0.0,0.0,,,,,,FENCE_STATUS,GPS 1: detected MAV,AUTO,0,0,0,0
2026-07-07T02:44:00.070755+00:00,19.580416917800903,E20_mission_edit,mission_edit_observe,0,,,,,,,,,,,1,0,0.0,0.0,0.0,,,,,,HEARTBEAT,GPS 1: detected MAV,AUTO,0,0,0,0
2026-07-07T02:44:00.070935+00:00,19.58057999610901,E20_mission_edit,mission_edit_observe,0,,,,,0.0,0.0,0.0,13173877.35106569,,,1,0,0.0,0.0,0.0,-0.01,0.01,0.0,,,GLOBAL_POSITION_INT,GPS 1: detected MAV,AUTO,0,0,0,0
2026-07-07T02:44:00.071254+00:00,19.580913066864014,E20_mission_edit,mission_edit_observe,0,,,,,,,,,,,1,0,0.0,0.0,0.0,,,,,,MISSION_CURRENT,GPS 1: detected MAV,AUTO,0,0,0,0
2026-07-07T02:44:00.071637+00:00,19.58128023147583,E20_mission_edit,mission_edit_observe,0,,,,,,,,,,,1,0,0.0,0.0,0.0,,,,,,GPS_RAW_INT,GPS 1: detected MAV,AUTO,0,0,0,0
2026-07-07T02:44:00.071686+00:00,19.58132290840149,E20_mission_edit,mission_edit_observe,0,,,,,,,,,,,1,0,0.0,0.0,0.0,,,,,,FENCE_STATUS,GPS 1: detected MAV,AUTO,0,0,0,0
2026-07-07T02:44:00.274848+00:00,19.78450894355774,E20_mission_edit,mission_edit_observe,0,,,,,,,,,,,1,0,0.0,0.0,0.0,,,,,,HEARTBEAT,GPS 1: detected MAV,AUTO,0,0,0,0
2026-07-07T02:44:00.275047+00:00,19.784693002700806,E20_mission_edit,mission_edit_observe,0,,,,,0.0,0.0,0.0,13173877.35106569,,,1,0,0.0,0.0,0.0,-0.01,0.01,0.0,,,GLOBAL_POSITION_INT,GPS 1: detected MAV,AUTO,0,0,0,0
2026-07-07T02:44:00.275210+00:00,19.78485369682312,E20_mission_edit,mission_edit_observe,0,,,,,,,,,,,1,0,0.0,0.0,0.0,,,,,,MISSION_CURRENT,GPS 1: detected MAV,AUTO,0,0,0,0
2026-07-07T02:44:00.275451+00:00,19.78509259223938,E20_mission_edit,mission_edit_observe,0,,,,,,,,,,,1,0,0.0,0.0,0.0,,,,,,GPS_RAW_INT,GPS 1: detected MAV,AUTO,0,0,0,0
2026-07-07T02:44:00.275545+00:00,19.78518557548523,E20_mission_edit,mission_edit_observe,0,,,,,,,,,,,1,0,0.0,0.0,0.0,,,,,,FENCE_STATUS,GPS 1: detected MAV,AUTO,0,0,0,0
2026-07-07T02:44:00.473153+00:00,19.98281168937683,E20_mission_edit,mission_edit_observe,0,,,,,,,,,,,1,0,0.0,0.0,0.0,,,,,,HEARTBEAT,GPS 1: detected MAV,AUTO,0,0,0,0
2026-07-07T02:44:00.473306+00:00,19.982950925827026,E20_mission_edit,mission_edit_observe,0,,,,,0.0,0.0,0.0,13173877.35106569,,,1,0,0.0,0.0,0.0,-0.01,0.01,0.0,,,GLOBAL_POSITION_INT,GPS 1: detected MAV,AUTO,0,0,0,0
2026-07-07T02:44:00.473444+00:00,19.983081340789795,E20_mission_edit,mission_edit_observe,0,,,,,,,,,,,1,0,0.0,0.0,0.0,,,,,,MISSION_CURRENT,GPS 1: detected MAV,AUTO,0,0,0,0
2026-07-07T02:44:00.473624+00:00,19.9832603931427,E20_mission_edit,mission_edit_observe,0,,,,,,,,,,,1,0,0.0,0.0,0.0,,,,,,GPS_RAW_INT,GPS 1: detected MAV,AUTO,0,0,0,0
2026-07-07T02:44:00.473657+00:00,19.983293294906616,E20_mission_edit,mission_edit_observe,0,,,,,,,,,,,1,0,0.0,0.0,0.0,,,,,,FENCE_STATUS,GPS 1: detected MAV,AUTO,0,0,0,0
2026-07-07T02:44:00.677292+00:00,20.186952352523804,E20_mission_edit,mission_edit_observe,0,,,,,,,,,,,1,0,0.0,0.0,0.0,,,,,,HEARTBEAT,GPS 1: detected MAV,AUTO,0,0,0,0
2026-07-07T02:44:00.677447+00:00,20.18708562850952,E20_mission_edit,mission_edit_observe,0,,,,,0.0,0.0,0.0,13173877.35106569,,,1,0,0.0,0.0,0.0,-0.01,0.01,0.0,,,GLOBAL_POSITION_INT,GPS 1: detected MAV,AUTO,0,0,0,0
2026-07-07T02:44:00.677660+00:00,20.187307834625244,E20_mission_edit,mission_edit_observe,0,,,,,,,,,,,1,0,0.0,0.0,0.0,,,,,,MISSION_CURRENT,GPS 1: detected MAV,AUTO,0,0,0,0
2026-07-07T02:44:00.677896+00:00,20.18753457069397,E20_mission_edit,mission_edit_observe,0,,,,,,,,,,,1,0,0.0,0.0,0.0,,,,,,GPS_RAW_INT,GPS 1: detected MAV,AUTO,0,0,0,0
2026-07-07T02:44:00.677936+00:00,20.187572717666626,E20_mission_edit,mission_edit_observe,0,,,,,,,,,,,1,0,0.0,0.0,0.0,,,,,,FENCE_STATUS,GPS 1: detected MAV,AUTO,0,0,0,0
2026-07-07T02:44:00.875437+00:00,20.385096311569214,E20_mission_edit,mission_edit_observe,0,,,,,,,,,,,1,0,0.0,0.0,0.0,,,,,,HEARTBEAT,GPS 1: detected MAV,AUTO,0,0,0,0
2026-07-07T02:44:00.875673+00:00,20.385319471359253,E20_mission_edit,mission_edit_observe,0,,,,,0.0,0.0,0.0,13173877.35106569,,,1,0,0.0,0.0,0.0,-0.01,0.02,0.0,,,GLOBAL_POSITION_INT,GPS 1: detected MAV,AUTO,0,0,0,0
2026-07-07T02:44:00.875798+00:00,20.385435819625854,E20_mission_edit,mission_edit_observe,0,,,,,,,,,,,1,0,0.0,0.0,0.0,,,,,,MISSION_CURRENT,GPS 1: detected MAV,AUTO,0,0,0,0
2026-07-07T02:44:00.875963+00:00,20.385599374771118,E20_mission_edit,mission_edit_observe,0,,,,,,,,,,,1,0,0.0,0.0,0.0,,,,,,GPS_RAW_INT,GPS 1: detected MAV,AUTO,0,0,0,0
2026-07-07T02:44:00.875991+00:00,20.385626792907715,E20_mission_edit,mission_edit_observe,0,,,,,,,,,,,1,0,0.0,0.0,0.0,,,,,,FENCE_STATUS,GPS 1: detected MAV,AUTO,0,0,0,0
2026-07-07T02:44:01.073733+00:00,20.583390712738037,E20_mission_edit,mission_edit_observe,0,,,,,,,,,,,1,0,0.0,0.0,0.0,,,,,,HEARTBEAT,GPS 1: detected MAV,AUTO,0,0,0,0
2026-07-07T02:44:01.073876+00:00,20.583515167236328,E20_mission_edit,mission_edit_observe,0,,,,,0.0,0.0,0.0,13173877.35106569,,,1,0,0.0,0.0,0.0,-0.02,0.02,0.0,,,GLOBAL_POSITION_INT,GPS 1: detected MAV,AUTO,0,0,0,0
2026-07-07T02:44:01.073994+00:00,20.58363127708435,E20_mission_edit,mission_edit_observe,0,,,,,,,,,,,1,0,0.0,0.0,0.0,,,,,,MISSION_CURRENT,GPS 1: detected MAV,AUTO,0,0,0,0
2026-07-07T02:44:01.074226+00:00,20.583868741989136,E20_mission_edit,mission_edit_observe,0,,,,,,,,,,,1,0,0.0,0.0,0.0,,,,,,GPS_RAW_INT,GPS 1: detected MAV,AUTO,0,0,0,0
2026-07-07T02:44:01.074275+00:00,20.58391237258911,E20_mission_edit,mission_edit_observe,0,,,,,,,,,,,1,0,0.0,0.0,0.0,,,,,,FENCE_STATUS,GPS 1: detected MAV,AUTO,0,0,0,0
2026-07-07T02:44:01.277736+00:00,20.78739643096924,E20_mission_edit,mission_edit_observe,0,,,,,,,,,,,1,0,0.0,0.0,0.0,,,,,,HEARTBEAT,GPS 1: detected MAV,AUTO,0,0,0,0
2026-07-07T02:44:01.277872+00:00,20.787510871887207,E20_mission_edit,mission_edit_observe,0,,,,,0.0,0.0,0.0,13173877.35106569,,,1,0,0.0,0.0,0.0,-0.02,0.02,0.0,,,GLOBAL_POSITION_INT,GPS 1: detected MAV,AUTO,0,0,0,0
2026-07-07T02:44:01.277985+00:00,20.78762435913086,E20_mission_edit,mission_edit_observe,0,,,,,,,,,,,1,0,0.0,0.0,0.0,,,,,,MISSION_CURRENT,GPS 1: detected MAV,AUTO,0,0,0,0
2026-07-07T02:44:01.278178+00:00,20.787817239761353,E20_mission_edit,mission_edit_observe,0,,,,,,,,,,,1,0,0.0,0.0,0.0,,,,,,GPS_RAW_INT,GPS 1: detected MAV,AUTO,0,0,0,0
2026-07-07T02:44:01.278242+00:00,20.787882328033447,E20_mission_edit,mission_edit_observe,0,,,,,,,,,,,1,0,0.0,0.0,0.0,,,,,,FENCE_STATUS,GPS 1: detected MAV,AUTO,0,0,0,0
2026-07-07T02:44:01.476141+00:00,20.985799551010132,E20_mission_edit,mission_edit_observe,0,,,,,,,,,,,1,0,0.0,0.0,0.0,,,,,,HEARTBEAT,GPS 1: detected MAV,AUTO,0,0,0,0
2026-07-07T02:44:01.476302+00:00,20.985947132110596,E20_mission_edit,mission_edit_observe,0,,,,,0.0,0.0,0.0,13173877.35106569,,,1,0,0.0,0.0,0.0,-0.02,0.02,0.0,,,GLOBAL_POSITION_INT,GPS 1: detected MAV,AUTO,0,0,0,0
2026-07-07T02:44:01.476430+00:00,20.986067056655884,E20_mission_edit,mission_edit_observe,0,,,,,,,,,,,1,0,0.0,0.0,0.0,,,,,,MISSION_CURRENT,GPS 1: detected MAV,AUTO,0,0,0,0
2026-07-07T02:44:01.476734+00:00,20.98637819290161,E20_mission_edit,mission_edit_observe,0,,,,,,,,,,,1,0,0.0,0.0,0.0,,,,,,GPS_RAW_INT,GPS 1: detected MAV,AUTO,0,0,0,0
2026-07-07T02:44:01.476784+00:00,20.98642063140869,E20_mission_edit,mission_edit_observe,0,,,,,,,,,,,1,0,0.0,0.0,0.0,,,,,,FENCE_STATUS,GPS 1: detected MAV,AUTO,0,0,0,0
